stop_id,stop_code,stop_name,stop_desc,stop_lat,stop_lon,zone_id,stop_url,location_type,parent_station,stop_timezone,wheelchair_boarding
ARCOM@AAPAPNO,ARCOM@AAPAPNO,AUXR_PARC NORD,,47.85900687,3.53437721,,,1,,,2
ARCOM@APPAEGL,ARCOM@APPAEGL,APPOIGNY EGLISE,,47.87816568,3.52528574,,,1,,,2
ARCOM@APPAPAR,ARCOM@APPAPAR,AUXR_PARC,,47.85663350,3.53786250,,,1,,,0
ARCOM@APPAPPO,ARCOM@APPAPPO,APPOIGNY,,47.88059997,3.52672829,,,1,,,2
ARCOM@APPARDU,ARCOM@APPARDU,APPOIGNY RUE DU PAVILLON,,47.87395231,3.52675987,,,1,,,2
ARCOM@APPCRPI,ARCOM@APPCRPI,APPOIGNY Chemin Ruelle Pizze,,47.86284062,3.53503076,,,1,,,2
ARCOM@APPLSUR,ARCOM@APPLSUR,APPOIGNY Les Sureaux,,47.86811227,3.53816757,,,1,,,2
ARCOM@APPPRNO,ARCOM@APPPRNO,P+R NORD,,47.85045850,3.54966800,,,1,,,2
ARCOM@APPRDPO,ARCOM@APPRDPO,APPOIGNY Rue Du Pont,,47.87674683,3.53347667,,,1,,,2
ARCOM@APPREGE,ARCOM@APPREGE,APPOIGNY Régennes,,47.87400800,3.53948100,,,1,,,2
ARCOM@APPSTAD,ARCOM@APPSTAD,APPOIGNY Stade,,47.88032405,3.53125604,,,1,,,2
ARCOM@AUGR606,ARCOM@AUGR606,AUGY Rd 606,,47.76562022,3.61232168,,,1,,,2
ARCOM@AUXAEXP,ARCOM@AUXAEXP,AUXERREXPO,,47.78598000,3.59636000,,,1,,,2
ARCOM@AUXALOU,ARCOM@AUXALOU,ALOUETTE,,47.79952686,3.58933009,,,1,,,2
ARCOM@AUXARBO,ARCOM@AUXARBO,ARBORETUM,,47.78595667,3.57136167,,,1,,,2
ARCOM@AUXARQU,ARCOM@AUXARQU,ARQUEBUSE,,47.79243309,3.56737025,,,1,,,2
ARCOM@AUXASGE,ARCOM@AUXASGE,ABBAYE,,47.80022900,3.57179000,,,1,,,2
ARCOM@AUXBATA,ARCOM@AUXBATA,BATARDEAU,,47.79311187,3.58200699,,,1,,,2
ARCOM@AUXBDJO,ARCOM@AUXBDJO,BAS DE JONCHES,,47.82129886,3.58180846,,,1,,,2
ARCOM@AUXBOUR,ARCOM@AUXBOUR,BOURNEIL,,47.79063671,3.56843511,,,1,,,2
ARCOM@AUXBRAZ,ARCOM@AUXBRAZ,BRAZZA,,47.80099500,3.58243333,,,1,,,2
ARCOM@AUXBRIC,ARCOM@AUXBRIC,BRICHERES,,47.79300571,3.54509689,,,1,,,2
ARCOM@AUXCACA,ARCOM@AUXCACA,COLLEGE ALBERT CAMUS,,47.80917886,3.57048292,,,1,,,2
ARCOM@AUXCAIL,ARCOM@AUXCAIL,CAILLOTTES,,47.82094846,3.57748912,,,1,,,2
ARCOM@AUXCARR,ARCOM@AUXCARR,CARRIERES,,47.78776509,3.58185218,,,1,,,2
ARCOM@AUXCDFO,ARCOM@AUXCDFO,CHARLES DE FOUCAULD,,47.79508495,3.58884394,,,1,,,2
ARCOM@AUXCDRO,ARCOM@AUXCDRO,AUXERRE Collège Denfert Rochereau,,47.79772031,3.55823400,,,1,,,2
ARCOM@AUXCHAM,ARCOM@AUXCHAM,CHAMPLEROY,,47.80377292,3.56277656,,,1,,,2
ARCOM@AUXCHAN,ARCOM@AUXCHAN,CHANTEMERLE,,47.78174638,3.59007853,,,1,,,2
ARCOM@AUXCHAP,ARCOM@AUXCHAP,CHAMPOULAINS,,47.80514200,3.57962900,,,1,,,2
ARCOM@AUXCIFA,ARCOM@AUXCIFA,AUXERRE Cifa,,47.80892800,3.58113800,,,1,,,2
ARCOM@AUXCOCH,ARCOM@AUXCOCH,COCHOIS,,47.79945300,3.57316700,,,1,,,2
ARCOM@AUXCOLB,ARCOM@AUXCOLB,COLBERT,,47.79674056,3.58884260,,,1,,,2
ARCOM@AUXCOLE,ARCOM@AUXCOLE,COLETTE,,47.79005243,3.55698366,,,1,,,2
ARCOM@AUXCORD,ARCOM@AUXCORD,CORDELIERS,,47.79649000,3.57030000,,,1,,,2
ARCOM@AUXCPBE,ARCOM@AUXCPBE,COLLEGE PAUL BERT,,47.78567400,3.58486750,,,1,,,2
ARCOM@AUXCSET,ARCOM@AUXCSET,CATHEDRALE,,47.79729700,3.57162800,,,1,,,2
ARCOM@AUXCSPO,ARCOM@AUXCSPO,COMPLEXE SPORTIF,,47.79626633,3.59305697,,,1,,,2
ARCOM@AUXDENF,ARCOM@AUXDENF,DENFERT,,47.79681261,3.56037927,,,1,,,2
ARCOM@AUXDGAU,ARCOM@AUXDGAU,DE GAULLE,,47.80353447,3.56661884,,,1,,,2
ARCOM@AUXDPAP,ARCOM@AUXDPAP,DENIS PAPIN,,47.81076620,3.58310270,,,1,,,2
ARCOM@AUXDREI,ARCOM@AUXDREI,DJANGO REINHARDT,,47.79756159,3.54495674,,,1,,,2
ARCOM@AUXDSCH,ARCOM@AUXDSCH,DR SCHWEITZER,,47.79234428,3.59078022,,,1,,,2
ARCOM@AUXEGLE,ARCOM@AUXEGLE,EGLENY,,47.79566354,3.56393462,,,1,,,2
ARCOM@AUXEGRI,ARCOM@AUXEGRI,EGRISELLES,,47.79497348,3.59423266,,,1,,,2
ARCOM@AUXEIFF,ARCOM@AUXEIFF,EIFFEL,,47.81169340,3.57158848,,,1,,,2
ARCOM@AUXFLEU,ARCOM@AUXFLEU,FLEURUS,,47.80094398,3.55512732,,,1,,,2
ARCOM@AUXFOUL,ARCOM@AUXFOUL,FOULON,,47.80800389,3.55229685,,,1,,,2
ARCOM@AUXFOUN,ARCOM@AUXFOUN,FOURNEAUX,,47.81327961,3.57138819,,,1,,,2
ARCOM@AUXFOUR,ARCOM@AUXFOUR,FOURIER,,47.79435986,3.55219349,,,1,,,2
ARCOM@AUXFRAG,ARCOM@AUXFRAG,FRAGONARD,,47.79874189,3.54922202,,,1,,,2
ARCOM@AUXGAMB,ARCOM@AUXGAMB,GAMBETTA,,47.79622450,3.58017950,,,1,,,2
ARCOM@AUXGOUR,ARCOM@AUXGOUR,GOURAUD,,47.80541053,3.55366626,,,1,,,2
ARCOM@AUXGSNC,ARCOM@AUXGSNC,GARE SNCF,,47.79796999,3.58474167,,,1,,,2
ARCOM@AUXGUYE,ARCOM@AUXGUYE,GUYENNE,,47.78024367,3.58509072,,,1,,,2
ARCOM@AUXGUYN,ARCOM@AUXGUYN,GUYNEMER,,47.81124877,3.57508153,,,1,,,2
ARCOM@AUXH2,ARCOM@AUXH2,H2,,47.80589502,3.58885467,,,1,,,2
ARCOM@AUXHATI,ARCOM@AUXHATI,HATIN,,47.79705586,3.55729042,,,1,,,2
ARCOM@AUXHAUS,ARCOM@AUXHAUS,HAUSSMANN,,47.81601000,3.57343950,,,1,,,2
ARCOM@AUXHEUR,ARCOM@AUXHEUR,HEURTEBISE,,47.81007271,3.55354475,,,1,,,2
ARCOM@AUXHOPI,ARCOM@AUXHOPI,HOPITAL,,47.80233583,3.55301667,,,1,,,2
ARCOM@AUXINGR,ARCOM@AUXINGR,INGRES,,47.79762808,3.54722523,,,1,,,2
ARCOM@AUXJMON,ARCOM@AUXJMON,JEAN MONNET,,47.81383834,3.56406083,,,1,,,2
ARCOM@AUXJONC,ARCOM@AUXJONC,AUXERRE Jonches,,47.82558050,3.58819850,,,1,,,2
ARCOM@AUXLAMA,ARCOM@AUXLAMA,LAMARTINE,,47.80148084,3.57609917,,,1,,,2
ARCOM@AUXLCLA,ARCOM@AUXLCLA,LES CLAIRIONS,,47.81548738,3.57227406,,,1,,,2
ARCOM@AUXLCON,ARCOM@AUXLCON,LES CONCHES,,47.80635305,3.56951742,,,1,,,2
ARCOM@AUXLEMA,ARCOM@AUXLEMA,AUXERRE Laborde Ecole Maternelle,,47.82735200,3.61548300,,,1,,,2
ARCOM@AUXLFAY,ARCOM@AUXLFAY,LAFAYETTE,,47.79601874,3.54880130,,,1,,,2
ARCOM@AUXLFOU,ARCOM@AUXLFOU,AUXERRE Lycée Fourier,,47.79182100,3.55223500,,,1,,,2
ARCOM@AUXLLOT,ARCOM@AUXLLOT,AUXERRE Laborde Neuve,,47.82550800,3.61245000,,,1,,,2
ARCOM@AUXLMAR,ARCOM@AUXLMAR,AUXERRE Laborde Mairie,,47.82660500,3.61574600,,,1,,,2
ARCOM@AUXLNOU,ARCOM@AUXLNOU,LA NOUE,,47.78360400,3.58788000,,,1,,,2
ARCOM@AUXLPHA,ARCOM@AUXLPHA,LE PHARE,,47.79718656,3.55185697,,,1,,,2
ARCOM@AUXLPIE,ARCOM@AUXLPIE,LES PIEDALLOUES,,47.78135218,3.58057865,,,1,,,2
ARCOM@AUXLRIC,ARCOM@AUXLRIC,LOUIS RICHARD,,47.78703058,3.57502342,,,1,,,2
ARCOM@AUXLROS,ARCOM@AUXLROS,LES ROSOIRS,,47.80211879,3.55732439,,,1,,,2
ARCOM@AUXLROU,ARCOM@AUXLROU,LA ROUE,,47.79174300,3.59304650,,,1,,,2
ARCOM@AUXLSJO,ARCOM@AUXLSJO,AUXERRE Lycée Saint Joseph,,47.81128289,3.55964960,,,1,,,2
ARCOM@AUXLTCO,ARCOM@AUXLTCO,AUXERRE La Tour Coulon,,47.82933550,3.59947350,,,1,,,2
ARCOM@AUXLUMI,ARCOM@AUXLUMI,LUMIERE,,47.81309654,3.58570709,,,1,,,2
ARCOM@AUXLVAU,ARCOM@AUXLVAU,LES VAUVIERS,,47.79574584,3.58983750,,,1,,,2
ARCOM@AUXLYAU,ARCOM@AUXLYAU,LYAUTEY,,47.79158636,3.55029985,,,1,,,2
ARCOM@AUXMARN,ARCOM@AUXMARN,MARNE,,47.81194602,3.56119913,,,1,,,2
ARCOM@AUXMDPR,ARCOM@AUXMDPR,MOULIN DU PRESIDENT,,47.80872393,3.58105940,,,1,,,2
ARCOM@AUXMERM,ARCOM@AUXMERM,MERMOZ,,47.81734743,3.58498932,,,1,,,2
ARCOM@AUXMIGN,ARCOM@AUXMIGN,AUXERRE Mignottes,,47.80243022,3.59052695,,,1,,,2
ARCOM@AUXMONG,ARCOM@AUXMONG,MONGE,,47.80798518,3.56444443,,,1,,,2
ARCOM@AUXPAST,ARCOM@AUXPAST,PASTEUR,,47.79462860,3.55526276,,,1,,,2
ARCOM@AUXPDIS,ARCOM@AUXPDIS,PLAINE DES ISLES,,47.82734265,3.57388337,,,1,,,2
ARCOM@AUXPDJU,ARCOM@AUXPDJU,PALAIS DE JUSTICE,,47.79821700,3.56860600,,,1,,,2
ARCOM@AUXPDPA,ARCOM@AUXPDPA,PORTE DE PARIS,,47.80028126,3.56693825,,,1,,,2
ARCOM@AUXPDVA,ARCOM@AUXPDVA,PONT DE VALLAN,,47.78669869,3.56685294,,,1,,,2
ARCOM@AUXPEM,ARCOM@AUXPEM,GARE ROUTIERE,,47.80146560,3.56579910,,,1,,,2
ARCOM@AUXPEMP,ARCOM@AUXPEMP,FRANCE TRAVAIL,,47.81371032,3.57625883,,,1,,,2
ARCOM@AUXPOLI,ARCOM@AUXPOLI,POLICE,,47.79373755,3.57829908,,,1,,,2
ARCOM@AUXPOLY,ARCOM@AUXPOLY,POLYCLINIQUE,,47.81197590,3.56618626,,,1,,,2
ARCOM@AUXPSMA,ARCOM@AUXPSMA,PLAINE,,47.80466770,3.58266159,,,1,,,2
ARCOM@AUXQRI1,ARCOM@AUXQRI1,QUATRIEME RI,,47.80310452,3.55963796,,,1,,,2
ARCOM@AUXQRI2,ARCOM@AUXQRI2,QUATRIEME RI,,47.80311529,3.55958928,,,1,,,2
ARCOM@AUXQUAI,ARCOM@AUXQUAI,QUAIS,,47.79608800,3.57590700,,,1,,,2
ARCOM@AUXRDPO,ARCOM@AUXRDPO,RUE DU PONT,,47.79499255,3.57740549,,,1,,,2
ARCOM@AUXRDTE,ARCOM@AUXRDTE,RUE DU TEMPLE,,47.79364500,3.56887400,,,1,,,2
ARCOM@AUXREDD,ARCOM@AUXREDD,REDDITCH,,47.79352811,3.58648365,,,1,,,2
ARCOM@AUXSAMA,ARCOM@AUXSAMA,SAINT AMATRE,,47.79016100,3.56534200,,,1,,,2
ARCOM@AUXSASE,ARCOM@AUXSASE,STADE ARBRE SEC,,47.78789683,3.58500648,,,1,,,2
ARCOM@AUXSAVO,ARCOM@AUXSAVO,SAVOIE,,47.78103140,3.58823900,,,1,,,2
ARCOM@AUXSMAR,ARCOM@AUXSMAR,SAINTE MARGUERITE,,47.81019778,3.56536514,,,1,,,2
ARCOM@AUXSPIE,ARCOM@AUXSPIE,SAINT-PIERRE,,47.79445000,3.57486900,,,1,,,2
ARCOM@AUXSSMI,ARCOM@AUXSSMI,SAINT SIMEON MIDI,,47.80536301,3.55583670,,,1,,,2
ARCOM@AUXSSNO,ARCOM@AUXSSNO,ST SIMEON NORD,,47.81207678,3.55549905,,,1,,,2
ARCOM@AUXSTEC,ARCOM@AUXSTEC,SERVICES TECHNIQUES,,47.81752112,3.57531660,,,1,,,2
ARCOM@AUXSURU,ARCOM@AUXSURU,SURUGUE,,47.79475700,3.56946200,,,1,,,2
ARCOM@AUXTASS,ARCOM@AUXTASS,TASSIGNY,,47.78937150,3.56046300,,,1,,,2
ARCOM@AUXTHEA,ARCOM@AUXTHEA,THEATRE,,47.79620700,3.57214000,,,1,,,2
ARCOM@AUXTOUR,ARCOM@AUXTOUR,TOURNELLE,,47.79976333,3.58094833,,,1,,,2
ARCOM@AUXTURG,ARCOM@AUXTURG,TURGOTINE,,47.80085021,3.58970838,,,1,,,2
ARCOM@AUXUDBO,ARCOM@AUXUDBO,UNIVERSITE DE BOURGOGNE,,47.78845907,3.59398842,,,1,,,2
ARCOM@AUXVAGR,ARCOM@AUXVAGR,VIA AGRIPPA,,47.78469270,3.57572426,,,1,,,2
ARCOM@AUXVAUB,ARCOM@AUXVAUB,VAUBAN,,47.79822256,3.56530407,,,1,,,2
ARCOM@AUXVAUL,ARCOM@AUXVAUL,VAULABELLE,,47.79259134,3.57428146,,,1,,,2
ARCOM@AUXVERD,ARCOM@AUXVERD,VERDUN,,47.80808944,3.55830581,,,1,,,2
ARCOM@AUXZIND,ARCOM@AUXZIND,ZONE INDUSTRIELLE,,47.82381321,3.57474944,,,1,,,2
ARCOM@BLCEGLI,ARCOM@BLCEGLI,BLEIGNY LE CARREAU Eglise,,47.83581170,3.68256695,,,1,,,2
ARCOM@CHA14RB,ARCOM@CHA14RB,CHARBUY 14 Rue Des Bruyères,,47.84349590,3.48704726,,,1,,,2
ARCOM@CHACABR,ARCOM@CHACABR,CHARBUY - Chaumois Abribus,,47.82884700,3.46414200,,,1,,,2
ARCOM@CHACSIR,ARCOM@CHACSIR,CHARBUY Courlis Sirec,,47.84759270,3.48021568,,,1,,,2
ARCOM@CHACTRA,ARCOM@CHACTRA,CHARBUY Chaumois Transformateur,,47.83104000,3.46836900,,,1,,,2
ARCOM@CHALFOY,ARCOM@CHALFOY,CHARBUY Le Foyer,,47.83057900,3.45942250,,,1,,,2
ARCOM@CHALGPO,ARCOM@CHALGPO,CHARBUY Le Grand Ponceau,,47.84503130,3.44503406,,,1,,,2
ARCOM@CHALVDL,ARCOM@CHALVDL,CHARBUY Les Vernes De Lavault,,47.84679465,3.44751908,,,1,,,2
ARCOM@CHEORGY,ARCOM@CHEORGY,CHEVANNES Orgy,,47.76435867,3.50656133,,,1,,,2
ARCOM@CHERVDE,ARCOM@CHERVDE,CHEVANNES Rue Vau Derrière,,47.75239300,3.48931783,,,1,,,2
ARCOM@CLVPDBA,ARCOM@CLVPDBA,COULANGES LA VINEUSE Porte D'en Bas,,47.70202250,3.58358300,,,1,,,2
ARCOM@CSYLASC,ARCOM@CSYLASC,CHAMPS SUR YONNE Lycée Albert Schweitzer,,47.73470700,3.60324400,,,1,,,2
ARCOM@ESCEECO,ARCOM@ESCEECO,ESCAMPS Escamps Ecole,,47.72897059,3.47111601,,,1,,,2
ARCOM@ESCGRIL,ARCOM@ESCGRIL,ESCAMPS Grilletière,,47.69755050,3.49545100,,,1,,,2
ARCOM@ESCLHUI,ARCOM@ESCLHUI,ESCAMPS Les Huilliers,,47.71932750,3.48494200,,,1,,,2
ARCOM@ESCSLBA,ARCOM@ESCSLBA,ESCAMPS Semilly Le Bas,,47.72204200,3.45462700,,,1,,,2
ARCOM@ESCSLHA,ARCOM@ESCSLHA,ESCAMPS Semilly Le Haut,,47.71647250,3.45662050,,,1,,,2
ARCOM@ESCSSAU,ARCOM@ESCSSAU,ESCAMPS - Semilly Sauliers,,47.72006700,3.45243100,,,1,,,2
ARCOM@ESOPLAC,ARCOM@ESOPLAC,ESCOLIVES Place,,47.71963600,3.60645850,,,1,,,2
ARCOM@GLEEGLI,ARCOM@GLEEGLI,GY L'EVEQUE Eglise,,47.72208893,3.54770434,,,1,,,2
ARCOM@GUR33GR,ARCOM@GUR33GR,GURGY 33 Grande Rue,,47.86604204,3.56435911,,,1,,,2
ARCOM@GURAUTO,ARCOM@GURAUTO,GURGY Autoroute,,47.85607709,3.55771561,,,1,,,2
ARCOM@GURCIME,ARCOM@GURCIME,GURGY Cimetière,,47.86018604,3.55980933,,,1,,,2
ARCOM@GURPDCO,ARCOM@GURPDCO,GURGY Place Des Commerces,,47.86402600,3.55953950,,,1,,,2
ARCOM@GURRAVR,ARCOM@GURRAVR,GURGY Ravry,,47.87992647,3.54091749,,,1,,,2
ARCOM@GURRDVA,ARCOM@GURRDVA,GURGY Rue De Varennes,,47.86998150,3.56213650,,,1,,,2
ARCOM@IRABOUR,ARCOM@IRABOUR,IRANCY Bourg,,47.71465500,3.66695700,,,1,,,2
ARCOM@JUSSDFE,ARCOM@JUSSDFE,JUSSY Salle Des Fêtes,,47.72203566,3.58275758,,,1,,,2
ARCOM@LINBOUR,ARCOM@LINBOUR,LINDRY Bourg,,47.80055570,3.41892108,,,1,,,2
ARCOM@LINCHAZ,ARCOM@LINCHAZ,LINDRY Chazelles,,47.78402949,3.43554311,,,1,,,2
ARCOM@LINLBAC,ARCOM@LINLBAC,LINDRY Les Bachelets,,47.79507400,3.43890300,,,1,,,2
ARCOM@LINLCAV,ARCOM@LINLCAV,LINDRY La Cave,,47.79995577,3.43507356,,,1,,,2
ARCOM@LINLMAR,ARCOM@LINLMAR,LINDRY Le Marais,,47.81102968,3.42380025,,,1,,,2
ARCOM@LINRDBR,ARCOM@LINRDBR,LINDRY Rue Des Bretons,,47.80007612,3.44228772,,,1,,,2
ARCOM@MLREELE,ARCOM@MLREELE,MONTIGNY LA RESLE Ecole Elémentaire,,47.86516698,3.68080000,,,1,,,2
ARCOM@MLREGLI,ARCOM@MLREGLI,MONTIGNY LA RESLE Eglise,,47.86517658,3.68071123,,,1,,,2
ARCOM@MLRLFEU,ARCOM@MLRLFEU,MONTIGNY LA RESLE La Feuillerie,,47.85754110,3.67455673,,,1,,,2
ARCOM@MLRMERR,ARCOM@MLRMERR,MONTIGNY LA RESLE Merry,,47.84949400,3.68013500,,,1,,,2
ARCOM@MONADAP,ARCOM@MONADAP,ADAPT,,47.83664934,3.57472337,,,1,,,2
ARCOM@MONBRET,ARCOM@MONBRET,MONETEAU Bretagne,,47.84766041,3.58252412,,,1,,,2
ARCOM@MONBRUX,ARCOM@MONBRUX,BRUXELLES,,47.85122219,3.55266772,,,1,,,2
ARCOM@MONCANA,ARCOM@MONCANA,CANADA,,47.83030378,3.57837856,,,1,,,2
ARCOM@MONCARR,ARCOM@MONCARR,MONETEAU Carron,,47.84252849,3.58374419,,,1,,,2
ARCOM@MONCGEO,ARCOM@MONCGEO,MONETEAU Centre Géographique,,47.84243291,3.56293708,,,1,,,2
ARCOM@MONCOMM,ARCOM@MONCOMM,MONETEAU Commanderie,,47.84493202,3.58239866,,,1,,,2
ARCOM@MONEELE,ARCOM@MONEELE,MONETEAU Ecole Elémentaire,,47.84555758,3.58233825,,,1,,,2
ARCOM@MONEGLI,ARCOM@MONEGLI,MONETEAU Eglise,,47.84837943,3.57544756,,,1,,,2
ARCOM@MONGHAI,ARCOM@MONGHAI,GRANDES HAIES,,47.84546576,3.55344692,,,1,,,2
ARCOM@MONIDFR,ARCOM@MONIDFR,MONETEAU Ile De France,,47.85027511,3.58482555,,,1,,,2
ARCOM@MONLARC,ARCOM@MONLARC,MONETEAU Les Archies,,47.82951800,3.58982350,,,1,,,2
ARCOM@MONLDUM,ARCOM@MONLDUM,LES DUMONTS,,47.83005496,3.57320283,,,1,,,2
ARCOM@MONLIBE,ARCOM@MONLIBE,MONETEAU Liberté,,47.84795591,3.57237768,,,1,,,2
ARCOM@MONLOND,ARCOM@MONLOND,LONDRES,,47.84744964,3.55193334,,,1,,,2
ARCOM@MONMESA,ARCOM@MONMESA,MONETEAU Mésanges,,47.84643966,3.56592826,,,1,,,2
ARCOM@MONMMAI,ARCOM@MONMMAI,MONETEAU MAIRIE,,47.85026175,3.57895726,,,1,,,2
ARCOM@MONPCDE,ARCOM@MONPCDE,MONETEAU Pien Château d'Eau,,47.86031936,3.59686715,,,1,,,2
ARCOM@MONPCUR,ARCOM@MONPCUR,MONETEAU Pierre Curie,,47.84017948,3.58437064,,,1,,,2
ARCOM@MONPPLA,ARCOM@MONPPLA,MONETEAU Pien Place,,47.86326506,3.59880853,,,1,,,2
ARCOM@MONRDCH,ARCOM@MONRDCH,RUE DU CHATEAU,,47.84836031,3.56534764,,,1,,,2
ARCOM@MONSAUL,ARCOM@MONSAUL,SAULE,,47.84191593,3.58030539,,,1,,,2
ARCOM@MONSEAU,ARCOM@MONSEAU,MONETEAU Skenet°Eau,,47.84767300,3.57909950,,,1,,,2
ARCOM@MONSEGL,ARCOM@MONSEGL,MONETEAU Sougères Eglise,,47.85855034,3.61571183,,,1,,,2
ARCOM@MONSEXU,ARCOM@MONSEXU,SAINT EXUPERY,,47.83648626,3.57990596,,,1,,,2
ARCOM@MONSOMM,ARCOM@MONSOMM,MONETEAU Sommeville,,47.84770125,3.56904941,,,1,,,2
ARCOM@MONSQUE,ARCOM@MONSQUE,MONETEAU Saint Quentin,,47.83603050,3.58522083,,,1,,,2
ARCOM@PERAGAR,ARCOM@PERAGAR,ANCIENNE GARE,,47.81763100,3.53918900,,,1,,,2
ARCOM@PERAUGE,ARCOM@PERAUGE,AUGE,,47.81880512,3.55441446,,,1,,,2
ARCOM@PERBREA,ARCOM@PERBREA,BREANDES,,47.82775215,3.54430942,,,1,,,2
ARCOM@PERCDEP,ARCOM@PERCDEP,CONSEIL DEPARTEMENTAL,,47.81289802,3.53702975,,,1,,,2
ARCOM@PERCHAT,ARCOM@PERCHAT,CHATENOY,,47.81457149,3.55772025,,,1,,,2
ARCOM@PERMDPE,ARCOM@PERMDPE,MAIRIE DE PERRIGNY,,47.82142750,3.53938800,,,1,,,2
ARCOM@PERVEND,ARCOM@PERVEND,VENDANGES,,47.82569191,3.54416840,,,1,,,2
ARCOM@QUEEGLI,ARCOM@QUEEGLI,QUENNE Eglise,,47.77674200,3.64995350,,,1,,,2
ARCOM@QUENANG,ARCOM@QUENANG,QUENNE Nangis,,47.78730735,3.65370571,,,1,,,2
ARCOM@SGSCJBE,ARCOM@SGSCJBE,SAINT GEORGES SUR BAULCHE Collège Jean Bertin,,47.80648600,3.53815833,,,1,,,2
ARCOM@SGSCORM,ARCOM@SGSCORM,CORMIERS,,47.80933583,3.53648000,,,1,,,2
ARCOM@SGSLARD,ARCOM@SGSLARD,LES ARDILLES,,47.80020849,3.53698572,,,1,,,2
ARCOM@SGSLGUI,ARCOM@SGSLGUI,LA GUILLAUMEE,,47.80137370,3.52761134,,,1,,,2
ARCOM@SGSLORR,ARCOM@SGSLORR,LORRAINE,,47.79889799,3.54154275,,,1,,,2
ARCOM@SGSMDSA,ARCOM@SGSMDSA,MAIRIE DE SAINT GEORGES,,47.80472350,3.53457050,,,1,,,2
ARCOM@SGSMONT,ARCOM@SGSMONT,SAINT GEORGES SUR BAULCHE Montmercy,,47.79999917,3.50160444,,,1,,,2
ARCOM@SGSSGEO,ARCOM@SGSSGEO,SAINT GEORGES,,47.80029034,3.53204879,,,1,,,2
ARCOM@VALABRI,ARCOM@VALABRI,VALLAN Abri,,47.74306300,3.53933600,,,1,,,2
ARCOM@VAUCIME,ARCOM@VAUCIME,VAUX Cimetière,,47.75622006,3.58291985,,,1,,,2
ARCOM@VAUPLAC,ARCOM@VAUPLAC,VAUX Place,,47.75522997,3.59004233,,,1,,,2
ARCOM@VENECDE,ARCOM@VENECDE,VENOY Egriselles Château D'eau,,47.80981396,3.62265013,,,1,,,2
ARCOM@VENELOT,ARCOM@VENELOT,VENOY Egriselles Lotissement,,47.81360180,3.62365171,,,1,,,2
ARCOM@VENEP25,ARCOM@VENEP25,VENOY Egriselles Rue Principale N°25,,47.80924496,3.61669997,,,1,,,2
ARCOM@VENERDA,ARCOM@VENERDA,VENOY Egriselles Route D'Auxerre,,47.81291645,3.62094753,,,1,,,2
ARCOM@VENGSDB,ARCOM@VENGSDB,VENOY Groupe Scolaire Des Bleuets,,47.80622647,3.63722005,,,1,,,2
ARCOM@VENLCBA,ARCOM@VENLCBA,VENOY La Chapelle Bas,,47.81469151,3.63080840,,,1,,,2
ARCOM@VENLCHA,ARCOM@VENLCHA,VENOY La Chapelle Haut,,47.81428651,3.62800504,,,1,,,2
ARCOM@VENLLBR,ARCOM@VENLLBR,VENOY Lycée La Brosse,,47.79133954,3.65297325,,,1,,,2
ARCOM@VENM29S,ARCOM@VENM29S,VENOY Montreuche N°29 Rue De Sinotte,,47.81556648,3.63597510,,,1,,,2
ARCOM@VENMONT,ARCOM@VENMONT,VENOY Montallery,,47.79075116,3.69321651,,,1,,,2
ARCOM@VENSLBA,ARCOM@VENSLBA,VENOY Soleines Le Bas,,47.81627688,3.64553074,,,1,,,2
ARCOM@VENSLHA,ARCOM@VENSLHA,VENOY Soleines Le Haut,,47.80846973,3.65031671,,,1,,,2
ARCOM@VENSMIL,ARCOM@VENSMIL,VENOY Soleines Milieu,,47.81062645,3.64798674,,,1,,,2
ARCOM@VILLBRU,ARCOM@VILLBRU,VILLEFARGEAU Les Bruyères,,47.79874564,3.46748169,,,1,,,2
ARCOM@VINADLG,ARCOM@VINADLG,VINCELLES Avenue De La Gare,,47.70483950,3.63005450,,,1,,,2
ARCOM@VIOLQDY,ARCOM@VIOLQDY,VINCELOTTES Les Quais de l'Yonne,,47.70795650,3.63937800,,,1,,,2
ARCOM@VSSARRE,ARCOM@VSSARRE,VILLENEUVE SAINT SALVES Arrêt,,47.85455500,3.65027400,,,1,,,2
ARCOM@VSSEELE,ARCOM@VSSEELE,VILLENEUVE SAINT SALVES Ecole Elémentaire,,47.85428811,3.65245055,,,1,,,2
ARCOM@VSSEGLI,ARCOM@VSSEGLI,VILLENEUVE SAINT SALVES Eglise,,47.85309000,3.65681000,,,1,,,2
AAPAPNO1,AAPAPNO1,AUXR_PARC NORD,,47.85899021,3.53432000,,,,ARCOM@AAPAPNO,,2
AAPAPNO2,AAPAPNO2,AUXR_PARC NORD,,47.85902354,3.53443443,,,,ARCOM@AAPAPNO,,2
APPAEGL1,APPAEGL1,APPOIGNY EGLISE,,47.87819106,3.52522104,,,,ARCOM@APPAEGL,,2
APPAEGL2,APPAEGL2,APPOIGNY EGLISE,,47.87814030,3.52535044,,,,ARCOM@APPAEGL,,2
APPAPAR1,APPAPAR1,AUXR_PARC,,47.85642800,3.53810600,,,,ARCOM@APPAPAR,,1
APPAPAR2,APPAPAR2,AUXR_PARC,,47.85683900,3.53761900,,,,ARCOM@APPAPAR,,2
APPAPPO1,APPAPPO1,APPOIGNY,,47.88059997,3.52672829,,,,ARCOM@APPAPPO,,2
APPARDU1,APPARDU1,APPOIGNY RUE DU PAVILLON,,47.87396885,3.52677961,,,,ARCOM@APPARDU,,2
APPARDU2,APPARDU2,APPOIGNY RUE DU PAVILLON,,47.87393578,3.52674013,,,,ARCOM@APPARDU,,2
APPCRPI1,APPCRPI1,APPOIGNY Chemin Ruelle Pizze,,47.86284062,3.53503076,,,,ARCOM@APPCRPI,,2
APPLSUR2,APPLSUR2,APPOIGNY Les Sureaux,,47.86811227,3.53816757,,,,ARCOM@APPLSUR,,2
APPPRNO1,APPPRNO1,P+R NORD,,47.85052000,3.54961500,,,,ARCOM@APPPRNO,,2
APPPRNO2,APPPRNO2,P+R NORD,,47.85039700,3.54972100,,,,ARCOM@APPPRNO,,2
APPRDPO1,APPRDPO1,APPOIGNY Rue Du Pont,,47.87683300,3.53313900,,,,ARCOM@APPRDPO,,2
APPRDPO2,APPRDPO2,APPOIGNY Rue Du Pont,,47.87666065,3.53381433,,,,ARCOM@APPRDPO,,2
APPREGE1,APPREGE1,APPOIGNY Régennes,,47.87400800,3.53948100,,,,ARCOM@APPREGE,,2
APPSTAD1,APPSTAD1,APPOIGNY Stade,,47.88032405,3.53125604,,,,ARCOM@APPSTAD,,2
AUGR6061,AUGR6061,AUGY Rd 606,,47.76562431,3.61227787,,,,ARCOM@AUGR606,,2
AUGR6062,AUGR6062,AUGY Rd 606,,47.76561612,3.61236549,,,,ARCOM@AUGR606,,2
AUXAEXP1,AUXAEXP1,AUXERREXPO,,47.78600000,3.59636000,,,,ARCOM@AUXAEXP,,2
AUXAEXP2,AUXAEXP2,AUXERREXPO,,47.78596000,3.59636000,,,,ARCOM@AUXAEXP,,2
AUXALOU1,AUXALOU1,ALOUETTE,,47.79951109,3.58930498,,,,ARCOM@AUXALOU,,2
AUXARBO1,AUXARBO1,ARBORETUM,,47.78576833,3.57067333,,,,ARCOM@AUXARBO,,2
AUXARBO2,AUXARBO2,ARBORETUM,,47.78614500,3.57205000,,,,ARCOM@AUXARBO,,2
AUXARQU1,AUXARQU1,ARQUEBUSE,,47.79248252,3.56706782,,,,ARCOM@AUXARQU,,2
AUXARQU2,AUXARQU2,ARQUEBUSE,,47.79255721,3.56724361,,,,ARCOM@AUXARQU,,2
AUXARQU3,AUXARQU3,ARQUEBUSE,,47.79225955,3.56779933,,,,ARCOM@AUXARQU,,2
AUXASGE1,AUXASGE1,ABBAYE,,47.80022900,3.57179000,,,,ARCOM@AUXASGE,,2
AUXBATA1,AUXBATA1,BATARDEAU,,47.79316413,3.58189166,,,,ARCOM@AUXBATA,,2
AUXBATA2,AUXBATA2,BATARDEAU,,47.79305961,3.58212233,,,,ARCOM@AUXBATA,,2
AUXBDJO1,AUXBDJO1,BAS DE JONCHES,,47.82127944,3.58174848,,,,ARCOM@AUXBDJO,,2
AUXBDJO2,AUXBDJO2,BAS DE JONCHES,,47.82131827,3.58186845,,,,ARCOM@AUXBDJO,,2
AUXBOUR1,AUXBOUR1,BOURNEIL,,47.79121388,3.56882044,,,,ARCOM@AUXBOUR,,2
AUXBOUR2,AUXBOUR2,BOURNEIL,,47.79005954,3.56804979,,,,ARCOM@AUXBOUR,,2
AUXBRAZ2,AUXBRAZ2,BRAZZA,,47.80099500,3.58243333,,,,ARCOM@AUXBRAZ,,2
AUXBRIC1,AUXBRIC1,BRICHERES,,47.79300613,3.54512665,,,,ARCOM@AUXBRIC,,2
AUXBRIC2,AUXBRIC2,BRICHERES,,47.79300528,3.54506713,,,,ARCOM@AUXBRIC,,2
AUXCACA1,AUXCACA1,COLLEGE ALBERT CAMUS,,47.80909000,3.57027000,,,,ARCOM@AUXCACA,,2
AUXCACA2,AUXCACA2,COLLEGE ALBERT CAMUS,,47.80932159,3.57089575,,,,ARCOM@AUXCACA,,2
AUXCACA3,AUXCACA3,AUXERRE Collège Albert Camus,,47.80912500,3.57028300,,,,ARCOM@AUXCACA,,2
AUXCAIL1,AUXCAIL1,CAILLOTTES,,47.82091850,3.57751549,,,,ARCOM@AUXCAIL,,2
AUXCAIL2,AUXCAIL2,CAILLOTTES,,47.82097841,3.57746275,,,,ARCOM@AUXCAIL,,2
AUXCARR1,AUXCARR1,CARRIERES,,47.78775143,3.58144988,,,,ARCOM@AUXCARR,,2
AUXCARR2,AUXCARR2,CARRIERES,,47.78777875,3.58225449,,,,ARCOM@AUXCARR,,2
AUXCDFO1,AUXCDFO1,CHARLES DE FOUCAULD,,47.79497323,3.58884394,,,,ARCOM@AUXCDFO,,2
AUXCDFO2,AUXCDFO2,CHARLES DE FOUCAULD,,47.79519667,3.58884394,,,,ARCOM@AUXCDFO,,2
AUXCDRO1,AUXCDRO1,AUXERRE Collège Denfert Rochereau,,47.79772031,3.55823400,,,,ARCOM@AUXCDRO,,2
AUXCHAM1,AUXCHAM1,CHAMPLEROY,,47.80378424,3.56283383,,,,ARCOM@AUXCHAM,,2
AUXCHAM2,AUXCHAM2,CHAMPLEROY,,47.80376161,3.56271929,,,,ARCOM@AUXCHAM,,2
AUXCHAN1,AUXCHAN1,CHANTEMERLE,,47.78175000,3.59010333,,,,ARCOM@AUXCHAN,,2
AUXCHAN2,AUXCHAN2,CHANTEMERLE,,47.78174277,3.59005373,,,,ARCOM@AUXCHAN,,2
AUXCHAP1,AUXCHAP1,CHAMPOULAINS,,47.80506000,3.57954200,,,,ARCOM@AUXCHAP,,2
AUXCHAP2,AUXCHAP2,CHAMPOULAINS,,47.80522400,3.57971600,,,,ARCOM@AUXCHAP,,2
AUXCIFA1,AUXCIFA1,AUXERRE Cifa,,47.80902000,3.58122000,,,,ARCOM@AUXCIFA,,2
AUXCOCH1,AUXCOCH1,COCHOIS,,47.79945300,3.57316700,,,,ARCOM@AUXCOCH,,2
AUXCOLB1,AUXCOLB1,COLBERT,,47.79672649,3.58883925,,,,ARCOM@AUXCOLB,,2
AUXCOLB2,AUXCOLB2,COLBERT,,47.79675464,3.58884595,,,,ARCOM@AUXCOLB,,2
AUXCOLE1,AUXCOLE1,COLETTE,,47.79007340,3.55697380,,,,ARCOM@AUXCOLE,,2
AUXCOLE2,AUXCOLE2,COLETTE,,47.79003146,3.55699351,,,,ARCOM@AUXCOLE,,2
AUXCORD1,AUXCORD1,CORDELIERS,,47.79649000,3.57030000,,,,ARCOM@AUXCORD,,2
AUXCPBE1,AUXCPBE1,COLLEGE PAUL BERT,,47.78606200,3.58503200,,,,ARCOM@AUXCPBE,,2
AUXCPBE2,AUXCPBE2,COLLEGE PAUL BERT,,47.78528600,3.58470300,,,,ARCOM@AUXCPBE,,2
AUXCSET2,AUXCSET2,CATHEDRALE,,47.79729700,3.57162800,,,,ARCOM@AUXCSET,,2
AUXCSPO1,AUXCSPO1,COMPLEXE SPORTIF,,47.79623599,3.59313727,,,,ARCOM@AUXCSPO,,2
AUXDENF1,AUXDENF1,DENFERT,,47.79678436,3.56033807,,,,ARCOM@AUXDENF,,2
AUXDENF2,AUXDENF2,DENFERT,,47.79684085,3.56042047,,,,ARCOM@AUXDENF,,2
AUXDGAU1,AUXDGAU1,DE GAULLE,,47.80356447,3.56655155,,,,ARCOM@AUXDGAU,,2
AUXDGAU2,AUXDGAU2,DE GAULLE,,47.80350446,3.56668613,,,,ARCOM@AUXDGAU,,2
AUXDPAP1,AUXDPAP1,DENIS PAPIN,,47.81073466,3.58312274,,,,ARCOM@AUXDPAP,,2
AUXDPAP2,AUXDPAP2,DENIS PAPIN,,47.81079774,3.58308266,,,,ARCOM@AUXDPAP,,2
AUXDREI1,AUXDREI1,DJANGO REINHARDT,,47.79758606,3.54497483,,,,ARCOM@AUXDREI,,2
AUXDREI2,AUXDREI2,DJANGO REINHARDT,,47.79753712,3.54493865,,,,ARCOM@AUXDREI,,2
AUXDSCH1,AUXDSCH1,DR SCHWEITZER,,47.79233947,3.59073297,,,,ARCOM@AUXDSCH,,2
AUXDSCH2,AUXDSCH2,DR SCHWEITZER,,47.79234909,3.59082746,,,,ARCOM@AUXDSCH,,2
AUXEGLE1,AUXEGLE1,EGLENY,,47.79487863,3.56438557,,,,ARCOM@AUXEGLE,,2
AUXEGLE2,AUXEGLE2,EGLENY,,47.79620298,3.56419529,,,,ARCOM@AUXEGLE,,2
AUXEGLE3,AUXEGLE3,EGLENY,,47.79590900,3.56322300,,,,ARCOM@AUXEGLE,,2
AUXEGRI1,AUXEGRI1,EGRISELLES,,47.79495732,3.59424698,,,,ARCOM@AUXEGRI,,2
AUXEGRI2,AUXEGRI2,EGRISELLES,,47.79498964,3.59421834,,,,ARCOM@AUXEGRI,,2
AUXEIFF1,AUXEIFF1,EIFFEL,,47.81166101,3.57157597,,,,ARCOM@AUXEIFF,,2
AUXEIFF2,AUXEIFF2,EIFFEL,,47.81172578,3.57160100,,,,ARCOM@AUXEIFF,,2
AUXFLEU1,AUXFLEU1,FLEURUS,,47.80087167,3.55537500,,,,ARCOM@AUXFLEU,,2
AUXFLEU2,AUXFLEU2,FLEURUS,,47.80101628,3.55487964,,,,ARCOM@AUXFLEU,,2
AUXFOUL1,AUXFOUL1,FOULON,,47.80800620,3.55227681,,,,ARCOM@AUXFOUL,,2
AUXFOUL2,AUXFOUL2,FOULON,,47.80800158,3.55231689,,,,ARCOM@AUXFOUL,,2
AUXFOUN1,AUXFOUN1,FOURNEAUX,,47.81328051,3.57135833,,,,ARCOM@AUXFOUN,,2
AUXFOUN2,AUXFOUN2,FOURNEAUX,,47.81327870,3.57141806,,,,ARCOM@AUXFOUN,,2
AUXFOUR1,AUXFOUR1,FOURIER,,47.79429882,3.55226334,,,,ARCOM@AUXFOUR,,2
AUXFOUR2,AUXFOUR2,FOURIER,,47.79442089,3.55212363,,,,ARCOM@AUXFOUR,,2
AUXFRAG1,AUXFRAG1,FRAGONARD,,47.79875189,3.54922488,,,,ARCOM@AUXFRAG,,2
AUXFRAG2,AUXFRAG2,FRAGONARD,,47.79873188,3.54921916,,,,ARCOM@AUXFRAG,,2
AUXGAMB1,AUXGAMB1,GAMBETTA,,47.79618500,3.58022500,,,,ARCOM@AUXGAMB,,2
AUXGAMB2,AUXGAMB2,GAMBETTA,,47.79626400,3.58013400,,,,ARCOM@AUXGAMB,,2
AUXGOUR1,AUXGOUR1,GOURAUD,,47.80540649,3.55362262,,,,ARCOM@AUXGOUR,,2
AUXGOUR2,AUXGOUR2,GOURAUD,,47.80541458,3.55370990,,,,ARCOM@AUXGOUR,,2
AUXGSNC1,AUXGSNC1,GARE SNCF,,47.79797276,3.58467362,,,,ARCOM@AUXGSNC,,2
AUXGSNC2,AUXGSNC2,GARE SNCF,,47.79796722,3.58480973,,,,ARCOM@AUXGSNC,,2
AUXGUYE1,AUXGUYE1,GUYENNE,,47.78021308,3.58537849,,,,ARCOM@AUXGUYE,,2
AUXGUYE2,AUXGUYE2,GUYENNE,,47.78027426,3.58480295,,,,ARCOM@AUXGUYE,,2
AUXGUYN1,AUXGUYN1,GUYNEMER,,47.81154058,3.57548654,,,,ARCOM@AUXGUYN,,2
AUXGUYN2,AUXGUYN2,GUYNEMER,,47.81095696,3.57467651,,,,ARCOM@AUXGUYN,,2
AUXH21,AUXH21,H2,,47.80579053,3.58910680,,,,ARCOM@AUXH2,,2
AUXH22,AUXH22,H2,,47.80599950,3.58860254,,,,ARCOM@AUXH2,,2
AUXHATI1,AUXHATI1,HATIN,,47.79704192,3.55731576,,,,ARCOM@AUXHATI,,2
AUXHATI2,AUXHATI2,HATIN,,47.79706980,3.55726508,,,,ARCOM@AUXHATI,,2
AUXHAUS1,AUXHAUS1,HAUSSMANN,,47.81578000,3.57330300,,,,ARCOM@AUXHAUS,,2
AUXHAUS2,AUXHAUS2,HAUSSMANN,,47.81624000,3.57357600,,,,ARCOM@AUXHAUS,,2
AUXHEUR1,AUXHEUR1,HEURTEBISE,,47.81009040,3.55347031,,,,ARCOM@AUXHEUR,,2
AUXHEUR2,AUXHEUR2,HEURTEBISE,,47.81005502,3.55361920,,,,ARCOM@AUXHEUR,,2
AUXHOPI1,AUXHOPI1,HOPITAL,,47.80210833,3.55300833,,,,ARCOM@AUXHOPI,,2
AUXHOPI2,AUXHOPI2,HOPITAL,,47.80256333,3.55302500,,,,ARCOM@AUXHOPI,,2
AUXINGR1,AUXINGR1,INGRES,,47.79763058,3.54720036,,,,ARCOM@AUXINGR,,2
AUXINGR2,AUXINGR2,INGRES,,47.79762559,3.54725009,,,,ARCOM@AUXINGR,,2
AUXJMON1,AUXJMON1,JEAN MONNET,,47.81388500,3.56407500,,,,ARCOM@AUXJMON,,2
AUXJMON2,AUXJMON2,JEAN MONNET,,47.81379167,3.56404667,,,,ARCOM@AUXJMON,,2
AUXJONC1,AUXJONC1,AUXERRE Jonches,,47.82524200,3.58802800,,,,ARCOM@AUXJONC,,2
AUXJONC2,AUXJONC2,AUXERRE Jonches,,47.82591900,3.58836900,,,,ARCOM@AUXJONC,,2
AUXLAMA1,AUXLAMA1,LAMARTINE,,47.80134667,3.57567833,,,,ARCOM@AUXLAMA,,2
AUXLAMA2,AUXLAMA2,LAMARTINE,,47.80161500,3.57652000,,,,ARCOM@AUXLAMA,,2
AUXLCLA1,AUXLCLA1,LES CLAIRIONS,,47.81548738,3.57227406,,,,ARCOM@AUXLCLA,,2
AUXLCON1,AUXLCON1,LES CONCHES,,47.80637337,3.56948759,,,,ARCOM@AUXLCON,,2
AUXLCON2,AUXLCON2,LES CONCHES,,47.80633272,3.56954724,,,,ARCOM@AUXLCON,,2
AUXLEMA1,AUXLEMA1,AUXERRE Laborde Ecole Maternelle,,47.82735200,3.61548300,,,,ARCOM@AUXLEMA,,2
AUXLFAY1,AUXLFAY1,LAFAYETTE,,47.79600000,3.54878600,,,,ARCOM@AUXLFAY,,2
AUXLFAY2,AUXLFAY2,LAFAYETTE,,47.79603748,3.54881660,,,,ARCOM@AUXLFAY,,2
AUXLFOU1,AUXLFOU1,AUXERRE Lycée Fourier,,47.79182100,3.55223500,,,,ARCOM@AUXLFOU,,2
AUXLLOT1,AUXLLOT1,AUXERRE Laborde Neuve,,47.82550800,3.61245000,,,,ARCOM@AUXLLOT,,2
AUXLMAR1,AUXLMAR1,AUXERRE Laborde Mairie,,47.82660500,3.61574600,,,,ARCOM@AUXLMAR,,2
AUXLNOU1,AUXLNOU1,LA NOUE,,47.78367300,3.58765500,,,,ARCOM@AUXLNOU,,2
AUXLNOU2,AUXLNOU2,LA NOUE,,47.78353500,3.58810500,,,,ARCOM@AUXLNOU,,2
AUXLPHA1,AUXLPHA1,LE PHARE,,47.79720330,3.55180392,,,,ARCOM@AUXLPHA,,2
AUXLPHA2,AUXLPHA2,LE PHARE,,47.79716981,3.55191002,,,,ARCOM@AUXLPHA,,2
AUXLPIE1,AUXLPIE1,LES PIEDALLOUES,,47.78132332,3.58056862,,,,ARCOM@AUXLPIE,,2
AUXLPIE2,AUXLPIE2,LES PIEDALLOUES,,47.78138104,3.58058867,,,,ARCOM@AUXLPIE,,2
AUXLRIC1,AUXLRIC1,LOUIS RICHARD,,47.78701448,3.57503683,,,,ARCOM@AUXLRIC,,2
AUXLRIC2,AUXLRIC2,LOUIS RICHARD,,47.78704667,3.57501000,,,,ARCOM@AUXLRIC,,2
AUXLROS1,AUXLROS1,LES ROSOIRS,,47.80213468,3.55733931,,,,ARCOM@AUXLROS,,2
AUXLROS2,AUXLROS2,LES ROSOIRS,,47.80210290,3.55730947,,,,ARCOM@AUXLROS,,2
AUXLROU1,AUXLROU1,LA ROUE,,47.79171600,3.59361400,,,,ARCOM@AUXLROU,,2
AUXLROU2,AUXLROU2,LA ROUE,,47.79177000,3.59247900,,,,ARCOM@AUXLROU,,2
AUXLSJO1,AUXLSJO1,AUXERRE Lycée Saint Joseph,,47.81090000,3.55819000,,,,ARCOM@AUXLSJO,,2
AUXLSJO2,AUXLSJO2,AUXERRE Lycée Saint Joseph,,47.81166578,3.56110919,,,,ARCOM@AUXLSJO,,2
AUXLTCO1,AUXLTCO1,AUXERRE La Tour Coulon,,47.82931000,3.59946000,,,,ARCOM@AUXLTCO,,2
AUXLTCO2,AUXLTCO2,AUXERRE La Tour Coulon,,47.82936100,3.59948700,,,,ARCOM@AUXLTCO,,2
AUXLUMI1,AUXLUMI1,LUMIERE,,47.81333747,3.58561891,,,,ARCOM@AUXLUMI,,2
AUXLUMI2,AUXLUMI2,LUMIERE,,47.81285561,3.58579527,,,,ARCOM@AUXLUMI,,2
AUXLVAU1,AUXLVAU1,LES VAUVIERS,,47.79576667,3.59016500,,,,ARCOM@AUXLVAU,,2
AUXLYAU1,AUXLYAU1,LYAUTEY,,47.79182102,3.54972922,,,,ARCOM@AUXLYAU,,2
AUXLYAU2,AUXLYAU2,LYAUTEY,,47.79135171,3.55087048,,,,ARCOM@AUXLYAU,,2
AUXMARN1,AUXMARN1,MARNE,,47.81162893,3.56127634,,,,ARCOM@AUXMARN,,2
AUXMARN2,AUXMARN2,MARNE,,47.81226310,3.56112191,,,,ARCOM@AUXMARN,,2
AUXMDPR1,AUXMDPR1,MOULIN DU PRESIDENT,,47.80863923,3.58106538,,,,ARCOM@AUXMDPR,,2
AUXMDPR2,AUXMDPR2,MOULIN DU PRESIDENT,,47.80880863,3.58105342,,,,ARCOM@AUXMDPR,,2
AUXMERM1,AUXMERM1,MERMOZ,,47.81755585,3.58497787,,,,ARCOM@AUXMERM,,2
AUXMERM2,AUXMERM2,MERMOZ,,47.81713900,3.58500077,,,,ARCOM@AUXMERM,,2
AUXMIGN1,AUXMIGN1,AUXERRE Mignottes,,47.80229344,3.59042889,,,,ARCOM@AUXMIGN,,2
AUXMIGN2,AUXMIGN2,AUXERRE Mignottes,,47.80256700,3.59062500,,,,ARCOM@AUXMIGN,,2
AUXMONG1,AUXMONG1,MONGE,,47.80793275,3.56443875,,,,ARCOM@AUXMONG,,2
AUXMONG2,AUXMONG2,MONGE,,47.80803760,3.56445011,,,,ARCOM@AUXMONG,,2
AUXPAST1,AUXPAST1,PASTEUR,,47.79461263,3.55525703,,,,ARCOM@AUXPAST,,2
AUXPAST2,AUXPAST2,PASTEUR,,47.79464456,3.55526848,,,,ARCOM@AUXPAST,,2
AUXPDIS1,AUXPDIS1,PLAINE DES ISLES,,47.82734339,3.57386880,,,,ARCOM@AUXPDIS,,2
AUXPDIS2,AUXPDIS2,PLAINE DES ISLES,,47.82734190,3.57389795,,,,ARCOM@AUXPDIS,,2
AUXPDJU2,AUXPDJU2,PALAIS DE JUSTICE,,47.79821700,3.56860600,,,,ARCOM@AUXPDJU,,2
AUXPDPA1,AUXPDPA1,PORTE DE PARIS,,47.80024414,3.56687669,,,,ARCOM@AUXPDPA,,2
AUXPDPA2,AUXPDPA2,PORTE DE PARIS,,47.80031838,3.56699982,,,,ARCOM@AUXPDPA,,2
AUXPDVA1,AUXPDVA1,PONT DE VALLAN,,47.78628871,3.56726670,,,,ARCOM@AUXPDVA,,2
AUXPDVA2,AUXPDVA2,PONT DE VALLAN,,47.78710867,3.56643919,,,,ARCOM@AUXPDVA,,2
AUXPEM0,AUXPEM0,GARE ROUTIERE,,47.80078275,3.56596655,,,,ARCOM@AUXPEM,,2
AUXPEM1,AUXPEM1,AUXERRE Gare Routière Quai 1,,47.80138000,3.56501000,,,,ARCOM@AUXPEM,,2
AUXPEM10,AUXPEM10,AUXERRE Gare Routière Quai 10,,47.80152000,3.56595000,,,,ARCOM@AUXPEM,,2
AUXPEM11,AUXPEM11,AUXERRE Gare Routière Quai 11,,47.80180000,3.56590000,,,,ARCOM@AUXPEM,,2
AUXPEM13,AUXPEM13,AUXERRE Gare Routière Quai 13,,47.80206000,3.56567000,,,,ARCOM@AUXPEM,,2
AUXPEM2,AUXPEM2,AUXERRE Gare Routière Quai 2,,47.80125000,3.56524000,,,,ARCOM@AUXPEM,,2
AUXPEM3,AUXPEM3,AUXERRE Gare Routière Quai 3,,47.80116000,3.56549000,,,,ARCOM@AUXPEM,,2
AUXPEM4,AUXPEM4,AUXERRE Gare Routière Quai 4,,47.80112000,3.56565000,,,,ARCOM@AUXPEM,,2
AUXPEM5,AUXPEM5,AUXERRE Gare Routière Quai 5,,47.80107000,3.56580000,,,,ARCOM@AUXPEM,,2
AUXPEM6,AUXPEM6,AUXERRE Gare Routière Quai 6,,47.80094000,3.56607000,,,,ARCOM@AUXPEM,,2
AUXPEM7,AUXPEM7,AUXERRE Gare Routière Quai 7,,47.80109000,3.56630000,,,,ARCOM@AUXPEM,,2
AUXPEM8,AUXPEM8,AUXERRE Gare Routière Quai 8,,47.80118000,3.56620000,,,,ARCOM@AUXPEM,,2
AUXPEM9,AUXPEM9,AUXERRE Gare Routière Quai 9,,47.80135000,3.56612800,,,,ARCOM@AUXPEM,,2
AUXPEMP1,AUXPEMP1,FRANCE TRAVAIL,,47.81350453,3.57618414,,,,ARCOM@AUXPEMP,,2
AUXPEMP2,AUXPEMP2,FRANCE TRAVAIL,,47.81391611,3.57633353,,,,ARCOM@AUXPEMP,,2
AUXPOLI1,AUXPOLI1,POLICE,,47.79372678,3.57831718,,,,ARCOM@AUXPOLI,,2
AUXPOLI2,AUXPOLI2,POLICE,,47.79374831,3.57828098,,,,ARCOM@AUXPOLI,,2
AUXPOLY1,AUXPOLY1,POLYCLINIQUE,,47.81198963,3.56612052,,,,ARCOM@AUXPOLY,,2
AUXPOLY2,AUXPOLY2,POLYCLINIQUE,,47.81196217,3.56625199,,,,ARCOM@AUXPOLY,,2
AUXPSMA1,AUXPSMA1,PLAINE,,47.80445000,3.58264600,,,,ARCOM@AUXPSMA,,2
AUXPSMA2,AUXPSMA2,PLAINE,,47.80488540,3.58267718,,,,ARCOM@AUXPSMA,,2
AUXQRI1,AUXQRI1,QUATRIEME RI,,47.80310452,3.55963796,,,,ARCOM@AUXQRI1,,2
AUXQRI2,AUXQRI2,QUATRIEME RI,,47.80311529,3.55958928,,,,ARCOM@AUXQRI2,,2
AUXQUAI3,AUXQUAI3,QUAIS,,47.79608800,3.57590700,,,,ARCOM@AUXQUAI,,2
AUXRDPO2,AUXRDPO2,RUE DU PONT,,47.79488300,3.57725400,,,,ARCOM@AUXRDPO,,2
AUXRDTE1,AUXRDTE1,RUE DU TEMPLE,,47.79364500,3.56887400,,,,ARCOM@AUXRDTE,,2
AUXREDD1,AUXREDD1,REDDITCH,,47.79352789,3.58641397,,,,ARCOM@AUXREDD,,2
AUXREDD2,AUXREDD2,REDDITCH,,47.79352833,3.58655333,,,,ARCOM@AUXREDD,,2
AUXSAMA1,AUXSAMA1,SAINT AMATRE,,47.79035900,3.56603800,,,,ARCOM@AUXSAMA,,2
AUXSAMA2,AUXSAMA2,SAINT AMATRE,,47.78996300,3.56464600,,,,ARCOM@AUXSAMA,,2
AUXSASE1,AUXSASE1,STADE ARBRE SEC,,47.78792876,3.58500362,,,,ARCOM@AUXSASE,,2
AUXSASE2,AUXSASE2,STADE ARBRE SEC,,47.78786489,3.58500934,,,,ARCOM@AUXSASE,,2
AUXSAVO1,AUXSAVO1,SAVOIE,,47.78106007,3.58846950,,,,ARCOM@AUXSAVO,,2
AUXSAVO2,AUXSAVO2,SAVOIE,,47.78100273,3.58800850,,,,ARCOM@AUXSAVO,,2
AUXSMAR1,AUXSMAR1,SAINTE MARGUERITE,,47.81021423,3.56534083,,,,ARCOM@AUXSMAR,,2
AUXSMAR2,AUXSMAR2,SAINTE MARGUERITE,,47.81018133,3.56538945,,,,ARCOM@AUXSMAR,,2
AUXSPIE1,AUXSPIE1,SAINT-PIERRE,,47.79445000,3.57486900,,,,ARCOM@AUXSPIE,,2
AUXSSMI1,AUXSSMI1,SAINT SIMEON MIDI,,47.80537500,3.55581833,,,,ARCOM@AUXSSMI,,2
AUXSSMI2,AUXSSMI2,SAINT SIMEON MIDI,,47.80535101,3.55585506,,,,ARCOM@AUXSSMI,,2
AUXSSNO1,AUXSSNO1,ST SIMEON NORD,,47.81194638,3.55541442,,,,ARCOM@AUXSSNO,,2
AUXSSNO2,AUXSSNO2,ST SIMEON NORD,,47.81220717,3.55558368,,,,ARCOM@AUXSSNO,,2
AUXSTEC1,AUXSTEC1,SERVICES TECHNIQUES,,47.81745200,3.57578500,,,,ARCOM@AUXSTEC,,2
AUXSTEC2,AUXSTEC2,SERVICES TECHNIQUES,,47.81759024,3.57484820,,,,ARCOM@AUXSTEC,,2
AUXSURU1,AUXSURU1,SURUGUE,,47.79475700,3.56946200,,,,ARCOM@AUXSURU,,2
AUXTASS1,AUXTASS1,TASSIGNY,,47.78939800,3.56050500,,,,ARCOM@AUXTASS,,2
AUXTASS2,AUXTASS2,TASSIGNY,,47.78934500,3.56042100,,,,ARCOM@AUXTASS,,2
AUXTHEA1,AUXTHEA1,THEATRE,,47.79620700,3.57214000,,,,ARCOM@AUXTHEA,,2
AUXTOUR1,AUXTOUR1,TOURNELLE,,47.79976333,3.58094833,,,,ARCOM@AUXTOUR,,2
AUXTURG1,AUXTURG1,TURGOTINE,,47.80084771,3.58965684,,,,ARCOM@AUXTURG,,2
AUXTURG2,AUXTURG2,TURGOTINE,,47.80085271,3.58975992,,,,ARCOM@AUXTURG,,2
AUXUDBO1,AUXUDBO1,UNIVERSITE DE BOURGOGNE,,47.78846808,3.59398305,,,,ARCOM@AUXUDBO,,2
AUXVAGR1,AUXVAGR1,VIA AGRIPPA,,47.78458100,3.57563400,,,,ARCOM@AUXVAGR,,2
AUXVAGR2,AUXVAGR2,VIA AGRIPPA,,47.78480440,3.57581452,,,,ARCOM@AUXVAGR,,2
AUXVAUB1,AUXVAUB1,VAUBAN,,47.79834333,3.56540667,,,,ARCOM@AUXVAUB,,2
AUXVAUB2,AUXVAUB2,VAUBAN,,47.79810180,3.56520147,,,,ARCOM@AUXVAUB,,2
AUXVAUL1,AUXVAUL1,VAULABELLE,,47.79257463,3.57428444,,,,ARCOM@AUXVAUL,,2
AUXVAUL2,AUXVAUL2,VAULABELLE,,47.79260805,3.57427848,,,,ARCOM@AUXVAUL,,2
AUXVERD1,AUXVERD1,VERDUN,,47.80814174,3.55831639,,,,ARCOM@AUXVERD,,2
AUXVERD2,AUXVERD2,VERDUN,,47.80803713,3.55829524,,,,ARCOM@AUXVERD,,2
AUXZIND1,AUXZIND1,ZONE INDUSTRIELLE,,47.82381061,3.57473083,,,,ARCOM@AUXZIND,,2
AUXZIND2,AUXZIND2,ZONE INDUSTRIELLE,,47.82381580,3.57476805,,,,ARCOM@AUXZIND,,2
BLCEGLI1,BLCEGLI1,BLEIGNY LE CARREAU Eglise,,47.83581170,3.68256695,,,,ARCOM@BLCEGLI,,2
CHA14RB1,CHA14RB1,CHARBUY 14 Rue Des Bruyères,,47.84349590,3.48704726,,,,ARCOM@CHA14RB,,2
CHACABR1,CHACABR1,CHARBUY - Chaumois Abribus,,47.82884700,3.46414200,,,,ARCOM@CHACABR,,2
CHACSIR1,CHACSIR1,CHARBUY Courlis Sirec,,47.84759270,3.48021568,,,,ARCOM@CHACSIR,,2
CHACTRA1,CHACTRA1,CHARBUY Chaumois Transformateur,,47.83104000,3.46836900,,,,ARCOM@CHACTRA,,2
CHALFOY1,CHALFOY1,CHARBUY Le Foyer,,47.83060300,3.45947200,,,,ARCOM@CHALFOY,,2
CHALFOY2,CHALFOY2,CHARBUY Le Foyer,,47.83055500,3.45937300,,,,ARCOM@CHALFOY,,2
CHALGPO1,CHALGPO1,CHARBUY Le Grand Ponceau,,47.84503130,3.44503406,,,,ARCOM@CHALGPO,,2
CHALVDL1,CHALVDL1,CHARBUY Les Vernes De Lavault,,47.84679465,3.44751908,,,,ARCOM@CHALVDL,,2
CHEORGY1,CHEORGY1,CHEVANNES Orgy,,47.76436900,3.50653600,,,,ARCOM@CHEORGY,,2
CHEORGY2,CHEORGY2,CHEVANNES Orgy,,47.76434833,3.50658667,,,,ARCOM@CHEORGY,,2
CHERVDE1,CHERVDE1,CHEVANNES Rue Vau Derrière,,47.75239100,3.48935900,,,,ARCOM@CHERVDE,,2
CHERVDE2,CHERVDE2,CHEVANNES Rue Vau Derrière,,47.75239500,3.48927667,,,,ARCOM@CHERVDE,,2
CLVPDBA1,CLVPDBA1,COULANGES LA VINEUSE Porte D'en Bas,,47.70200000,3.58360000,,,,ARCOM@CLVPDBA,,2
CSYLASC1,CSYLASC1,CHAMPS SUR YONNE Lycée Albert Schweitzer,,47.73470700,3.60324400,,,,ARCOM@CSYLASC,,2
ESCEECO2,ESCEECO2,ESCAMPS Escamps Ecole,,47.72897718,3.47113702,,,,ARCOM@ESCEECO,,2
ESCGRIL1,ESCGRIL1,ESCAMPS Grilletière,,47.69754700,3.49552200,,,,ARCOM@ESCGRIL,,2
ESCGRIL2,ESCGRIL2,ESCAMPS Grilletière,,47.69755400,3.49538000,,,,ARCOM@ESCGRIL,,2
ESCLHUI1,ESCLHUI1,ESCAMPS Les Huilliers,,47.71933900,3.48496800,,,,ARCOM@ESCLHUI,,2
ESCLHUI2,ESCLHUI2,ESCAMPS Les Huilliers,,47.71931600,3.48491600,,,,ARCOM@ESCLHUI,,2
ESCSLBA1,ESCSLBA1,ESCAMPS Semilly Le Bas,,47.72204200,3.45462700,,,,ARCOM@ESCSLBA,,2
ESCSLHA1,ESCSLHA1,ESCAMPS Semilly Le Haut,,47.71662200,3.45683900,,,,ARCOM@ESCSLHA,,2
ESCSSAU1,ESCSSAU1,ESCAMPS - Semilly Sauliers,,47.72006700,3.45243100,,,,ARCOM@ESCSSAU,,2
ESOPLAC1,ESOPLAC1,ESCOLIVES Place,,47.71963900,3.60648300,,,,ARCOM@ESOPLAC,,2
ESOPLAC2,ESOPLAC2,ESCOLIVES Place,,47.71963300,3.60643400,,,,ARCOM@ESOPLAC,,2
GLEEGLI1,GLEEGLI1,GY L'EVEQUE Eglise,,47.72206887,3.54783568,,,,ARCOM@GLEEGLI,,2
GLEEGLI2,GLEEGLI2,GY L'EVEQUE Eglise,,47.72210900,3.54757300,,,,ARCOM@GLEEGLI,,2
GUR33GR1,GUR33GR1,GURGY 33 Grande Rue,,47.86604204,3.56435911,,,,ARCOM@GUR33GR,,2
GURAUTO1,GURAUTO1,GURGY Autoroute,,47.85607709,3.55771561,,,,ARCOM@GURAUTO,,2
GURCIME1,GURCIME1,GURGY Cimetière,,47.86033707,3.55979067,,,,ARCOM@GURCIME,,2
GURCIME2,GURCIME2,GURGY Cimetière,,47.86003500,3.55982800,,,,ARCOM@GURCIME,,2
GURPDCO1,GURPDCO1,GURGY Place Des Commerces,,47.86396700,3.55953800,,,,ARCOM@GURPDCO,,2
GURPDCO2,GURPDCO2,GURGY Place Des Commerces,,47.86408500,3.55954100,,,,ARCOM@GURPDCO,,2
GURRAVR1,GURRAVR1,GURGY Ravry,,47.87996900,3.54089900,,,,ARCOM@GURRAVR,,2
GURRAVR2,GURRAVR2,GURGY Ravry,,47.87988394,3.54093597,,,,ARCOM@GURRAVR,,2
GURRDVA1,GURRDVA1,GURGY Rue De Varennes,,47.87000600,3.56223800,,,,ARCOM@GURRDVA,,2
IRABOUR1,IRABOUR1,IRANCY Bourg,,47.71465500,3.66695700,,,,ARCOM@IRABOUR,,2
JUSSDFE1,JUSSDFE1,JUSSY Salle Des Fêtes,,47.72203566,3.58275758,,,,ARCOM@JUSSDFE,,2
LINBOUR1,LINBOUR1,LINDRY Bourg,,47.80049640,3.41888516,,,,ARCOM@LINBOUR,,2
LINBOUR2,LINBOUR2,LINDRY Bourg,,47.80061500,3.41895700,,,,ARCOM@LINBOUR,,2
LINCHAZ1,LINCHAZ1,LINDRY Chazelles,,47.78402949,3.43554311,,,,ARCOM@LINCHAZ,,2
LINLBAC1,LINLBAC1,LINDRY Les Bachelets,,47.79507400,3.43890300,,,,ARCOM@LINLBAC,,2
LINLCAV1,LINLCAV1,LINDRY La Cave,,47.79992454,3.43515011,,,,ARCOM@LINLCAV,,2
LINLCAV2,LINLCAV2,LINDRY La Cave,,47.79998700,3.43499700,,,,ARCOM@LINLCAV,,2
LINLMAR1,LINLMAR1,LINDRY Le Marais,,47.81102968,3.42380025,,,,ARCOM@LINLMAR,,2
LINRDBR1,LINRDBR1,LINDRY Rue Des Bretons,,47.80007612,3.44228772,,,,ARCOM@LINRDBR,,2
MLREELE1,MLREELE1,MONTIGNY LA RESLE Ecole Elémentaire,,47.86518427,3.68081432,,,,ARCOM@MLREELE,,2
MLREGLI1,MLREGLI1,MONTIGNY LA RESLE Eglise,,47.86517658,3.68071123,,,,ARCOM@MLREGLI,,2
MLRLFEU1,MLRLFEU1,MONTIGNY LA RESLE La Feuillerie,,47.85756719,3.67460747,,,,ARCOM@MLRLFEU,,2
MLRLFEU2,MLRLFEU2,MONTIGNY LA RESLE La Feuillerie,,47.85751500,3.67450600,,,,ARCOM@MLRLFEU,,2
MLRMERR1,MLRMERR1,MONTIGNY LA RESLE Merry,,47.84950000,3.68018000,,,,ARCOM@MLRMERR,,2
MLRMERR2,MLRMERR2,MONTIGNY LA RESLE Merry,,47.84948800,3.68009000,,,,ARCOM@MLRMERR,,2
MONADAP1,MONADAP1,ADAPT,,47.83666300,3.57473500,,,,ARCOM@MONADAP,,2
MONBRET1,MONBRET1,MONETEAU Bretagne,,47.84766828,3.58250162,,,,ARCOM@MONBRET,,2
MONBRET2,MONBRET2,MONETEAU Bretagne,,47.84765254,3.58254662,,,,ARCOM@MONBRET,,2
MONBRUX1,MONBRUX1,BRUXELLES,,47.85122236,3.55268949,,,,ARCOM@MONBRUX,,2
MONBRUX2,MONBRUX2,BRUXELLES,,47.85122201,3.55264595,,,,ARCOM@MONBRUX,,2
MONCANA1,MONCANA1,CANADA,,47.83032601,3.57836488,,,,ARCOM@MONCANA,,2
MONCANA2,MONCANA2,CANADA,,47.83028154,3.57839224,,,,ARCOM@MONCANA,,2
MONCARR1,MONCARR1,MONETEAU Carron,,47.84253733,3.58370410,,,,ARCOM@MONCARR,,2
MONCARR2,MONCARR2,MONETEAU Carron,,47.84251965,3.58378427,,,,ARCOM@MONCARR,,2
MONCGEO1,MONCGEO1,MONETEAU Centre Géographique,,47.84243291,3.56293708,,,,ARCOM@MONCGEO,,2
MONCOMM1,MONCOMM1,MONETEAU Commanderie,,47.84475736,3.58238408,,,,ARCOM@MONCOMM,,2
MONCOMM2,MONCOMM2,MONETEAU Commanderie,,47.84510668,3.58241324,,,,ARCOM@MONCOMM,,2
MONEELE1,MONEELE1,MONETEAU Ecole Elémentaire,,47.84555758,3.58233825,,,,ARCOM@MONEELE,,2
MONEGLI1,MONEGLI1,MONETEAU Eglise,,47.84836478,3.57545615,,,,ARCOM@MONEGLI,,2
MONEGLI2,MONEGLI2,MONETEAU Eglise,,47.84839408,3.57543898,,,,ARCOM@MONEGLI,,2
MONGHAI1,MONGHAI1,GRANDES HAIES,,47.84536198,3.55318515,,,,ARCOM@MONGHAI,,2
MONGHAI2,MONGHAI2,GRANDES HAIES,,47.84556954,3.55370869,,,,ARCOM@MONGHAI,,2
MONIDFR1,MONIDFR1,MONETEAU Ile De France,,47.85038281,3.58476256,,,,ARCOM@MONIDFR,,2
MONIDFR2,MONIDFR2,MONETEAU Ile De France,,47.85016740,3.58488855,,,,ARCOM@MONIDFR,,2
MONLARC1,MONLARC1,MONETEAU Les Archies,,47.82949200,3.58975300,,,,ARCOM@MONLARC,,2
MONLARC2,MONLARC2,MONETEAU Les Archies,,47.82954400,3.58989400,,,,ARCOM@MONLARC,,2
MONLDUM1,MONLDUM1,LES DUMONTS,,47.83007839,3.57315873,,,,ARCOM@MONLDUM,,2
MONLDUM2,MONLDUM2,LES DUMONTS,,47.83003152,3.57324693,,,,ARCOM@MONLDUM,,2
MONLIBE1,MONLIBE1,MONETEAU Liberté,,47.84799759,3.57276178,,,,ARCOM@MONLIBE,,2
MONLIBE2,MONLIBE2,MONETEAU Liberté,,47.84791422,3.57199358,,,,ARCOM@MONLIBE,,2
MONLOND1,MONLOND1,LONDRES,,47.84743470,3.55197322,,,,ARCOM@MONLOND,,2
MONLOND2,MONLOND2,LONDRES,,47.84746458,3.55189345,,,,ARCOM@MONLOND,,2
MONMESA1,MONMESA1,MONETEAU Mésanges,,47.84644345,3.56596247,,,,ARCOM@MONMESA,,2
MONMESA2,MONMESA2,MONETEAU Mésanges,,47.84643587,3.56589404,,,,ARCOM@MONMESA,,2
MONMMAI1,MONMMAI1,MONETEAU MAIRIE,,47.85022683,3.57866952,,,,ARCOM@MONMMAI,,2
MONMMAI2,MONMMAI2,MONETEAU MAIRIE,,47.85029667,3.57924500,,,,ARCOM@MONMMAI,,2
MONPCDE1,MONPCDE1,MONETEAU Pien Château d'Eau,,47.86030600,3.59683300,,,,ARCOM@MONPCDE,,2
MONPCDE2,MONPCDE2,MONETEAU Pien Château d'Eau,,47.86033273,3.59690130,,,,ARCOM@MONPCDE,,2
MONPCUR1,MONPCUR1,MONETEAU Pierre Curie,,47.83999409,3.58438432,,,,ARCOM@MONPCUR,,2
MONPCUR2,MONPCUR2,MONETEAU Pierre Curie,,47.84036486,3.58435695,,,,ARCOM@MONPCUR,,2
MONPPLA1,MONPPLA1,MONETEAU Pien Place,,47.86327911,3.59876406,,,,ARCOM@MONPPLA,,2
MONPPLA2,MONPPLA2,MONETEAU Pien Place,,47.86325100,3.59885300,,,,ARCOM@MONPPLA,,2
MONRDCH1,MONRDCH1,RUE DU CHATEAU,,47.84839768,3.56532181,,,,ARCOM@MONRDCH,,2
MONRDCH2,MONRDCH2,RUE DU CHATEAU,,47.84832294,3.56537347,,,,ARCOM@MONRDCH,,2
MONSAUL1,MONSAUL1,SAULE,,47.84207626,3.58025219,,,,ARCOM@MONSAUL,,2
MONSAUL2,MONSAUL2,SAULE,,47.84175559,3.58035859,,,,ARCOM@MONSAUL,,2
MONSEAU1,MONSEAU1,MONETEAU Skenet°Eau,,47.84690300,3.57925100,,,,ARCOM@MONSEAU,,2
MONSEAU2,MONSEAU2,MONETEAU Skenet°Eau,,47.84844300,3.57894800,,,,ARCOM@MONSEAU,,2
MONSEGL1,MONSEGL1,MONETEAU Sougères Eglise,,47.85863167,3.61566667,,,,ARCOM@MONSEGL,,2
MONSEGL2,MONSEGL2,MONETEAU Sougères Eglise,,47.85846900,3.61575700,,,,ARCOM@MONSEGL,,2
MONSEXU1,MONSEXU1,SAINT EXUPERY,,47.83652473,3.57995748,,,,ARCOM@MONSEXU,,2
MONSEXU2,MONSEXU2,SAINT EXUPERY,,47.83644779,3.57985444,,,,ARCOM@MONSEXU,,2
MONSOMM1,MONSOMM1,MONETEAU Sommeville,,47.84768472,3.56902364,,,,ARCOM@MONSOMM,,2
MONSOMM2,MONSOMM2,MONETEAU Sommeville,,47.84771777,3.56907518,,,,ARCOM@MONSOMM,,2
MONSQUE1,MONSQUE1,MONETEAU Saint Quentin,,47.83638601,3.58512674,,,,ARCOM@MONSQUE,,2
MONSQUE2,MONSQUE2,MONETEAU Saint Quentin,,47.83567499,3.58531492,,,,ARCOM@MONSQUE,,2
PERAGAR1,PERAGAR1,ANCIENNE GARE,,47.81750500,3.53913000,,,,ARCOM@PERAGAR,,2
PERAGAR2,PERAGAR2,ANCIENNE GARE,,47.81775700,3.53924800,,,,ARCOM@PERAGAR,,2
PERAUGE1,PERAUGE1,AUGE,,47.81930998,3.55435339,,,,ARCOM@PERAUGE,,2
PERAUGE2,PERAUGE2,AUGE,,47.81830026,3.55447553,,,,ARCOM@PERAUGE,,2
PERBREA1,PERBREA1,BREANDES,,47.82775244,3.54428079,,,,ARCOM@PERBREA,,2
PERCDEP1,PERCDEP1,CONSEIL DEPARTEMENTAL,,47.81268554,3.53689858,,,,ARCOM@PERCDEP,,2
PERCDEP2,PERCDEP2,CONSEIL DEPARTEMENTAL,,47.81311050,3.53716093,,,,ARCOM@PERCDEP,,2
PERCHAT1,PERCHAT1,CHATENOY,,47.81474798,3.55768751,,,,ARCOM@PERCHAT,,2
PERCHAT2,PERCHAT2,CHATENOY,,47.81439500,3.55775300,,,,ARCOM@PERCHAT,,2
PERMDPE1,PERMDPE1,MAIRIE DE PERRIGNY,,47.82142400,3.53930200,,,,ARCOM@PERMDPE,,2
PERMDPE2,PERMDPE2,MAIRIE DE PERRIGNY,,47.82143100,3.53947400,,,,ARCOM@PERMDPE,,2
PERVEND1,PERVEND1,VENDANGES,,47.82569191,3.54416840,,,,ARCOM@PERVEND,,2
QUEEGLI1,QUEEGLI1,QUENNE Eglise,,47.77676500,3.64990200,,,,ARCOM@QUEEGLI,,2
QUEEGLI2,QUEEGLI2,QUENNE Eglise,,47.77671900,3.65000500,,,,ARCOM@QUEEGLI,,2
QUENANG1,QUENANG1,QUENNE Nangis,,47.78726470,3.65367142,,,,ARCOM@QUENANG,,2
QUENANG2,QUENANG2,QUENNE Nangis,,47.78735000,3.65374000,,,,ARCOM@QUENANG,,2
SGSCJBE1,SGSCJBE1,SAINT GEORGES SUR BAULCHE Collège Jean B,,47.80621100,3.53813300,,,,ARCOM@SGSCJBE,,2
SGSCJBE2,SGSCJBE2,SAINT GEORGES SUR BAULCHE Collège Jean B,,47.80616900,3.53811400,,,,ARCOM@SGSCJBE,,2
SGSCJBE3,SGSCJBE3,SAINT GEORGES SUR BAULCHE Collège Jean B,,47.80707800,3.53822800,,,,ARCOM@SGSCJBE,,2
SGSCORM1,SGSCORM1,CORMIERS,,47.80943833,3.53628667,,,,ARCOM@SGSCORM,,2
SGSCORM2,SGSCORM2,CORMIERS,,47.80923333,3.53667333,,,,ARCOM@SGSCORM,,2
SGSLARD1,SGSLARD1,LES ARDILLES,,47.80026039,3.53699843,,,,ARCOM@SGSLARD,,2
SGSLARD2,SGSLARD2,LES ARDILLES,,47.80015658,3.53697302,,,,ARCOM@SGSLARD,,2
SGSLGUI1,SGSLGUI1,LA GUILLAUMEE,,47.80140758,3.52761837,,,,ARCOM@SGSLGUI,,2
SGSLGUI2,SGSLGUI2,LA GUILLAUMEE,,47.80133982,3.52760431,,,,ARCOM@SGSLGUI,,2
SGSLORR1,SGSLORR1,LORRAINE,,47.79890956,3.54156543,,,,ARCOM@SGSLORR,,2
SGSLORR2,SGSLORR2,LORRAINE,,47.79888641,3.54152006,,,,ARCOM@SGSLORR,,2
SGSMDSA1,SGSMDSA1,MAIRIE DE SAINT GEORGES,,47.80480300,3.53483300,,,,ARCOM@SGSMDSA,,2
SGSMDSA2,SGSMDSA2,MAIRIE DE SAINT GEORGES,,47.80464400,3.53430800,,,,ARCOM@SGSMDSA,,2
SGSMONT1,SGSMONT1,SAINT GEORGES SUR BAULCHE Montmercy,,47.79997234,3.50157488,,,,ARCOM@SGSMONT,,2
SGSMONT2,SGSMONT2,SAINT GEORGES SUR BAULCHE Montmercy,,47.80002600,3.50163400,,,,ARCOM@SGSMONT,,2
SGSSGEO1,SGSSGEO1,SAINT GEORGES,,47.80030401,3.53211591,,,,ARCOM@SGSSGEO,,2
SGSSGEO2,SGSSGEO2,SAINT GEORGES,,47.80027667,3.53198167,,,,ARCOM@SGSSGEO,,2
VALABRI1,VALABRI1,VALLAN Abri,,47.74306000,3.53939000,,,,ARCOM@VALABRI,,2
VALABRI2,VALABRI2,VALLAN Abri,,47.74306600,3.53928200,,,,ARCOM@VALABRI,,2
VAUCIME1,VAUCIME1,VAUX Cimetière,,47.75618000,3.58274400,,,,ARCOM@VAUCIME,,2
VAUCIME2,VAUCIME2,VAUX Cimetière,,47.75626011,3.58309569,,,,ARCOM@VAUCIME,,2
VAUPLAC1,VAUPLAC1,VAUX Place,,47.75522997,3.59004233,,,,ARCOM@VAUPLAC,,2
VENECDE1,VENECDE1,VENOY Egriselles Château D'eau,,47.80953000,3.62254700,,,,ARCOM@VENECDE,,2
VENECDE2,VENECDE2,VENOY Egriselles Château D'eau,,47.81001487,3.62263338,,,,ARCOM@VENECDE,,2
VENECDE3,VENECDE3,VENOY Egriselles Château D'eau,,47.80989700,3.62277000,,,,ARCOM@VENECDE,,2
VENELOT1,VENELOT1,VENOY Egriselles Lotissement,,47.81362159,3.62366843,,,,ARCOM@VENELOT,,2
VENELOT2,VENELOT2,VENOY Egriselles Lotissement,,47.81358200,3.62363500,,,,ARCOM@VENELOT,,2
VENEP251,VENEP251,VENOY Egriselles Rue Principale N°25,,47.80924496,3.61669997,,,,ARCOM@VENEP25,,2
VENERDA1,VENERDA1,VENOY Egriselles Route D'Auxerre,,47.81293990,3.62094006,,,,ARCOM@VENERDA,,2
VENERDA2,VENERDA2,VENOY Egriselles Route D'Auxerre,,47.81289300,3.62095500,,,,ARCOM@VENERDA,,2
VENGSDB1,VENGSDB1,VENOY Groupe Scolaire Des Bleuets,,47.80622647,3.63722005,,,,ARCOM@VENGSDB,,2
VENLCBA1,VENLCBA1,VENOY La Chapelle Bas,,47.81469151,3.63080840,,,,ARCOM@VENLCBA,,2
VENLCHA1,VENLCHA1,VENOY La Chapelle Haut,,47.81428651,3.62800504,,,,ARCOM@VENLCHA,,2
VENLLBR1,VENLLBR1,VENOY Lycée La Brosse,,47.79177307,3.65425650,,,,ARCOM@VENLLBR,,2
VENLLBR2,VENLLBR2,VENOY Lycée La Brosse,,47.79090600,3.65169000,,,,ARCOM@VENLLBR,,2
VENM29S1,VENM29S1,VENOY Montreuche N°29 Rue De Sinotte,,47.81556648,3.63597510,,,,ARCOM@VENM29S,,2
VENMONT1,VENMONT1,VENOY Montallery,,47.79075116,3.69321651,,,,ARCOM@VENMONT,,2
VENSLBA1,VENSLBA1,VENOY Soleines Le Bas,,47.81612975,3.64557349,,,,ARCOM@VENSLBA,,2
VENSLBA2,VENSLBA2,VENOY Soleines Le Bas,,47.81642400,3.64548800,,,,ARCOM@VENSLBA,,2
VENSLHA1,VENSLHA1,VENOY Soleines Le Haut,,47.80846973,3.65031671,,,,ARCOM@VENSLHA,,2
VENSMIL1,VENSMIL1,VENOY Soleines Milieu,,47.81062645,3.64798674,,,,ARCOM@VENSMIL,,2
VILLBRU1,VILLBRU1,VILLEFARGEAU Les Bruyères,,47.79871700,3.46748000,,,,ARCOM@VILLBRU,,2
VILLBRU2,VILLBRU2,VILLEFARGEAU Les Bruyères,,47.79877428,3.46748338,,,,ARCOM@VILLBRU,,2
VINADLG1,VINADLG1,VINCELLES Avenue De La Gare,,47.70487800,3.63015900,,,,ARCOM@VINADLG,,2
VINADLG2,VINADLG2,VINCELLES Avenue De La Gare,,47.70480100,3.62995000,,,,ARCOM@VINADLG,,2
VIOLQDY1,VIOLQDY1,VINCELOTTES Les Quais de l'Yonne,,47.70800200,3.63939300,,,,ARCOM@VIOLQDY,,2
VIOLQDY2,VIOLQDY2,VINCELOTTES Les Quais de l'Yonne,,47.70791100,3.63936300,,,,ARCOM@VIOLQDY,,2
VSSARRE1,VSSARRE1,VILLENEUVE SAINT SALVES Arrêt,,47.85459000,3.64988800,,,,ARCOM@VSSARRE,,2
VSSARRE2,VSSARRE2,VILLENEUVE SAINT SALVES Arrêt,,47.85452000,3.65066000,,,,ARCOM@VSSARRE,,2
VSSEELE1,VSSEELE1,VILLENEUVE SAINT SALVES Ecole Elémentair,,47.85428811,3.65245055,,,,ARCOM@VSSEELE,,2
VSSEGLI1,VSSEGLI1,VILLENEUVE SAINT SALVES Eglise,,47.85309000,3.65681000,,,,ARCOM@VSSEGLI,,2
