id,ident,category,airport_name,aero_lat,aero_long,elevation_ft,continent,country_code,iso_region,municipality,scheduled_service,icao_code,iata_code,gps_code,local_code,home_link,wikipedia_link,keywords
601266,SS7G,small_airport,Fazenda Amazônia Airport,-4.250887,-46.588374,545.0,SA,BR,BR-MA,Bom Jardim,no,,,SS7G,MA0206,,,
601268,SS7H,small_airport,Fazenda Umuarama Airstrip,-11.706389,-44.602181,1467.0,SA,BR,BR-BA,Cotegipe,no,,,SS7H,BA0496,,,
601951,SS7I,heliport,Inquima Heliport,-23.295507,-51.316059,2335.0,SA,BR,BR-PR,Cambé,no,,,SS7I,PR0258,,,
601270,SS7J,small_airport,APAAM Sports Airport,-12.990251,-55.957558,1296.0,SA,BR,BR-MT,Lucas do Rio Verde,no,,,SS7J,MT1118,,,
601274,SS7K,small_airport,Santo Antônio Airport,-15.962045,-57.195582,558.0,SA,BR,BR-MT,Cáceres,no,,,SS7K,MT1113,,,
601276,SS7L,small_airport,Fazenda Formigueiro Airport,-28.718544,-55.267326,466.0,SA,BR,BR-RS,Itacurubi,no,,,SS7L,RS0222,,,
601278,SS7M,heliport,Vinícola Terra de Carvalho Heliport,-22.260708,-46.694097,2762.0,SA,BR,BR-MG,Jacutinga,no,,,SS7M,MG0638,,,
601280,SS7N,small_airport,Fazenda Aliança Airport,-8.244556,-44.986467,1739.0,SA,BR,BR-PI,Baixa Grande do Ribeiro,no,,,SS7N,PI0119,,,
601253,SS7O,small_airport,Fazenda Paulista Airport,-21.582802,-51.709149,966.0,SA,BR,BR-SP,Ouro Verde,no,,,SS7O,SP1493,,,
601282,SS7P,small_airport,PRG 1 Airstrip,-10.398507,-46.037832,2585.0,SA,BR,BR-TO,Mateiros,no,,,SS7P,TO0156,,,
601715,SS7Q,small_airport,Fazenda Guara-Garganta Airport,-11.181777,-46.438773,2766.0,SA,BR,BR-BA,Formosa do Rio Preto,no,,,SS7Q,BA0495,,,
601718,SS7R,heliport,Fazenda João e Maria Heliport,-27.432371,-49.550565,1995.0,SA,BR,BR-SC,Ituporanga,no,,,SS7R,SC0250,,,
601720,SS7S,small_airport,Fazenda Boa Esperança Airport,-15.094922,-57.714973,719.0,SA,BR,BR-MT,Salto do Céu,no,,,SS7S,MT1139,,,
601958,SS7T,small_airport,Fazenda Eldorado Airstrip,-14.702317,-52.117747,922.0,SA,BR,BR-MT,Nova Xavantina,no,,,SS7T,MT1121,,,
601961,SS7U,small_airport,Fazenda Palmeiras Airstrip,-12.070661,-61.204347,853.0,SA,BR,BR-RO,Parecis,no,,,SS7U,RO0114,,,
601977,SS7V,small_airport,Fazenda Sagarana I Airstrip,-13.773683,-46.197289,3232.0,SA,BR,BR-BA,Correntina,no,,,SS7V,BA0494,,,
601975,SS7Y,small_airport,Fazenda Piratini Airport,-15.497105,-54.583738,2117.0,SA,BR,BR-MT,Dom Aquino,no,,,SS7Y,MT1116,,,
598551,SS7Z,small_airport,Fazenda Paraiso Arpa Airport,-11.298736,-49.63974,650.0,SA,BR,BR-TO,Dueré,no,,,SS7Z,TO0154,,,
598536,SS82,small_airport,Carará Airport,-0.075011,-53.11976,529.0,SA,BR,BR-PA,Almeirim,no,,,SS82,PA0426,,,
598535,SS83,small_airport,Fazenda Cochilo Airport,-17.118721,-45.421015,1850.0,SA,BR,BR-MG,Buritizeiro,no,,,SS83,MG0633,,,
598534,SS84,heliport,Grupo Mil Heliport,-22.119925,-43.235546,978.0,SA,BR,BR-RJ,Três Rios,no,,,SS84,RJ0238,,,
598532,SS86,small_airport,Fazenda Rio de Janeiro Airstrip,-11.936836,-46.085154,2700.0,SA,BR,BR-BA,Barreiras,no,,,SS86,BA0489,,,
598533,SS87,small_airport,Fazenda Alexandria Airport,-9.014992,-63.977247,285.0,SA,BR,BR-RO,Porto Velho,no,,,SS87,RO0106,,,
597446,SS88,small_airport,Fazenda Caravelas Airsrtip,-17.657616,-45.052576,1720.0,SA,BR,BR-MG,Buritizeiro,no,,,SS88,MG0627,,,
597445,SS89,small_airport,Fazenda São Vicente Airport,-18.746586,-56.358164,381.0,SA,BR,BR-MS,Corumbá,no,,,SS89,MS0778,,,
597443,SS8A,small_airport,Fazenda Fênix Airstrip,-18.960108,-54.798939,1292.0,SA,BR,BR-MS,Rio Verde de Mato Grosso,no,,,SS8A,MS0779,,,
597438,SS8B,heliport,Aura Almas Heliport,-11.700895,-47.166726,1257.0,SA,BR,BR-TO,Almas,no,,,SS8B,TO0144,,,
597437,SS8D,heliport,Guarajuba Beach Country Heliport,-12.633167,-38.095472,148.0,SA,BR,BR-BA,Camaçari,no,,,SS8D,BA0482,,,
597435,SS8E,small_airport,Fazenda Chibata Airport,-15.420926,-51.093533,919.0,SA,BR,BR-GO,Britânia,no,,,SS8E,GO0396,,,
597368,SS8F,small_airport,Fazenda Santa Maria Airport,-12.901194,-55.928706,1302.0,SA,BR,BR-MT,Sorriso,no,,,SS8F,MT1094,,,
597366,SS8G,small_airport,Fazenda Carisma Airstrip,-16.105775,-56.608795,488.0,SA,BR,BR-MT,Poconé,no,,,SS8G,MT1095,,,
601978,SS8I,small_airport,Pelisão Airport,-13.914234,-55.252054,1791.0,SA,BR,BR-MT,Santa Rita do Trivelato,no,,,SS8I,MT1038,,,
597162,SS8L,small_airport,Fazenda Tupancy Airstrip,-18.513139,-55.153003,600.0,SA,BR,BR-MS,Rio Verde de Mato Grosso,no,,,SS8L,MS0773,,,
597156,SS8M,small_airport,Aero Agrícola Norte Sul Airport,-9.42744,-59.247585,509.0,SA,BR,BR-MT,Colniza,no,,,SS8M,MT1101,,,
597158,SS8N,small_airport,Fazenda São Lourenço Airport,-16.998234,-53.460652,2782.0,SA,BR,BR-MT,Alto Garças,no,,,SS8N,MT1088,,,
601979,SS8O,heliport,Sophie Heliport,-28.9225,-49.348889,10.0,SA,BR,BR-SC,Araranguá,no,,,SS8O,SC0244,,,
593629,SS8P,heliport,Macaé d'Or Hospital Helipad,-22.390942,-41.810036,125.0,SA,BR,BR-RJ,Macaé,no,,,SS8P,RJ0351,,,
593582,SS8Q,heliport,Topázio Heliport,-20.133767,-43.962228,4249.0,SA,BR,BR-MG,Nova Lima,no,,,SS8Q,MG0624,,,
593567,SS8R,small_airport,Fazenda Passo do Lobo Airport,-13.775646,-56.145022,1387.0,SA,BR,BR-MT,Nova Mutum,no,,,SS8R,MT1079,,,
593571,SS8S,small_airport,Agropecuária BIM - Fazenda Cristalina Airport,-16.263142,-53.397239,2520.0,SA,BR,BR-MT,Guiratinga,no,,,SS8S,MT1093,,,
593574,SS8T,small_airport,Fazenda Paiabanha Airstrip,-10.350053,-47.958014,1436.0,SA,BR,BR-TO,Monte do Carmo,no,,,SS8T,TO0141,,,
601982,SS8U,heliport,Nosso Paraíso Heliport,-2.730356,-42.769361,13.0,SA,BR,BR-MA,Barreirinhas,no,,,SS8U,MA0208,,,
601983,SS8V,small_airport,Colina Aerosports Association Airport,-24.02816,-52.413006,1995.0,SA,BR,BR-PR,Campo Mourão,no,,,SS8V,PR0254,,,
601984,SS8W,heliport,Ibiti do Paço Heliport,-23.457885,-47.450868,1937.0,SA,BR,BR-SP,Sorocaba,no,,,SS8W,SP1486,,,
601987,SS8X,small_airport,Diplomata Airstrip,-19.402583,-48.057722,2582.0,SA,BR,BR-MG,Uberaba,no,,,SS8X,MG0650,,,
599113,SS8Y,small_airport,Rancho Leoncini Airstrip,-14.675165,-52.384888,889.0,SA,BR,BR-MT,Nova Xavantina,no,,,SS8Y,MT1135,,,
599112,SS8Z,small_airport,Grupo Carreira Airport,-17.24745,-51.35928,2819.0,SA,BR,BR-GO,Caiapônia,no,,,SS8Z,GO0403,,,
599114,SS93,small_airport,Rio Formoso Airport,-12.013642,-49.684296,686.0,SA,BR,BR-TO,Formoso do Araguaia,no,,,SS93,TO0155,,,
603554,SS96,small_airport,Fazenda Conquista Airstrip,-19.574419,-50.555503,1516.0,SA,BR,BR-MG,Limeira do Oeste,no,,,SS96,MG0651,,,
603552,SS97,small_airport,Fazenda Sinopema Airstrip,-11.446719,-56.453747,1184.0,SA,BR,BR-MT,Tabaporã,no,,,SS97,MT1145,,,
602025,SS98,heliport,Petroserra Heliport,-12.277442,-38.921606,781.0,SA,BR,BR-BA,Feira de Santana,no,,,SS98,BA0506,,,
602027,SS99,small_airport,Fazenda Veronezi Airport,-28.144761,-49.284758,1105.0,SA,BR,BR-SC,Grão Pará,no,,,SS99,SC0258,,,
599093,SS9A,small_airport,Fazenda Horizontina Leste Auxiliary Airstrip,-7.869755,-45.736574,1545.0,SA,BR,BR-MA,Tasso Fragoso,no,,,SS9A,MA0209,,,
602030,SS9B,small_airport,Fazenda Petróleo Airport,-10.36332,-51.527039,1083.0,SA,BR,BR-MT,Confresa,no,,,SS9B,MT1146,,,
599090,SS9C,small_airport,Brejo do Caipira Airport,-21.550775,-47.977305,1677.0,SA,BR,BR-SP,Guatapará,no,,,SS9C,SP1454,,,
602484,SS9D,small_airport,Fazenda Dona Irilde Airport,-12.740089,-56.207315,1301.0,SA,BR,BR-MT,Lucas do Rio Verde,no,,,SS9D,MT1099,,,
599089,SS9F,heliport,Pré-Fabricar Heliport,-27.104847,-49.52455,1253.0,SA,BR,BR-SC,Ibirama,no,,,SS9F,SC0254,,,
599087,SS9G,heliport,Tereza Ramos General & Maternity Hospital Helipad,-27.819099,-50.334427,3123.0,SA,BR,BR-SC,Lages,no,,,SS9G,SC0167,,,
602036,SS9H,small_airport,Fazenda Matos Airstrip,-20.077397,-54.1925,1744.0,SA,BR,BR-MS,Jaraguari,no,,,SS9H,MS0789,,,
602040,SS9J,small_airport,Fazenda Três Fronteiras Airstrip,-9.124292,-61.199772,479.0,SA,BR,BR-MT,Colniza,no,,,SS9J,MT1148,,,
602044,SS9K,heliport,Torquefly Heliport,-19.557186,-42.595522,1043.0,SA,BR,BR-MG,Timóteo,no,,,SS9K,MG0655,,,
599086,SS9L,heliport,MHL Heliport,-26.41163,-49.109674,144.0,SA,BR,BR-SC,Jaraguá do Sul,no,,,SS9L,SC0255,,,
602046,SS9M,heliport,Minas Gerais State Court Helistop,-19.944592,-43.922273,3402.0,SA,BR,BR-MG,Belo Horizonte,no,,,SS9M,MG0639,,,TJMG
602106,SS9N,small_airport,MM Airport,-10.767978,-49.64021,640.0,SA,BR,BR-TO,Lagoa da Confusão,no,,,SS9N,TO0120,,,
602108,SS9O,small_airport,Rio Sauípe Aeropark,-12.30665,-38.012636,132.0,SA,BR,BR-BA,Itanagra,no,,,SS9O,BA0507,,,
598530,SS9P,small_airport,Grupo Golin Agro Airport,-8.116992,-43.139831,1575.0,SA,BR,BR-PI,Canto do Buriti,no,,,SS9P,PI0056,,,
600777,SS9Q,small_airport,Aerofrásio Airport,-6.704161,-36.681427,1001.0,SA,BR,BR-RN,Parelhas,no,,,SS9Q,RN0023,,,
599083,SS9R,small_airport,Fazenda Triangulo Formoso Airstrip,-17.425672,-44.989472,1749.0,SA,BR,BR-MG,Buritizeiro,no,,,SS9R,MG0583,,,
599080,SS9S,small_airport,Fazenda São Francisco Airport,-11.103033,-48.033319,945.0,SA,BR,BR-TO,Monte do Carmo,no,,,SS9S,TO0159,,,
599078,SS9T,small_airport,Teboa  Airstrip,-21.484444,-54.963056,1358.0,SA,BR,BR-MS,Rio Brilhante,no,,,SS9T,MS0785,,,
600780,SS9U,heliport,Ayrton Senna International Autodrome Principal Heliport,-16.718543,-49.193559,2489.0,SA,BR,BR-GO,Goiânia,no,,,SS9U,GO0405,,,
600781,SS9V,small_airport,Agroesser Airport,-9.890994,-49.17795,827.0,SA,BR,BR-TO,Divinópolis do Tocantins,no,,,SS9V,TO0161,,,
600784,SS9W,small_airport,Retiro Pouso Alto Fazenda Cruz Alta Airstrip,-19.016572,-55.81579,436.0,SA,BR,BR-MS,Corumbá,no,,,SS9W,MS0786,,,
599074,SS9X,heliport,Grupo 3T Heliport,-20.330189,-43.4527,2897.0,SA,BR,BR-MG,Mariana,no,,,SS9X,MG0647,,,
600788,SS9Y,heliport,44 Heliport,-16.37048,-49.520717,2674.0,SA,BR,BR-GO,Inhumas,no,,,SS9Y,GO0413,,,
600789,SS9Z,small_airport,Fazenda Silmar Airstrip,-16.225,-60.08916,937.0,SA,BR,BR-MT,Vila Bela da Santíssima Trindade,no,,,SS9Z,MT1151,,,
600130,SSA0,small_airport,Fazenda Castelo Airstrip,-8.734705,-63.754952,269.0,SA,BR,BR-RO,Porto Velho,no,,,SSA0,RO0115,,,
600791,SSA3,small_airport,Fazenda Mainau Airstrip,-9.943083,-38.520339,1276.0,SA,BR,BR-BA,Jeremoabo,no,,,SSA3,BA0512,,,
599076,SSA4,small_airport,Fazenda Angelim Airport,-8.981254,-45.424206,1714.0,SA,BR,BR-PI,Baixa Grande do Ribeiro,no,,,SSA4,PI0124,,,
599072,SSA6,small_airport,Rincão Porã Airport,-13.743406,-57.347983,1739.0,SA,BR,BR-MT,Diamantino,no,,,SSA6,MT1141,,,
599070,SSA7,small_airport,Fazenda Sete Airport,-14.134705,-45.420552,2667.0,SA,BR,BR-BA,Jaborandi,no,,,SSA7,BA0503,,,
600127,SSA8,small_airport,Fazenda Olho d'Água Airport,-13.6382,-46.720928,1459.0,SA,BR,BR-GO,São Domingos,no,,,SSA8,GO0406,,,
600793,SSA9,small_airport,Fazenda Lagoa Airport,-11.8284,-45.8292,2575.0,SA,BR,BR-BA,Barreiras,no,,,SSA9,BA0510,,,
331825,SSAA,heliport,Hospital da Unimed Heliport,-19.921843,-43.919601,2871.0,SA,BR,BR-MG,Belo Horizonte,no,,,SSAA,MG0267,,,
429,SSAB,small_airport,Moisés Lupion Airport,-23.762199,-50.263,1968.0,SA,BR,BR-PR,Ibaiti,no,,,SSAB,PR0024,,,
430,SSAD,small_airport,Fazenda Ribeirão Airport,-18.764,-52.917599,2736.0,SA,BR,BR-MS,Chapadão do Sul,no,,,SSAD,MS0243,,,
37387,SSAE,small_airport,Arroio Grande Airport,-32.229154,-53.055544,161.0,SA,BR,BR-RS,Arroio Grande,no,,,SSAE,RS0040,,,
37388,SSAF,small_airport,Aeroclube de Foz do Iguaçu Airport,-25.36971,-54.470508,840.0,SA,BR,BR-PR,Santa Terezinha de Itaipu,no,,,SSAF,PR0071,,,
37389,SSAG,small_airport,Fazenda Lobo Airport,-19.711728,-52.726921,1410.0,SA,BR,BR-MS,Água Clara,no,,,SSAG,MS0244,,,Agropecuária Lobo Ltda
335484,SSAH,small_airport,Fazenda Sorriso Airport,-11.527549,-51.223622,728.0,SA,BR,BR-MT,São Félix do Araguaia,no,,,SSAH,MT0500,,,
331828,SSAI,small_airport,Fazenda Panamá Airport,-14.10529,-46.797615,1640.0,SA,BR,BR-GO,Iaciara,no,,,SSAI,GO0104,,,
37391,SSAK,small_airport,Carlos Ruhl Airport,-28.657934,-53.610095,1542.0,SA,BR,BR-RS,Cruz Alta,no,,CZB,SSAK,RS0048,,,Aeroclube Airport
317301,SSAL,heliport,Mostardeiro Heliport,-30.028309,-51.204054,364.0,SA,BR,BR-RS,Porto Alegre,no,,,SSAL,RS0111,,,
431,SSAN,small_airport,Andirá Airport,-23.027335,-50.2271,1608.0,SA,BR,BR-PR,Andirá,no,,,SSAN,PR0032,,,João Galdino
331833,SSAO,small_airport,Fazenda Olhos D'Água Airport,-12.009456,-40.274425,1329.0,SA,BR,BR-BA,Baixa Grande,no,,,SSAO,BA0149,,,
432,SSAP,small_airport,Captain João Busse Airport,-23.609099,-51.384301,2625.0,SA,BR,BR-PR,Apucarana,no,SSAP,APU,SSAP,PR0014,,https://en.wikipedia.org/wiki/Apucarana_Airport,
30246,SSAQ,small_airport,Aeroclube Airport,-28.250601,-52.516701,1969.0,SA,BR,BR-RS,Passo Fundo,no,,,SSAQ,RS0036,,,
37393,SSAR,small_airport,Fazenda Jacaré Airport,-21.503056,-53.967499,1214.0,SA,BR,BR-MS,Campo Grande,no,,,SJRJ,MS0181,,,SSAR
331835,SSAS,heliport,Edifício Serrador Helipad,-22.911802,-43.176246,292.0,SA,BR,BR-RJ,Rio de Janeiro,no,,,SSAS,RJ0142,,,17
37394,SSAU,small_airport,Centeno Airport,-30.745976,-51.430526,43.0,SA,BR,BR-RS,Tapes,no,,,SSAU,RS0090,,,
37395,SSAV,small_airport,Fazenda Amonguijá Airport,-21.689941,-57.475126,400.0,SA,BR,BR-MS,Porto Murtinho,no,,,SSAV,MS0245,,,
433,SSAY,small_airport,Sítio Pouso do Aviador Airport,-20.48616,-54.48339,1946.0,SA,BR,BR-MS,Campo Grande,no,,,SSAY,MS0246,,,
46109,SSAZ,heliport,Quatro Barras Heliport,-25.376624,-49.084809,3041.0,SA,BR,BR-PR,Quatro Barras,no,,,SDEQ,PR0102,,,SSAZ
601134,SSB2,small_airport,Âncora Lodge Airstrip,-13.210521,-52.959612,1062.0,SA,BR,BR-MT,Gaúcha do Norte,no,,,SSB2,MT1156,,,
601138,SSB3,small_airport,Fazenda São Sebastião do Iriri Airport,-6.0252,-53.72525,840.0,SA,BR,BR-PA,Altamira,no,,,SSB3,PA0437,,,
602110,SSB4,heliport,São Braz Bahia Heliport,-12.373078,-38.807281,774.0,SA,BR,BR-BA,Conceição do Jacuípe,no,,,SSB4,BA0500,,,
602111,SSB6,small_airport,Fazenda Orion Airstrip,-17.094247,-58.250903,316.0,SA,BR,BR-MT,Cáceres,no,,,SSB6,MT1144,,,
602115,SSB7,small_airport,Fazenda Santa Paula Airport,-14.18362,-45.844891,2878.0,SA,BR,BR-BA,Jaborandi,no,,,SSB7,BA0511,,,
602118,SSB8,small_airport,Fazenda Buriti Airport,-6.691142,-51.945554,689.0,SA,BR,BR-PA,São Félix do Xingu,no,,,SSB8,PA0435,,,
602121,SSB9,small_airport,Fazenda Brasília Airport,-15.339419,-51.495853,934.0,SA,BR,BR-GO,Jussara,no,,,SSB9,GO0409,,,
37398,SSBC,small_airport,Fazenda Barra do Tietê Airport,-20.72611,-51.588612,1115.0,SA,BR,BR-SP,Castilho,no,,,SSBC,SP0243,,,"Malibu Confinamento, JBS Agropecuária LTDA"
37400,SSBF,small_airport,Fazenda JL Airport,-20.002079,-51.38345,1400.0,SA,BR,BR-MS,Aparecida do Taboado,no,,,SSBF,MS0247,,,
37401,SSBG,small_airport,Aeroclube de Bento Gonçalves Airport,-29.147424,-51.540791,2209.0,SA,BR,BR-RS,Bento Gonçalves,no,,BGV,SSBG,RS0091,,,
331842,SSBI,small_airport,Condomínio Irmãos Gatto Airport,-11.85146,-46.302258,2851.0,SA,BR,BR-BA,Barreiras,no,,,SSBI,BA0151,,,
37404,SSBK,small_airport,Fazenda Araruna Airport,-17.583754,-54.641158,1886.0,SA,BR,BR-MS,Sonora,no,,,SSBK,MS0248,,,
436,SSBL,small_airport,Blumenau Airport,-26.831661,-49.093569,60.0,SA,BR,BR-SC,Blumenau,no,SSBL,BNU,SSBL,SC0019,,https://en.wikipedia.org/wiki/Blumenau_Airport,
37406,SSBN,small_airport,Belém Novo Airport,-30.188978,-51.182148,16.0,SA,BR,BR-RS,Porto Alegre,no,,,SSBN,RS0002,https://args.com.br/,https://pt.wikipedia.org/wiki/Aeroporto_de_Bel%C3%A9m_Novo,
37408,SSBP,heliport,Parque Barigui Heliport,-25.430927,-49.315429,2936.0,SA,BR,BR-PR,Curitiba,no,,,SSBP,PR0131,,,
37409,SSBQ,small_airport,Marfrig Bataguassu MS Airport,-21.744471,-52.4805,1224.0,SA,BR,BR-MS,Bataguassu,no,,,SDD8,MS0518,,,"SSBQ, Frigorífico Marfrig"
29683,SSBR,small_airport,Bandeirantes Airport,-23.072799682617188,-50.423099517822266,1319.0,SA,BR,BR-PR,Bandeirantes,no,,,SSBR,,,,
437,SSBT,small_airport,Fazenda Santa Ilídia Airport,-22.323932,-53.095477,942.0,SA,BR,BR-MS,Bataiporã,no,,,SSBT,MS0250,,,
37411,SSBU,small_airport,Fazenda Baguassu Airport,-21.45465,-57.146527,1132.0,SA,BR,BR-MS,Porto Murtinho,no,,,SJ97,MS0251,,,"SSBU, Baguaçu, Miragem"
438,SSBV,small_airport,Bela Vista Airport,-22.0816,-56.538601,770.0,SA,BR,BR-MS,Bela Vista,no,,,SSBV,MS0011,,https://pt.wikipedia.org/wiki/Aeroporto_de_Bela_Vista,
44723,SSBW,small_airport,Fazenda Boa Sorte Airport,-20.914864,-55.016881,1197.0,SA,BR,BR-MS,Sidrolândia,no,,,SJR2,MS0252,,,SSBW
37412,SSBX,small_airport,Fazenda Lageado Airport,-18.445355,-54.796101,728.0,SA,BR,BR-MS,Coxim,no,,,SSBX,MS0253,,,
439,SSBY,small_airport,Orlando Chesini Ometto Airport,-20.099501,-56.7939,443.0,SA,BR,BR-MS,Miranda,no,,,SSBY,MS0254,,,
602123,SSC2,small_airport,Aeroleves Airstrip,2.762467,-60.58895,262.0,SA,BR,BR-RR,Cantá,no,,,SSC2,RR0169,,,
602124,SSC3,small_airport,Fazenda Santa Maria Airport,-7.146892,-56.724153,771.0,SA,BR,BR-PA,Itaituba,no,,,SSC3,PA0440,,,
602134,SSC4,heliport,Fazenda Tapuio Heliport,-6.826372,-35.656253,1624.0,SA,BR,BR-PB,Serraria,no,,,SSC4,PB0043,,,
603551,SSC6,heliport,Guarujá Marina Residential Heliport.,-23.931536,-46.204187,66.0,SA,BR,BR-SP,Guarujá,no,,,SSC6,SP1490,,,
602135,SSC7,small_airport,Fazenda Maria II Airport,-14.407778,-45.702778,2854.0,SA,BR,BR-BA,Jaborandi,no,,,SSC7,BA0518,,,
602138,SSC8,small_airport,Fazenda Dona Francisca Airport,-14.349113,-54.206003,1568.0,SA,BR,BR-MT,Paranatinga,no,,,SSC8,MT1078,,,
602140,SSC9,small_airport,Fazenda Tara Airport,-12.843055,-45.941828,2749.0,SA,BR,BR-BA,São Desidério,no,,,SSC9,BA0513,,,https://aisweb.decea.mil.br/?i=aerodromos&codigo=SSC9&amdt=2002
37414,SSCA,small_airport,Fazenda Pantanal Airport,-18.73438,-52.604213,2730.0,SA,BR,BR-MS,Chapadão do Sul,no,,,SSCA,MS0255,,,Campo Bom
44724,SSCB,small_airport,Fazenda Santa Maria Airport,-13.769686,-49.934503,830.0,SA,BR,BR-GO,Mundo Novo,no,,,SWWQ,GO0148,,,SSCB
332244,SSCC,heliport,SC401 Square Corporate Helipad,-27.53462,-48.509863,115.0,SA,BR,BR-SC,Florianópolis,no,,,SSCC,SC0087,,,
37415,SSCD,small_airport,Chapadão do Sul Airport,-18.839125,-52.488116,2680.0,SA,BR,BR-MS,Chapadão do Sul,no,,,SSCD,MS0007,http://www.chapadaodosul.ms.gov.br/noticia/imagens-que-marcaram-a-26a-exposul/2401,,Júlio Alves Martins
37416,SSCE,small_airport,Aeroclube de Bagé,-31.327778,-54.134724,728.0,SA,BR,BR-RS,Bagé,no,,,SIBK,RS0058,,https://pt.wikipedia.org/wiki/Aeroclube_de_Bag%C3%A9,SSCE
37417,SSCF,small_airport,Max Fontoura Airport,-25.426398,-49.524194,3140.0,SA,BR,BR-PR,Campo Largo,no,,,SSCF,PR0072,,,
335008,SSCG,heliport,Orla 62 Helipad,-23.038528,-44.195884,115.0,SA,BR,BR-RJ,Angra dos Reis,no,,,SSCG,RJ0188,,,
37418,SSCH,small_airport,Fazenda Cachoeirão Airport,-21.598487,-53.226976,1066.0,SA,BR,BR-MS,Nova Andradina,no,,,SSCH,MS0256,,,
440,SSCI,small_airport,Coxim Airport,-18.477699,-54.714699,965.0,SA,BR,BR-MS,Coxim,no,,,SSCI,MS0012,,,
37419,SSCJ,small_airport,Fazenda Celeiro Airport,-21.545365,-54.661987,1071.0,SA,BR,BR-MS,Rio Brilhante,no,,,SJI8,MS0257,,,SSCJ
441,SSCK,small_airport,Olavo Cecco Rigon Airport,-27.180511,-52.051755,2461.0,SA,BR,BR-SC,Concórdia,no,SSCK,CCI,SSCK,SC0010,,https://en.wikipedia.org/wiki/Conc%C3%B3rdia_Airport,
37420,SSCL,small_airport,Cassilândia Airport,-19.146861,-51.676941,1568.0,SA,BR,BR-MS,Cassilândia,no,SSCL,CSS,SSCL,MS0018,,,
37421,SSCM,small_airport,Fazenda Caçadinha Airport,-21.61412,-54.79561,1299.0,SA,BR,BR-MS,Rio Brilhante,no,,,SSCM,MS0258,,,
442,SSCN,small_airport,Canela Airport,-29.370091,-50.831729,2746.0,SA,BR,BR-RS,Canela,yes,SSCN,CEL,SSCN,RS0019,https://www.aeroportodecanela.com.br/,https://en.wikipedia.org/wiki/Canela_Airport,
37422,SSCO,small_airport,Comandante Marilda Zaiden de Mesquita Airport,-31.775068,-52.451879,33.0,SA,BR,BR-RS,Capão do Leão,no,,,SSCO,RS0092,,,
443,SSCP,small_airport,Cornélio Procópio Airport,-23.152711,-50.602868,1860.0,SA,BR,BR-PR,Cornélio Procópio,no,SSCP,CKO,SSCP,PR0015,,https://en.wikipedia.org/wiki/Corn%C3%A9lio_Proc%C3%B3pio_Airport,
37423,SSCQ,small_airport,Salcã Airport,-29.900249,-54.929386,285.0,SA,BR,BR-RS,Cacequi,no,,,SSCQ,RS9001,,,
444,SSCR,small_airport,Balduino Helmuth Jope Airport,-24.512699,-54.054699,1381.0,SA,BR,BR-PR,Marechal Cândido Rondon,no,,,SSCR,PR0016,,https://pt.wikipedia.org/wiki/Aeroporto_Balduino_Helmuth_Jope,
445,SSCT,small_airport,Engenheiro Gastão de Mesquita Filho Airport,-23.69157,-52.642091,1837.0,SA,BR,BR-PR,Cianorte,no,SSCT,GGH,SSCT,PR0025,,https://en.wikipedia.org/wiki/Gast%C3%A3o_Mesquita_Airport,
44725,SSCU,small_airport,Fazenda Santa Marina Airport,-8.86894,-50.481324,1007.0,SA,BR,BR-PA,Santa Maria Das Barreiras,no,,,SSCU,PA0123,,,
37426,SSCW,small_airport,Fazenda Santa Glória Airport,-18.039722,-56.005554,456.0,SA,BR,BR-MS,Corumbá,no,,,SIQO,MS0121,,,"SSCW, Fazenda São Sebastião"
37427,SSCX,small_airport,Fazenda Coxilha Airport,-28.095087,-52.335746,2133.0,SA,BR,BR-RS,Passo Fundo,no,,,SSCX,RS0093,,,
37428,SSCY,heliport,Sikorski Heliport,-25.438472,-49.448541,3149.0,SA,BR,BR-PR,Campo Largo,yes,,,SSCY,PR0132,http://www.sikorski.com.br,,"pilotoprivado, piloto, pilotodehelicóptero, cursopiloto, pilotocomercial, pilotosdehelicóptero, pilotobrasil, cursodepilotagem, escoladepilotagem, escoladepilotos, escoladeaviacao, escoladeaviação, heliponto, heliporto, helicentro, r44, r22, robinson, roto"
604479,SSD1,heliport,Fazenda 28 Heliport,-21.415125,-43.036719,1499.0,SA,BR,BR-MG,Descoberto,no,,,SSD1,MG0663,,,
602142,SSD2,heliport,Fazenda São Manoel Heliport,-23.602227,-51.093063,1737.0,SA,BR,BR-PR,Londrina,no,,,SSD2,PR0257,,,
333186,SSDA,heliport,Água Mansa Heliport,-23.741404,-45.404187,7.0,SA,BR,BR-SP,São Sebastião,no,,,SSDA,SP0746,,,
37431,SSDD,heliport,Nossa Senhora de Fátima Heliport,-29.932878,-51.183286,13.0,SA,BR,BR-RS,Canoas,no,,,SSDD,RS9004,,,
44726,SSDG,small_airport,Fazenda Nazaré Airport,-9.335862,-45.57298,2034.0,SA,BR,BR-PI,Santa Filomena,no,,,SNXZ,PI0033,,,SSDG
44727,SSDI,small_airport,Fazenda Bacatuba Airport,-5.659765,-43.705702,584.0,SA,BR,BR-MA,Buriti Bravo,no,,,SSDI,MA0044,,,
37436,SSDK,small_airport,São Pedro,-20.075955,-44.727917,2713.0,SA,BR,BR-MG,,no,,,SSDK,MG0178,,,
44728,SSDL,small_airport,Fazenda Ribeirão Airport,-8.008883,-45.333596,1588.0,SA,BR,BR-PI,Ribeirão Gonçalves,no,,,SSDL,PI0034,,,
333194,SSDO,small_airport,São Pedro Airport,-16.753778,-39.316389,262.0,SA,BR,BR-BA,Porto Seguro,no,SSDO,,SSDO,BA0155,,,
44730,SSDP,small_airport,Fazenda Fortaleza do Guaporé Airport,-14.463956,-60.174884,778.0,SA,BR,BR-MT,Vila Bela da Santíssima Trindade,no,,,SSDP,MT0284,,,
37438,SSDQ,small_airport,Fazenda Marema Airport,-20.180732,-56.634712,463.0,SA,BR,BR-MS,Miranda,no,,,SSDQ,MS0259,,,
44732,SSDT,small_airport,Fazenda Pau d'Arco Airport,-7.941807,-50.180906,794.0,SA,BR,BR-PA,Redenção,no,,,SSDT,PA0124,,,
37440,SSDV,small_airport,Fazenda Santa Maria Airport,-18.209771,-55.465482,518.0,SA,BR,BR-MS,Corumbá,no,,,SSDV,MS0260,,,
44733,SSDW,small_airport,Fazenda Potrich Airport,-12.915799,-55.535563,1335.0,SA,BR,BR-MT,Sorriso,no,,,SSDW,MT0287,,,
37441,SSDX,small_airport,Fazenda da Coxilha Airport,-31.013962,-51.708516,33.0,SA,BR,BR-RS,Camaquã,no,,,SSDX,RS0094,,,
333926,SSEB,small_airport,Mata Serena Airport,-13.772931,-46.772192,1440.0,SA,BR,BR-GO,São Domingos,no,,,SSEB,GO0105,,,
46364,SSEC,heliport,Edifício Sequóia Heliport,-21.218996,-47.804453,2411.0,SA,BR,BR-SP,Ribeirão Preto,no,,,SNEO,SP0696,,,SSEC
37443,SSED,small_airport,Fazenda Escalada Airport,-17.96497,-54.430442,932.0,SA,BR,BR-MS,Pedro Gomes,no,,,SSED,MS0261,,,
37444,SSEE,small_airport,Vale do Taquari Regional Airport,-29.453107,-51.934072,105.0,SA,BR,BR-RS,Estrela,no,,,SSEE,RS0054,,,
45634,SSEF,small_airport,Fazenda Passaredo Airport,-21.320047,-47.231553,4632.0,SA,BR,BR-SP,Cajuru,no,,,SSEF,SP0244,,,
333931,SSEH,small_airport,Fazenda Pantera Airport,-17.953015,-53.246868,2946.0,SA,BR,BR-MT,Alto Taquari,no,,,SSEH,MT0288,,,
37447,SSEJ,heliport,Moinho Velho Heliport,-23.626064,-46.84559,2831.0,SA,BR,BR-SP,Embu,no,,,SSEJ,SP0747,,,
37448,SSEK,small_airport,Fazenda Lontra Airport,-20.01777,-53.254715,1299.0,SA,BR,BR-MS,Ribas do Rio Pardo,no,,,SSEK,MS0262,,,
44563,SSEN,heliport,Fazenda Baviera Heliport,-14.121219,-39.829334,538.0,SA,BR,BR-BA,Itagibá,no,,,SSDB,BA0216,,,SSEN
37451,SSEO,small_airport,Fazenda Mimoso Airport,-20.730548,-53.562494,1404.0,SA,BR,BR-MS,Ribas do Rio Pardo,no,,,SN2S,MS0772,,,SSEO
30394,SSEP,small_airport,São Sepé Airport,-30.182199,-53.579399,502.0,SA,BR,BR-RS,São Sepé,no,,,SSEP,RS0031,,,
37452,SSEQ,small_airport,Fazenda Aldebaran Airport,-21.92332,-53.940833,1099.0,SA,BR,BR-MS,Angélica,no,,,SDQA,MS0044,,,"SSEQ, Fazenda Rio Brilhante"
449,SSER,small_airport,Erechim Airport,-27.663614,-52.271489,2498.0,SA,BR,BR-RS,Erechim,no,SSER,ERM,SSER,RS0018,,https://en.wikipedia.org/wiki/Erechim_Airport,
44564,SSEU,small_airport,Tabocal Airport,-7.281926,-56.582297,915.0,SA,BR,BR-PA,Itaituba,no,,,SSEU,PA0125,,,Monte Carmelo
37454,SSEV,small_airport,São Camilo Airport,-18.089084,-57.130864,289.0,SA,BR,BR-MS,Corumbá,no,,,SSEV,MS0263,,,
45652,SSEW,small_airport,Sítio Limoeiro Airport,-23.145561,-48.309794,3084.0,SA,BR,BR-SP,Pardinho,no,,,SSEW,SP0245,,,
37455,SSEX,small_airport,Estância Caiman Airport,-19.968191,-56.311269,289.0,SA,BR,BR-MS,Miranda,no,,,SSEX,MS0264,,,
37457,SSEZ,small_airport,Espumoso Airport,-28.738719,-52.857248,1198.0,SA,BR,BR-RS,Espumoso,no,,,SSEZ,RS0050,,,
450,SSFA,small_airport,Foz do Areia Airport,-25.981501,-51.640701,3701.0,SA,BR,BR-PR,Pinhão,no,,,SSFA,PR0074,,,
451,SSFB,small_airport,Paulo Abdala Airport,-26.05938,-53.063827,2113.0,SA,BR,BR-PR,Francisco Beltrão,yes,SSFB,FBE,SSFB,PR0021,,https://en.wikipedia.org/wiki/Francisco_Beltr%C3%A3o_Airport,
333934,SSFC,small_airport,Safra Airport,-31.0225,-54.621667,443.0,SA,BR,BR-RS,Dom Pedrito,no,,,SSFC,RS0095,,,
37458,SSFD,small_airport,Fazenda Acarajá Airport,-23.002675,-54.700604,1194.0,SA,BR,BR-MS,Amambaí,no,,,SJC3,MS0265,,,SSFD
452,SSFE,small_airport,Estância Hércules Airport,-25.460699,-54.598468,584.0,SA,BR,BR-PR,Foz do Iguaçu,no,,,SSFE,PR0075,,,
37460,SSFG,small_airport,Fazenda Guanabara Airport,-22.661462,-52.142143,1010.0,SA,BR,BR-PR,Paranapoema,no,,,SSXG,PR0093,,,SSFG
45581,SSFH,small_airport,Vale dos Dinassauros Airport,-19.785486,-47.811638,2438.0,SA,BR,BR-MG,Uberaba,no,,,SSFH,MG0180,,,
37461,SSFJ,small_airport,Fazenda Retiro da Cachoeira Airport,-20.810952,-54.618119,1460.0,SA,BR,BR-MS,Campo Grande,no,,,SSFJ,MS0268,,,
37462,SSFK,small_airport,Forte Coimbra Airport,-19.906111,-57.779889,279.0,SA,BR,BR-MS,Corumbá,no,,,SSFK,MS9002,,,
37463,SSFL,small_airport,João Pereira dos Santos Filho Airport,-7.100147,-40.628379,1470.0,SA,BR,BR-PI,Fronteiras,no,,,SSFL,PI0006,,,
37466,SSFO,small_airport,Fazenda Novo Horizonte Airport,-20.039722442626953,-56.32027816772461,354.0,SA,BR,BR-MS,Miranda,no,,,SSFO,,,,
37469,SSFR,small_airport,Fronteira Airport,-20.278662,-49.187636,1598.0,SA,BR,BR-MG,Fronteira,no,,,SBFT,,,,SSFR
337116,SSFS,small_airport,Fazenda Sapezal Airport,-13.332545,-58.782143,1778.0,SA,BR,BR-MT,Sapezal,no,,,SSFS,MT0576,,,
37473,SSFX,small_airport,Fazenda Primavera Airport,-23.45713,-50.580087,2239.0,SA,BR,BR-PR,Nova Fátima,no,,,SSFX,PR0076,,,
37474,SSFY,heliport,Furnas Centrais Elétricas Heliport,-25.473278,-54.54207,751.0,SA,BR,BR-PR,Foz do Iguaçu,no,,,SSFY,PR0133,,,
455,SSGA,small_airport,Garibaldi Airport,-29.269047,-51.531674,2231.0,SA,BR,BR-RS,Garibaldi,no,,,SSGA,RS0020,,,
456,SSGB,small_airport,Guaratuba Airport,-25.881559,-48.611759,49.0,SA,BR,BR-PR,Guaratuba,no,,,SSGB,PR0035,,https://pt.wikipedia.org/wiki/Aeroporto_de_Guaratuba,
37475,SSGE,small_airport,Fazenda Periquitos Airport,-20.501698,-51.833131,1180.0,SA,BR,BR-MS,Três Lagoas,no,,,SSGE,MS0271,,,
458,SSGF,small_airport,Fazenda Formosa Airport,-20.198188,-53.223825,1640.0,SA,BR,BR-MS,Ribas do Rio Pardo,no,,,SSGF,MS0272,,,
37477,SSGH,small_airport,Fazenda Capão Verde Airport,-20.073735,-56.073249,413.0,SA,BR,BR-MS,Aquidauana,no,,,SSGH,MS0273,,,
37479,SSGJ,small_airport,Fazenda Poleiro Grande Airport,-17.250266,-56.272494,390.0,SA,BR,BR-MS,Corumbá,no,,,SSGJ,MS0274,,,
46116,SSGL,small_airport,Fazenda Falcão Airport,-15.399444,-54.181111,1975.0,SA,BR,BR-MT,Primavera do Leste,no,,,SDQX,MT0057,,,"SSGL, SSGS"
37481,SSGM,small_airport,Fazenda Seriema Airport,-21.693333,-56.5625,1053.0,SA,BR,BR-MS,Bela Vista,no,,,SSGM,MS0275,,,
37482,SSGN,small_airport,Fazenda Guaíba Airport,-23.236148,-54.540208,1401.0,SA,BR,BR-MS,Iguatemi,no,,,SSGN,MS0276,,,
37483,SSGO,small_airport,Rosada Airport,-19.428081,-54.588751,2192.0,SA,BR,BR-MS,São Gabriel d`Oeste,no,,,SSGO,MS0277,,https://pt.wikipedia.org/wiki/Aeroporto_de_S%C3%A3o_Gabriel_do_Oeste,
44561,SSGP,closed,Piquet Airport,-15.854319,-47.808639,3570.0,SA,BR,BR-DF,Brasília,no,,,,,,,"SSGP, DF0007"
37485,SSGT,small_airport,Fazenda Capão Alto Airport,-21.69569,-54.81588,1050.0,SA,BR,BR-MS,Rio Brilhante,no,,,SSGT,MS0280,,,
37486,SSGU,small_airport,Fazenda Gurucaia Airport,-23.186335,-53.326093,886.0,SA,BR,BR-PR,Santa Isabel do Ivaí,no,,,SSGU,PR0077,,,
29890,SSGV,heliport,Sorocred Heliport,-23.556667,-47.477778,2080.0,SA,BR,BR-SP,Votorantim,no,,,SSGV,,,,
459,SSGW,small_airport,Manoel Ribas Airport,-24.220459,-53.044453,1608.0,SA,BR,BR-PR,Goioerê,no,,,SSGW,PR0037,,,
37487,SSGX,small_airport,Fazenda Rio Negro Airport,-19.569416,-56.245297,358.0,SA,BR,BR-MS,Aquidauana,no,,,SNIH,MS0209,,,SSGX
460,SSGY,small_airport,Guaíra Airport,-24.0811,-54.1917,889.0,SA,BR,BR-PR,Guaíra,yes,SSGY,GGJ,SSGY,PR0023,,https://en.wikipedia.org/wiki/Gua%C3%ADra_Airport,"Walter Martins de Oliveira Municipal, QGA"
37488,SSGZ,small_airport,Fazenda Santa Helena do Pindó Airport,-22.893908,-53.867508,1050.0,SA,BR,BR-MS,Naviraí,no,,,SSGZ,MS0281,,,
37489,SSHA,small_airport,Aeroclube de Aquidauana Airport,-20.480833053588867,-55.76944351196289,620.0,SA,BR,BR-MS,Aquidauana,no,,,SSHA,,,,
37491,SSHD,small_airport,Fazenda Bipandora II Airport,-22.001521,-54.904273,1335.0,SA,BR,BR-MS,Itaporã,no,,,SJ7T,MS0673,,,SSHD
342478,SSHE,small_airport,Fazenda Nova Guaporé,-13.90646,-60.322462,705.0,SA,BR,BR-MT,Comodoro,no,,,SSHE,MT0290,,,"Fazenda Araras, Fazenda dos Pássaros"
461,SSHG,small_airport,Fazenda Tereré Airport,-22.357945,-55.763847,2277.0,SA,BR,BR-MS,Antônio João,no,,,SITF,MS0128,,,"SSHG, Hyran Garcete"
37493,SSHH,heliport,Helisul I Heliport,-25.608954,-54.493876,732.0,SA,BR,BR-PR,Foz do Iguaçu,no,,,SSHH,PR0134,,,
37496,SSHK,small_airport,Fazenda Jaguarandy Airport,-22.5897216796875,-55.56944274902344,1968.0,SA,BR,BR-MS,Ponta Porã,no,,,SSHK,,,,
37497,SSHL,small_airport,Fazenda Jussara Airport,-23.575000762939453,-52.40833282470703,1213.0,SA,BR,BR-PR,Jussara,no,,,SSHL,,,,
37498,SSHM,heliport,Hospital Moinho de Vento Heliport,-30.024444580078125,-51.21110916137695,253.0,SA,BR,BR-RS,Porto Alegre,no,,,SSHM,,,,
37499,SSHN,small_airport,Recanto das Águias Airport,-23.2450008392334,-51.87555694580078,1637.0,SA,BR,BR-PR,Iguaraçu,no,,,SSHN,,,,
342514,SSHO,heliport,Hospital Santa Rita Helipad,-7.126055,-34.946861,213.0,SA,BR,BR-PB,Santa Rita,no,,,SSHO,PB0019,,,
37501,SSHR,closed,Horus Heliport,-26.331964,-48.848045,43.0,SA,BR,BR-SC,Joinville,no,,,,,,,"SSHR, SC0091"
37502,SSHS,heliport,Helisul IV Heliport,-25.612929,-54.481528,689.0,SA,BR,BR-PR,Foz do Iguaçu,no,,,SSHS,PR0136,,,
46119,SSHT,small_airport,Ingazeira Airport,-10.1304620248,-56.7186355591,853.0,SA,BR,BR-MT,Alta Floresta,no,,,SSHT,,,,
37503,SSHU,small_airport,Fazenda Centenário Airport,-19.45805549621582,-56.0452766418457,426.0,SA,BR,BR-MS,Aquidauana,no,,,SSHU,,,,
342516,SSHV,small_airport,Fazenda Genipapo Airport,-17.724468,-44.61594,1923.0,SA,BR,BR-MG,Várzea da Palma,no,,,SSHV,MG0183,,,
462,SSHX,small_airport,Aeródromo de Fazenda Jatobá,-23.922994,-55.300022,1335.0,SA,BR,BR-MS,Paranhos,no,,,SSHX,MS0285,,,
463,SSHZ,small_airport,Walter Bündchen Airport,-27.6383,-54.3391,1063.0,SA,BR,BR-RS,Horizontina,no,SSHZ,HRZ,SSHZ,RS0037,,https://pt.wikipedia.org/wiki/Aeroporto_de_Horizontina,
342522,SSIA,small_airport,Fazenda Ipê Airport,-8.427943,-45.310246,1739.0,SA,BR,BR-PI,Baixa Grande do Ribeiro,no,,,SSIA,PI0037,,,
37506,SSIC,small_airport,APLIC Aviação Agrícola Ltda Airport,-22.306667,-54.824444,1405.0,SA,BR,BR-MS,Dourados,no,,,SSIC,MS0286,,,
37507,SSIE,small_airport,Teruel Ipanema Estância Airport,-20.604145,-54.59553,1732.0,SA,BR,BR-MS,Campo Grande,no,,,SSIE,MS0002,,,
465,SSIF,small_airport,Fazenda Baunilha Airport,-23.562109,-54.030358,958.0,SA,BR,BR-MS,Itaquiraí,no,,,SSIF,MS0287,,,
37509,SSIH,small_airport,Fazenda Fortaleza Airport,-20.946947,-52.721681,1296.0,SA,BR,BR-MS,Brasilândia,no,,,SNYF,MS0240,,,SSIH
466,SSIJ,small_airport,João Batista Bos Filho Airport,-28.368711,-53.846568,1197.0,SA,BR,BR-RS,Ijuí,no,SSIJ,IJU,SSIJ,RS0032,,https://en.wikipedia.org/wiki/Iju%C3%AD_Airport,
354167,SSIK,heliport,VIVO Heliport,-23.465628,-46.857891,2526.0,SA,BR,BR-SP,Santana de Parnaíba,no,,,SSIK,SP0751,,,
354166,SSIN,heliport,Sítio Costa dos Calhaus Heliport,-23.216775,-44.633209,361.0,SA,BR,BR-RJ,Paraty,no,,,SSIN,RJ0145,,,
37513,SSIP,small_airport,Fazenda Santa Otília Airport,-21.186742,-57.043427,833.0,SA,BR,BR-MS,Porto Murtinho,no,,,SI8B,MS0601,,,"SSIP, SWXR"
29983,SSIQ,small_airport,Itaqui Airport,-29.171981,-56.538343,230.0,SA,BR,BR-RS,Itaqui,no,SSIQ,ITQ,SSIQ,RS0045,,,
37514,SSIR,small_airport,Ibirubá Airport,-28.604168,-53.078888,1499.0,SA,BR,BR-RS,Ibirubá,no,,,SSIR,RS0049,,,
30264,SSIS,small_airport,Major José Ignácio Airport,-22.047778,-48.097222,1962.0,SA,BR,BR-SP,Ibaté,no,,,SSIS,,,,
45619,SSIT,heliport,Issaig I Heliport,-28.702032,-49.303132,89.0,SA,BR,BR-SC,Içara,no,,,SSIU,SC0093,,,SSIT
37515,SSIU,small_airport,Sítio Enel Airport,-30.137259,-52.365496,223.0,SA,BR,BR-RS,Pântano Grande,no,,,SDX6,RS0176,,,SSIU
37517,SSIW,small_airport,Fazenda Damaro Airport,-19.980153,-56.435725,344.0,SA,BR,BR-MS,Miranda,no,,,SDMF,MS0038,,,SSIW
37518,SSIX,small_airport,Fazenda Campo Verde Airport,-22.652796,-53.507444,843.0,SA,BR,BR-MS,Taquarussu,no,,,SDVT,MS0058,,,SSIX
45627,SSIZ,heliport,Condomínio Fazenda da Grama Heliport,-23.059167,-47.0625,2257.0,SA,BR,BR-SP,Itupeva,no,,,SSIZ,,http://www.fazendadagrama.com.br/localizacao_como_chegar.htm,,
467,SSJA,small_airport,Santa Terezinha Airport,-27.171514,-51.553327,2546.0,SA,BR,BR-SC,Joaçaba,no,SSJA,JCB,SSJA,SC0014,,https://en.wikipedia.org/wiki/Joa%C3%A7aba_Airport,
37519,SSJB,small_airport,Salenco Airport,-18.862268,-54.348861,1263.0,SA,BR,BR-MS,São Gabriel d`Oeste,no,,,SIW8,MS0738,https://aisweb.decea.mil.br/?i=aerodromos&codigo=SIW8&amdt=2002,,"SWDD, Fazenda São Luiz do Oeste, SSJB"
37520,SSJC,small_airport,Fazenda do Jacuí Airport,-29.983505,-51.301625,7.0,SA,BR,BR-RS,Guaíba,no,,,SSRJ,RS0099,,,SSJC
37521,SSJF,heliport,Polícia Federal Curitiba Heliport,-25.3762,-49.2277,3064.0,SA,BR,BR-PR,Curitiba,no,,,SSJF,,,,
37522,SSJG,small_airport,Fazenda Santa Ana Airport,-21.216388702392578,-57.68138885498047,351.0,SA,BR,BR-MS,Porto Murtinho,no,,,SSJG,,,,
37523,SSJH,small_airport,Fazenda Guarani Airport,-22.164289,-53.56893,988.0,SA,BR,BR-MS,Nova Andradina,no,,,SSYN,MS0353,,,SSJH
468,SSJI,small_airport,Jardim Airport,-21.493099,-56.152599,1053.0,SA,BR,BR-MS,Jardim,no,,,SSJI,SSJI,,https://pt.wikipedia.org/wiki/Aeroporto_de_Jardim,
37524,SSJJ,small_airport,Fazenda Tupi Airport,-21.805647,-53.128837,1377.0,SA,BR,BR-MS,Nova Andradina,no,,,SWBT,MS0365,,,SSJJ
29999,SSJK,small_airport,Júlio de Castilho Airport,-29.153099060058594,-53.74330139160156,1633.0,SA,BR,BR-RS,Júlio De Castilho,no,,,SSJK,,,,
37526,SSJM,small_airport,Fazenda Júlio Martins Airport,-18.842500686645508,-52.49944305419922,2621.0,SA,BR,BR-MS,Chapadão Do Sul,no,,,SSJM,,,,
505039,SSJN,heliport,Fazenda Santa Helena Heliport,-22.970268,-46.680259,2625.0,SA,BR,BR-SP,Bragança Paulista,no,,,SSJN,SP0754,,,
37527,SSJO,small_airport,Fazenda Angico Airport,-19.376388549804688,-57.45277786254883,511.0,SA,BR,BR-MS,Corumbá,no,,,SSJO,,,,
469,SSJP,small_airport,Fazenda Junqueira Airport,-22.895000457763672,-51.929168701171875,1427.0,SA,BR,BR-PR,Colorado,no,,,SSJP,SSJP,,,
45653,SSJQ,small_airport,Fazenda Floresta Airport,-12.806725,-51.873778,1266.0,SA,BR,BR-MT,Ribeirão Cascalheira,no,,,SSJQ,,,,
37529,SSJS,heliport,Malwee Heliport,-26.517934,-49.127257,141.0,SA,BR,BR-SC,Jaraguá do Sul,no,,,SNYM,SC0085,,,SSJS
37532,SSJV,small_airport,Fazenda Piratininga Airport,-17.938848,-56.480037,150.0,SA,BR,BR-MS,Corumbá,no,,,SSJV,MS0293,,,
37533,SSJW,small_airport,Fazenda Jauru Airport,-21.782499313354492,-53.8922233581543,1017.0,SA,BR,BR-MS,Rio Brilhante,no,,,SSJW,,,,
37534,SSJX,small_airport,São Bento Airport,-19.478055953979492,-57.01416778564453,150.0,SA,BR,BR-MS,Corumbá,no,,,SSJX,,,,
37535,SSJY,small_airport,São João Airport,-17.707500457763672,-56.217220306396484,150.0,SA,BR,BR-MS,Corumbá,no,,,SSJY,,,,
37536,SSJZ,small_airport,Fazenda Três Unidos Airport,-24.052209,-54.007129,1013.0,SA,BR,BR-PR,Terra Roxa,no,,,SS8K,PR0082,,,SSJZ
37537,SSKA,small_airport,Fazenda Campinas Airport,-18.905555725097656,-56.35972213745117,328.0,SA,BR,BR-MS,Corumbá,no,,,SSKA,,,,
37538,SSKB,small_airport,Fazenda Tupanciretan Airport,-19.474443435668945,-56.377220153808594,312.0,SA,BR,BR-MS,Aquidauana,no,,,SSKB,,,,
37539,SSKC,small_airport,Fazenda União Airport,-19.292785,-52.05937,1758.0,SA,BR,BR-MS,Inocência,no,,,SWUN,MS0397,,,SSKC
37541,SSKE,small_airport,Campo Primavera,-23.12116,-53.078492,1250.0,SA,BR,BR-PR,Santa Mônica,no,,,SINP,PR0049,,,"SSKE, Campo Evelina"
37542,SSKF,small_airport,Porto Bonito Airport,-23.344521,-53.872329,1180.0,SA,BR,BR-MS,Itaquiraí,no,,,SJPI,MS0179,,,SSKF
470,SSKG,small_airport,Estância Santa Maria Airport,-20.505300521850586,-54.5255012512207,2028.0,SA,BR,BR-MS,Campo Grande,no,,,SSKG,SSKG,,,
37543,SSKH,small_airport,Fazenda Karl Hermann Isenberg Airport,-22.911666870117188,-55.53889083862305,1853.0,SA,BR,BR-MS,Aral Moreira,no,,,SSKH,,,,
37544,SSKI,small_airport,Fazenda Santa Helena Airport,-23.340699,-50.585196,1673.0,SA,BR,BR-PR,Cornélio Procópio,no,,,SJEL,PR0056,,,SSKI
37546,SSKK,small_airport,Capão da Canoa Airport,-29.763611,-50.036945,33.0,SA,BR,BR-RS,Capão Da Canoa,no,,,SSKK,RS0052,,,
471,SSKM,small_airport,Campo Mourão Airport,-24.009199,-52.3568,1883.0,SA,BR,BR-PR,Campo Mourão,no,SSKM,CBW,SSKM,PR0017,,https://en.wikipedia.org/wiki/Campo_Mour%C3%A3o_Airport,Geraldo Guias de Aquino
37549,SSKP,small_airport,Copacel Airport,-24.308889389038086,-53.842220306396484,1050.0,SA,BR,BR-PR,Palotina,no,,,SSKP,,,,
45571,SSKQ,small_airport,Fazenda Santa Rosa Airport,-14.541111,-50.461944,1001.0,SA,BR,BR-GO,Nova Crixás,no,,,SSKQ,,,,
45654,SSKR,small_airport,Fazenda Primavera Airport,-17.17,-50.82,2306.0,SA,BR,BR-GO,Paraúna,no,,,SSKR,,,,
473,SSKS,small_airport,Cachoeira do Sul Airport,-30.00189971923828,-52.940799713134766,253.0,SA,BR,BR-RS,Cachoeira Do Sul,no,,QDB,SSKS,SSKS,,,
37550,SSKT,small_airport,Aeroclube de Santa Catarina Airport,-27.611668,-48.672779,20.0,SA,BR,BR-SC,São José,no,,,SSKT,,,https://pt.wikipedia.org/wiki/Aeroclube_de_Santa_Catarina,
29813,SSKU,small_airport,Curitibanos Airport,-27.286827,-50.604832,3209.0,SA,BR,BR-SC,Curitibanos,no,,,SSKU,SC0016,,https://pt.wikipedia.org/wiki/Aeroporto_de_Curitibanos,QCR
45617,SSKW,small_airport,Cacoal Airport,-11.496,-61.4508,778.0,SA,BR,BR-RO,Cacoal,yes,SSKW,OAL,SSKW,RO0004,,https://en.wikipedia.org/wiki/Cacoal_Airport,
46115,SSKX,small_airport,Fazenda São Luíz do Matão Airport,-19.869993,-50.652886,1168.0,SA,BR,BR-MG,Carneirinho,no,,,SNLD,MG0154,,,SSKX
46114,SSKY,small_airport,Fazenda Querência Airport,-14.4736111111,-58.3552777778,2362.0,SA,BR,BR-MT,Tangará Da Serra,no,,,SSKY,SSKY,,,
474,SSKZ,small_airport,Carazinho Airport,-28.3225002289,-52.8162002563,1854.0,SA,BR,BR-RS,Carazinho,no,,,SSKZ,QRE,,,
37552,SSLB,small_airport,Fazenda São Paulino Airport,-19.025278091430664,-55.926109313964844,394.0,SA,BR,BR-MS,Corumbá,no,,,SSLB,,,,
37554,SSLD,small_airport,Fazenda Lourdes Airport,-18.643888473510742,-56.75944519042969,328.0,SA,BR,BR-MS,Corumbá,no,,,SSLD,,,,
327783,SSLE,heliport,Eldorado Brasil Heliport,-20.595277,-51.613889,1037.0,SA,BR,BR-MS,Três Lagoas,no,,,SSLE,,,,
37556,SSLG,small_airport,São Luís Gonzaga Airport,-28.376388549804688,-55.037498474121094,656.0,SA,BR,BR-RS,São Luís Gonzaga,no,,,SSLG,,,,
327788,SSLH,heliport,Helipalm Heliport,-23.651964,-46.314775,2493.0,SA,BR,BR-SP,Suzano,no,,,SSLH,,,,
37558,SSLL,small_airport,Fazenda Itaguassu Airport,-22.249873,-55.926764,1788.0,SA,BR,BR-MS,Antônio João,no,,,SJTC,MS0432,,,SSLL
335045,SSLM,small_airport,Estância Acrobata Airport,-16.548655,-48.941534,3510.0,SA,BR,BR-GO,Leopoldo de Bulhões,no,,,SSLM,GO0202,,,
475,SSLN,small_airport,Helmuth Baungarten Airport,-27.159999847399998,-49.5424995422,1095.0,SA,BR,BR-SC,Lontras,no,SSLN,LOI,SSLN,SSLN,,http://pt.wikipedia.org/wiki/Aeroporto_de_Lontras,Baungartem
476,SSLO,small_airport,Loanda Airport,-22.917101,-53.148998,1542.0,SA,BR,BR-PR,Loanda,no,,,SSLO,SSLO,,https://pt.wikipedia.org/wiki/Aeroporto_de_Loanda,
37559,SSLP,small_airport,Fazenda Lucero Porã Airport,-21.91083335876465,-57.64666748046875,299.0,SA,BR,BR-MS,Porto Murtinho,no,,,SSLP,,,,
37560,SSLQ,small_airport,Fazenda Campanário Airport,-22.783302,-55.072604,1362.0,SA,BR,BR-MS,Laguna Carapã,no,,,SDTD,MS0054,,,SSLQ
37561,SSLR,small_airport,Ocorema Airport,-19.104999542236328,-57.59333419799805,413.0,SA,BR,BR-MS,Ladário,no,,,SSLR,,,,
477,SSLT,small_airport,Alegrete Novo Airport,-29.811595,-55.894707,410.0,SA,BR,BR-RS,Alegrete,no,SSLT,ALQ,SSLT,RS0022,,https://en.wikipedia.org/wiki/Alegrete_Airport,
37563,SSLU,small_airport,Fazenda Aurora Airport,-21.523332,-56.611667,754.0,SA,BR,BR-MS,Jardim,no,,,SSXU,SSXU,,,SSLU
37565,SSLX,small_airport,Fazenda Brasília do Sul Airport,-22.701258,-54.608345,1296.0,SA,BR,BR-MS,Juti,no,,,SSVD,MS0339,,,SSLX
45642,SSLY,heliport,Norte Sul Heliport,-22.901944,-47.046944,2356.0,SA,BR,BR-SP,Campinas,no,,,SSLY,,,,
335047,SSMB,small_airport,Fazenda Oriente Airport,-22.282949,-43.628157,1877.0,SA,BR,BR-RJ,Valença,no,,,SSMB,RJ0187,,,
37568,SSMC,small_airport,Fazenda São Miguel da Catequese Airport,-22.087778091430664,-53.52000045776367,1209.0,SA,BR,BR-MS,Nova Andradina,no,,,SSMC,,,,
37569,SSME,small_airport,Fazenda Ipiranga Airport,-20.976584,-55.565663,899.0,SA,BR,BR-MS,Anastácio,no,,,SS4V,MS0306,,,SSME
45644,SSMG,heliport,Uno Heliport,-23.956667,-46.331389,226.0,SA,BR,BR-SP,Santos,no,,,SSMG,,,,
37570,SSMH,small_airport,Fazenda Santa Maria Airport,-31.929443359375,-52.4636116027832,66.0,SA,BR,BR-RS,Capão Do Leão,no,,,SSMH,,,,
37572,SSMJ,small_airport,Maracaju Airport,-21.633888,-55.144906,1280.0,SA,BR,BR-MS,Maracaju,no,,,SSMJ,MS0020,,https://pt.wikipedia.org/wiki/Aeroporto_de_Maracaju,
37573,SSMK,small_airport,El Dorado Airport,-30.073333740234375,-51.40972137451172,20.0,SA,BR,BR-RS,Eldorado Do Sul,no,,,SSMK,,,,
331515,SSMM,heliport,MACAÉ Heliport,-6.103733,-40.284467,1247.0,SA,BR,BR-CE,Tauá,no,,,SSMM,CE0060,,,
337144,SSMO,small_airport,Fazenda Luma Airport,-19.344942,-52.730275,1821.0,SA,BR,BR-MS,Paraíso das Águas,no,,,SSMO,MS0511,,,
37575,SSMP,small_airport,Fazenda Três Minas Airport,-23.673252,-52.01039,1368.0,SA,BR,BR-PR,Itambé,no,,,SJ4K,PR0085,,,SSMP
45626,SSMQ,heliport,Chácara Monte Alegre Heliport,-22.69,-46.680556,2454.0,SA,BR,BR-SP,Monte Alegre Do Sul,no,,,SSMQ,,,,
479,SSMR,small_airport,Manoel Ribas Airport,-24.5296,-51.651714,2822.0,SA,BR,BR-PR,Manoel Ribas,no,,,SSMR,PR0026,,https://pt.wikipedia.org/wiki/Aeroporto_de_Manoel_Ribas#Ver_tamb%C3%A9m,SBMR
480,SSMT,small_airport,Mostardas Airport,-31.103599548339844,-50.910301208496094,59.0,SA,BR,BR-RS,Mostardas,no,,,SSMT,SSMT,,,
37576,SSMU,heliport,Magnum Heliport,-29.946943283081055,-51.10527801513672,66.0,SA,BR,BR-RS,Cachoeirinha,no,,,SSMU,,,,
45633,SSMV,small_airport,Fazenda Boa Vista Airport,-22.0425,-47.56,2434.0,SA,BR,BR-SP,Pirassununga,no,,,SSMV,,,,
37577,SSMW,small_airport,ICA (Ilha Clube Aerodesportivo) / Ultraleves Airport,-24.315277,-47.013889,49.0,SA,BR,BR-SP,Peruibe,no,,,SSMW,,,https://pt.wikipedia.org/wiki/Aer%C3%B3dromo_Ilha_Clube_Aerodesportivo,
45577,SSMX,small_airport,Fazenda Planalto Airport,-21.142698,-46.483921,3937.0,SA,BR,BR-MG,Nova Resende,no,,,SSMX,MG0185,,,
481,SSMY,small_airport,São Miguel do Iguaçu Airport,-25.398889,-54.234722,951.0,SA,BR,BR-PR,São Miguel do Iguaçu,no,,,SSMY,SSMY,,,
30333,SSMZ,small_airport,Fazenda São Mateus Airport,-13.917222,-59.983333,1070.0,SA,BR,BR-MT,Comodoro,no,,,SSMZ,,,,
37578,SSNA,small_airport,Estância Miranda Airport,-19.896503,-56.427346,436.0,SA,BR,BR-MS,Miranda,no,,,SSNA,MS0307,,,
482,SSNB,small_airport,Naviraí Airport,-23.0348,-54.180199,1332.0,SA,BR,BR-MS,Naviraí,no,,,SSNB,SSNB,,https://pt.wikipedia.org/wiki/Aeroporto_Ariosto_da_Riva,
45657,SSND,small_airport,Santa Maria Airport,-11.16,-52.82,1119.0,SA,BR,BR-MT,São Félix Do Araguaia,no,,,SSND,,,,
37580,SSNF,small_airport,Fazenda Naisa Airport,-20.329721450805664,-48.810001373291016,1739.0,SA,BR,BR-SP,Colômbia,no,,,SSNF,,,,
30158,SSNG,small_airport,Montenegro Airport,-29.71940040588379,-51.48939895629883,125.0,SA,BR,BR-RS,Montenegro,no,,QGF,SSNG,,,,
30195,SSNH,small_airport,Novo Hamburgo Airport,-29.69610023498535,-51.08169937133789,66.0,SA,BR,BR-RS,Novo Hamburgo,no,,QHV,SSNH,,,,
37581,SSNI,small_airport,Fazenda Novo Rumo Airport,-22.98527717590332,-53.87694549560547,1247.0,SA,BR,BR-MS,Naviraí,no,,,SSNI,,,,
30381,SSNJ,small_airport,Fazenda Primavera Airport,-19.5075,-55.90528,341.0,SA,BR,BR-MS,Aquidauana,no,,,SSNJ,,,,
37582,SSNK,small_airport,Sementes Petrovina Airport,-16.848464,-54.064558,2362.0,SA,BR,BR-MT,Pedra Preta,no,,,SWAP,MT0326,,,SSNK
37583,SSNM,small_airport,Guarantã Airport,-9.962281,-54.884974,968.0,SA,BR,BR-MT,Guarantã do Norte,no,,,SDN7,MT0754,,,SSNM
30198,SSNP,small_airport,Nova Prata Airport,-28.802499771118164,-51.60419845581055,2264.0,SA,BR,BR-RS,Nova Prata,no,,,SSNP,,,,
37585,SSNQ,small_airport,Nioaque Airport,-21.184723,-55.830276,984.0,SA,BR,BR-MS,Nioaque,no,,,SSNQ,,,https://pt.wikipedia.org/wiki/Aeroporto_de_Nioaque,
37586,SSNR,small_airport,Fazenda Novo Horizonte Airport,-18.31861114501953,-54.93555450439453,754.0,SA,BR,BR-MS,Coxim,no,,,SSNR,,,,
335548,SSNS,small_airport,Fazenda Pajuçara Airport,-13.183082,-45.104738,2372.0,SA,BR,BR-BA,Correntina,no,,,SSNS,BA0269,,,
37588,SSNU,small_airport,Santa Isabel Airport,-22.240833282470703,-48.025001525878906,2582.0,SA,BR,BR-SP,Brotas,no,,,SSNU,,,,
37589,SSNV,small_airport,Fazenda Novo Hamburgo Airport,-19.233055114746094,-57.029720306396484,285.0,SA,BR,BR-MS,Corumbá,no,,,SSNV,,,,
483,SSNW,small_airport,Aeródromo Fazenda Milano,-12.302778,-45.513889,2264.0,SA,BR,BR-BA,Barreiras,no,,,SI4N,BA0389,,,"SSNW, Fazenda Buriti"
37590,SSNX,heliport,Fazenda da Toca Heliport,-22.213333129882812,-47.73666763305664,2572.0,SA,BR,BR-SP,Itirapina,no,,,SSNX,,,,
45593,SSNY,small_airport,Fazenda Florida Airport,-17.183611,-58.216667,541.0,SA,BR,BR-MT,Cáceres,no,,,SSNY,,,,
37591,SSOA,heliport,Blue Tree Tower Faria Lima Heliport,-23.591218,-46.680752,2680.0,SA,BR,BR-SP,São Paulo,no,,,SSOA,,,,
37593,SSOD,small_airport,Fazenda Pouso Alegre Airport,-20.247777938842773,-56.415279388427734,374.0,SA,BR,BR-MS,Miranda,no,,,SSOD,,,,
484,SSOE,small_airport,São Miguel do Oeste Hélio Wasum Airport,-26.781601,-53.503502,2180.0,SA,BR,BR-SC,São Miguel do Oeste,no,SSOE,SQX,SSOE,SSOE,,https://en.wikipedia.org/wiki/S%C3%A3o_Miguel_do_Oeste_Airport,
485,SSOG,small_airport,Arapongas Airport,-23.352636,-51.491967,2599.0,SA,BR,BR-PR,Arapongas,no,SSOG,APX,SSOG,PR0027,,https://en.wikipedia.org/wiki/Arapongas_Airport,
37596,SSOI,small_airport,Pederneiras Airport,-22.307222366333008,-48.771942138671875,1788.0,SA,BR,BR-SP,Pederneiras,no,,,SSOI,,,,
45583,SSOJ,small_airport,Fazenda Estrela Airport,-19.979167,-51.735,1509.0,SA,BR,BR-MS,Inocência,no,,,SSOJ,,,,
37597,SSOK,small_airport,14 Bis Airport,-23.21456,-51.1836,1932.0,SA,BR,BR-PR,Londrina,no,,,SSOK,,,https://pt.wikipedia.org/wiki/Aer%C3%B3dromo_de_Londrina,
486,SSOL,small_airport,Padre Israel Airport,-21.240601,-44.963902,3146.0,SA,BR,BR-MG,Lavras,no,,VRZ,SSOL,MG0027,https://www.voelavras.com.br/,,"Israel Batista de Carvalho, Lavras Regional"
37599,SSON,small_airport,Fazenda Joalice Airport,-23.787778854370117,-55.02916717529297,1476.0,SA,BR,BR-MS,Tacuru,no,,,SSON,,,,
37602,SSOQ,small_airport,Fazenda Barranco Alto Airport,-19.577777862548828,-56.1522216796875,502.0,SA,BR,BR-MS,Aquidauana,no,,,SSOQ,,,,
37603,SSOR,small_airport,Chico Ledur Airport,-29.817701,-55.714634,381.0,SA,BR,BR-RS,Alegrete,no,,,SSHD,RS0096,,,SSOR
37604,SSOS,small_airport,Osório Airport,-29.902286,-50.249191,56.0,SA,BR,BR-RS,Osório,no,,,SSOS,RS0042,,,
37605,SSOT,small_airport,Fazenda Saco da Tapera Airport,-16.34694480895996,-45.34916687011719,1946.0,SA,BR,BR-MG,São Romão,no,,,SSOT,,,,
30627,SSOU,small_airport,Aripuanã Airport,-10.187375,-59.457469,755.0,SA,BR,BR-MT,Aripuanã,no,SSOU,AIR,SSOU,MT0303,,https://en.wikipedia.org/wiki/Aripuan%C3%A3_Airport,SWRP
46213,SSOY,small_airport,FazendaMorada do Sol Airport,-12.290556,-57.019444,971.0,SA,BR,BR-MT,Nova Maringá,no,,,SSOY,SSOY,,,
45580,SSOZ,heliport,Mina Brucutu Heliport,-19.86961,-43.395261,2959.0,SA,BR,BR-MG,São Gonçalo Do Rio Abaixo,no,,,SWYB,MG0289,,,SSOZ
334927,SSPA,small_airport,Fazenda Marajoara Airport,-11.963583,-49.038368,873.0,SA,BR,BR-TO,Cariri do Tocantins,no,,,SSPA,TO0057,,,
337145,SSPB,small_airport,Fazenda São José do Pontal Airport,-20.651944,-53.598889,1155.0,SA,BR,BR-MS,Ribas do Rio Pardo,no,SSPB,,SSPB,MS0519,,,
45597,SSPC,small_airport,Fazenda Santa Júlia Airport,-13.731667,-51.34,866.0,SA,BR,BR-MT,Cocalinho,no,,,SSPC,,,,
46232,SSPD,small_airport,Fazenda Paraguá Airport,-14.766667,-60.033333,922.0,SA,BR,BR-MT,Comodoro,no,,,SSPD,SSPD,,,
45590,SSPE,small_airport,Essência Retiro do Rio Cuiabá Airport,-14.435556,-55.609444,837.0,SA,BR,BR-MT,Nobres,no,,,SSPE,,,,
489,SSPG,small_airport,Paranaguá Airport,-25.5401,-48.5312,16.0,SA,BR,BR-PR,Paranaguá,no,SSPG,PNG,SSPG,SSPG,,https://en.wikipedia.org/wiki/Paranagu%C3%A1_Airport,
337146,SSPH,small_airport,Fazenda Santa Lucia Airport,-12.928641,-56.097017,1352.0,SA,BR,BR-MT,Lucas do Rio Verde,no,,,SSPH,MT0636,,,
490,SSPI,small_airport,Paranavaí Airport,-23.089899,-52.488499,1526.0,SA,BR,BR-PR,Paranavaí,no,SSPI,PVI,SSPI,SSPI,,https://en.wikipedia.org/wiki/Paranava%C3%AD_Airport,
492,SSPL,small_airport,Palmeira das Missões Airport,-27.9018001556,-53.32970047,2083.0,SA,BR,BR-RS,Palmeira Da Missões,no,,,SSPL,SSPL,,,
493,SSPM,small_airport,Porto Murtinho Airport,-21.7096,-57.880199,260.0,SA,BR,BR-MS,Porto Murtinho,no,SSPM,,SSPM,SSPM,,https://pt.wikipedia.org/wiki/Aeroporto_de_Porto_Murtinho,
494,SSPN,small_airport,Paranaíba Airport,-19.651199,-51.199402,1446.0,SA,BR,BR-MS,Paranaíba,no,SSPN,PBB,SSPN,MS0010,,,
37610,SSPO,small_airport,Aplicação Aviação Agrícola II Airport,-22.009166717499998,-54.789722442599995,1165.0,SA,BR,BR-MS,Itaporã,no,,,SSPO,,,,
44568,SSPQ,small_airport,Santa Rosa do Purus Airport,-9.446646,-70.483364,751.0,SA,BR,BR-AC,Santa Rosa do Purus,no,,,SSRA,AC0011,,,SSPQ
45563,SSPR,small_airport,Porto Walter Airport,-8.276196,-72.7458,651.0,SA,BR,BR-AC,Porto Walter,no,,,SDL4,AC0008,,,"SIRW, SSPR, SWPV"
495,SSPS,small_airport,Palmas Airport,-26.472000122070312,-51.97589874267578,3609.0,SA,BR,BR-PR,Palmas,no,,,SSPS,SSPS,,,
496,SSPT,small_airport,Palotina Airport,-24.3433,-53.828701,1220.0,SA,BR,BR-PR,Palotina,no,,,SSPT,SSPT,,https://pt.wikipedia.org/wiki/Aeroporto_de_Palotina,
45562,SSPV,small_airport,Marechal Thaumaturgo Airport,-8.959443,-72.779721,751.0,SA,BR,BR-AC,Marechal Thaumaturgo,no,,,SDP8,AC0010,,,"SSMH, SSPV"
506026,SSPW,small_airport,Fazenda São Paulo Airport,-18.100558,-53.153537,2867.0,SA,BR,BR-MS,Costa Rica,no,,,SSPW,MS0322,,,
45561,SSPX,small_airport,Manoel Urbano Airport,-8.8501,-69.260038,531.0,SA,BR,BR-AC,Manoel Urbano,no,,,SIMB,AC0007,,https://pt.wikipedia.org/wiki/Aeroporto_de_Manoel_Urbano,SSPX
37612,SSPY,small_airport,Porto Índio Airport,-17.672559,-57.748711,390.0,SA,BR,BR-MS,Corumbá,no,,,SSPY,MS9001,https://www.marinha.mil.br/com6dn/taxonomy/term/254,,
37614,SSQA,small_airport,Fazenda Guaporé Airport,-13.723055839538574,-60.315277099609375,830.0,SA,BR,BR-MT,Comodoro,no,,,SSQA,,,,
45560,SSQB,small_airport,Jordão Airport,-9.189444,-71.946944,873.0,SA,BR,BR-AC,Jordão,no,,,SJOD,AC0009,,,SSQB
497,SSQC,small_airport,Siqueira Campos Airport,-23.67462,-49.815582,2313.0,SA,BR,BR-PR,Siqueira Campos,no,,,SSQC,PR0029,,,
37615,SSQD,heliport,Ilha do Cavaco Heliport,-23.013773,-44.267371,7.0,SA,BR,BR-RJ,Angra Dos Reis,no,,,SIVA,RJ0092,,,SSQD
37616,SSQE,heliport,TV Mundial I Heliport,-23.568056106567383,-46.70833206176758,2405.0,SA,BR,BR-SP,São Paulo,no,,,SSQE,,,,
498,SSQF,small_airport,Fazenda Floresta Negra Airport,-23.815239,-54.698456,1263.0,SA,BR,BR-MS,Sete Quedas,no,,,SWVY,MS0399,,,SSQF
37618,SSQH,heliport,Hospital Mater Dei Heliport,-19.927221298217773,-43.948890686035156,3054.0,SA,BR,BR-MG,Belo Horizonte,no,,,SSQH,,,,
46110,SSQI,small_airport,Santa Anastácia Airport,-12.509166666699999,-55.684722222199994,1250.0,SA,BR,BR-MT,Sorriso,no,,,SSQI,SSQI,,,
37619,SSQJ,heliport,Company Helipad,-23.572749,-46.703256,2536.0,SA,BR,BR-SP,São Paulo,no,,,SI74,SP1280,,,SSQJ
37623,SSQP,small_airport,Monte Santo Airport,-10.464823,-39.286476,1453.0,SA,BR,BR-BA,Monte Santo,no,,,SSQP,BA0061,,,
45585,SSQR,small_airport,Fazenda Primavera Airport,-21.385867,-53.597493,1184.0,SA,BR,BR-MS,Ribas do Rio Pardo,no,,,SSQR,MS0324,,,
355778,SSQS,small_airport,Fazenda Brasil Airport,-15.032426,-52.310209,1001.0,SA,BR,BR-MT,Barra do Garças,no,,,SSQS,MT0312,,,
29761,SSQT,small_airport,Castro Airport,-24.807723,-49.959651,3314.0,SA,BR,BR-PR,Castro,no,,,SSQT,PR0013,,,"QAC, Major Neodo S. Pereira"
37625,SSQU,small_airport,Fazenda Alegrete - Retiro Carabda Airport,-20.064722061157227,-55.70166778564453,410.0,SA,BR,BR-MS,Aquidauana,no,,,SSQU,,,,
37626,SSQV,heliport,UNICID - Universidade Cidade de São Paulo Heliport,-23.53583335876465,-46.559165954589844,2529.0,SA,BR,BR-SP,São Paulo,no,,,SSQV,,,,
37627,SSQW,heliport,Royal Palm Plaza Heliport,-22.935556411743164,-47.0716667175293,2457.0,SA,BR,BR-SP,Campinas,no,,,SSQW,,,,
37628,SSQX,heliport,Frei Caneca Shopping Heliport,-23.553611755371094,-46.65250015258789,2713.0,SA,BR,BR-SP,São Paulo,no,,,SSQX,,,,
37629,SSQY,heliport,Centro Empresarial de São Paulo Heliport,-23.648889541625977,-46.72944259643555,2503.0,SA,BR,BR-SP,São Paulo,no,,,SSQY,,,,
499,SSQZ,small_airport,Mimoso do Oeste Airport,-12.106389,-45.895,2543.0,SA,BR,BR-BA,Luíz Eduardo Magalhães,no,,,SSQZ,BA0033,,,
37631,SSRB,small_airport,Rio Brilhante Airport,-21.847778,-54.527779,1024.0,SA,BR,BR-MS,Rio Brilhante,no,,,SSRB,,,https://pt.wikipedia.org/wiki/Aeroporto_de_Rio_Brilhante,
37632,SSRC,small_airport,Fazenda Santa Inês Airport,-21.70305633544922,-54.36833190917969,1084.0,SA,BR,BR-MS,Rio Brilhante,no,,,SSRC,,,,
500,SSRE,small_airport,Realeza Airport,-25.80120086669922,-53.512699127197266,1693.0,SA,BR,BR-PR,Realeza,no,,,SSRE,SSRE,,,
501,SSRF,small_airport,Castro Alves Airport,-12.765700340270996,-39.44670104980469,869.0,SA,BR,BR-BA,Castro Alves,no,,,SSRF,SSRF,,,
37635,SSRH,small_airport,Fazenda Marimbondo Airport,-20.778055,-55.982938,577.0,SA,BR,BR-MS,Anastácio,no,,,SJF9,MS0709,,,SSRH
37637,SSRJ,small_airport,Fazenda Jequitibá Airport,-21.878395,-53.815477,1181.0,SA,BR,BR-MS,Nova Alvorada do Sul,no,,,SJQB,MS0180,,,SSRJ
502,SSRK,small_airport,Campo Alegre de Lourdes Airport,-9.51391,-42.995098,1519.0,SA,BR,BR-BA,Campo Alegre De Lourdes,no,,,SSRK,SSRK,,https://pt.wikipedia.org/wiki/Aeroporto_de_Campo_Alegre_de_Lourdes,
37639,SSRM,small_airport,Fazenda São Sebastião Airport,-21.019444,-56.276112,791.0,SA,BR,BR-MS,Bonito,no,,,SD2R,MS0535,,,"SNWB, SSRM"
37640,SSRN,small_airport,Aeroclube de Rio Negrinho Airport,-26.321385,-49.521372,3025.0,SA,BR,BR-SC,Rio Negrinho,no,,,SILN,SC0028,,,SSRN
37644,SSRS,small_airport,Rancho Sumidor Airport,-27.19232,-49.832029,1476.0,SA,BR,BR-SC,Pouso Redondo,no,,,SNZB,SC0036,,,SSRS
30393,SSRU,small_airport,São Lourenço do Sul Airport,-31.38330078125,-52.032798767089844,28.0,SA,BR,BR-RS,São Lourenço Do Sul,no,SSRU,SQY,SSRU,,,,
506217,SSRV,heliport,Riviera Helipad,-26.952773,-48.639763,2756.0,SA,BR,BR-SC,Itajaí,no,,,SSRV,SC0096,,,
506223,SSRW,small_airport,Fazenda J Campos Airport,-23.203627,-48.102146,1781.0,SA,BR,BR-SP,Porangaba,no,,,SSRW,SP0257,,,
37648,SSRZ,small_airport,Dário Brasil Capoano de Oliveira Airport,-30.277493,-54.923916,335.0,SA,BR,BR-RS,Rosário do Sul,no,,,SSRZ,RS0024,,,
314920,SSS,small_airport,Siassi Airport,-5.5965,147.8106,1250.0,OC,PG,PG-MPL,Siassi,no,,SSS,,SSI,,,"Sema, Semo"
37649,SSSA,small_airport,Fazenda Sant`Anna do Apa Airport,-21.996186,-56.240001,1047.0,SA,BR,BR-MS,Bela Vista,no,,,SSSA,MS0329,,,
503,SSSB,small_airport,São Borja Airport,-28.6549,-56.034599,262.0,SA,BR,BR-RS,São Borja,no,,JBS,SSSB,RS0014,,https://en.wikipedia.org/wiki/S%C3%A3o_Borja_Airport,"João Manoel, QOJ"
504,SSSC,small_airport,Santa Cruz do Sul Airport,-29.684099,-52.412201,653.0,SA,BR,BR-RS,Santa Cruz do Sul,no,SSSC,CSU,SSSC,RS0029,,https://en.wikipedia.org/wiki/Santa_Cruz_do_Sul_Airport,
30426,SSSD,small_airport,Soledade Airport,-28.863762,-52.540569,2208.0,SA,BR,BR-RS,Soledade,no,,,SSSD,RS0017,,,
37650,SSSE,heliport,Jihad Dehaini Heliport,-25.57666778564453,-49.393611907958984,2972.0,SA,BR,BR-PR,Araucária,no,,,SSSE,,,,
30391,SSSG,small_airport,São Gabriel Airport,-30.344999313354492,-54.267799377441406,472.0,SA,BR,BR-RS,São Gabriel,no,,,SSSG,,,,
37651,SSSH,small_airport,Fazenda Santo Inácio Airport,-19.199167251586914,-57.011112213134766,275.0,SA,BR,BR-MS,Corumbá,no,,,SSSH,,,,
335050,SSSI,small_airport,Fazenda Manto Verde Airport,-7.868144,-45.01548,1450.0,SA,BR,BR-PI,Baixa Grande do Ribeiro,no,,,SSSI,PI0054,,,
506226,SSSJ,heliport,HSM Helipad,-1.4378,-48.468673,174.0,SA,BR,BR-PA,Belém,no,,,SSSJ,PA0158,,,
525290,SSSK,small_airport,FC Airport,-4.507177,-43.922377,236.0,SA,BR,BR-MA,Codó,no,,,SSSK,MA0047,,,
44716,SSSN,heliport,do Açu Heliport,-21.7992000579834,-41.01890182495117,13.0,SA,BR,BR-RJ,São João Da Barra,no,,,SSSN,,,,
37652,SSSO,small_airport,Fazenda São José I Airport,-21.412791,-52.032259,971.0,SA,BR,BR-MS,Brasilândia,no,,,SDM4,MS0586,,,"SSSO, Fazenda Santa Odila"
37653,SSSP,small_airport,Fazenda Santa Delfina Airport,-20.0402774810791,-56.310001373291016,328.0,SA,BR,BR-MS,Miranda,no,,,SSSP,,,,
37654,SSSR,small_airport,Fazenda Santa Rosa Airport,-20.316389083862305,-52.733333587646484,1476.0,SA,BR,BR-MS,Água Clara,no,,,SSSR,,,,
37655,SSSS,small_airport,São Francisco do Sul Airport,-26.219866,-48.567381,49.0,SA,BR,BR-SC,São Francisco do Sul,no,,,SSSS,SC0022,,https://pt.wikipedia.org/wiki/Aeroporto_de_S%C3%A3o_Francisco_do_Sul,
37656,SSST,small_airport,Santiago Airport,-29.215,-54.84222,1460.0,SA,BR,BR-RS,Santiago,no,,,SSST,,,https://en.wikipedia.org/wiki/Santiago_Airport_(Brazil),
335501,SSSV,small_airport,Fazenda Palmitos Airport,-13.820338,-54.755788,1824.0,SA,BR,BR-MT,Nova Ubiratã,no,,,SSSV,MT0510,,,
37657,SSSW,small_airport,Fazenda Santa Maria Airport,-19.722091,-51.950343,1460.0,SA,BR,BR-MS,Inocência,no,,,SWXL,MS0401,,,SSSW
37659,SSSY,small_airport,Fazenda Silvana Airport,-22.516666412353516,-53.51166534423828,781.0,SA,BR,BR-MS,Nova Andradina,no,,,SSSY,,,,
30409,SSSZ,small_airport,Sertanópolis Municipal Airport,-23.062201,-51.013901,1181.0,SA,BR,BR-PR,Sertanópolis,no,,,SSSZ,,,,
37660,SSTA,small_airport,Santa Maria Airport,-30.245832443237305,-54.80083465576172,709.0,SA,BR,BR-RS,São Gabriel,no,,,SSTA,,,,
506,SSTB,small_airport,Três Barras Airport,-26.135799,-50.310902,2559.0,SA,BR,BR-SC,Três Barras,no,,,SSTB,SSTB,,https://pt.wikipedia.org/wiki/Aeroporto_de_Tr%C3%AAs_Barras,
37661,SSTC,heliport,Copesul Heliport,-29.882778167699996,-51.381111145,92.0,SA,BR,BR-RS,Triunfo,no,,,SSTC,,,,
37662,SSTD,small_airport,Fazenda Arco de Canto Airport,-28.550832748413086,-51.59611129760742,2311.0,SA,BR,BR-RS,André Da Rocha,no,,,SSTD,,,,
37663,SSTF,small_airport,Fazenda Triunfo Airport,-17.874997,-57.131681,325.0,SA,BR,BR-MS,Corumbá,no,,,SNU4,MS0772,,,SSTF
37664,SSTG,small_airport,Fazenda Santa Terezinha Airport,-18.469444274902344,-57.05500030517578,525.0,SA,BR,BR-MS,Corumbá,no,,,SSTG,,,,
507,SSTH,small_airport,Fazenda Thália Airport,-25.520223,-49.682472,3346.0,SA,BR,BR-PR,Balsa Nova,no,,,SDUE,PR0040,,,SSTH
45603,SSTI,small_airport,Arraial d`Ajuda Airport,-16.457778,-39.165833,279.0,SA,BR,BR-BA,Porto Seguro,no,,,SSTI,,,,
37665,SSTJ,small_airport,Walter Ewaldo Siegel Airport,-27.3491668701,-49.818611145,1322.0,SA,BR,BR-SC,Trombudo Central,no,,,SSTJ,,,,
37666,SSTK,small_airport,Fazenda União de Iguatemi Airport,-23.682777404785156,-54.53972244262695,794.0,SA,BR,BR-MS,Iguatemi,no,,,SSTK,,,,
45569,SSTP,small_airport,Fazenda Baessa Airport,-17.970833,-50.320556,1591.0,SA,BR,BR-GO,Turvelândia,no,,,SSTP,,,,
45565,SSTQ,small_airport,Silvestre Airport,0.886389,-51.879444,459.0,SA,BR,BR-AP,Pedra Branca Do Amapari,no,,,SSTQ,,,,
335052,SSTR,small_airport,Usina CEM Airport,-17.93653,-49.24176,2805.0,SA,BR,BR-GO,Morrinhos,no,,,SSTR,GO0193,,,
37668,SSTS,small_airport,Fazenda Bandeirantes Airport,-22.610683,-53.444055,813.0,SA,BR,BR-MS,Taquarussu,no,,,SWDR,MS0369,,,SSTS
45604,SSTT,heliport,Lemon Hotel Heliport,-8.074722,-34.905278,13.0,SA,BR,BR-PE,Recife,no,,,SSTT,,,,
37669,SSTU,small_airport,Fazenda Jauru Airport,-18.729999542236328,-54.10499954223633,1250.0,SA,BR,BR-MS,Camapuã,no,,,SSTU,,,,
337259,SSTV,small_airport,Fazenda Diamantino Airport,-12.120698,-55.40103,1227.0,SA,BR,BR-MT,Sinop,no,,,SSTV,MT0584,,,
343535,SSTW,small_airport,Quissamã Airstrip,-22.059444,-41.481111,52.0,SA,BR,BR-RJ,Quissamã,no,,,SSTW,RJ0191,,,
37670,SSTY,small_airport,Usina Foz do Chopim Airport,-25.556813,-53.166547,1640.0,SA,BR,BR-PR,Cruzeiro do Iguaçu,no,,,,,,,SSTY
37672,SSUA,small_airport,Fazenda Sonora Estância Airport,-17.63111114501953,-54.77000045776367,1575.0,SA,BR,BR-MS,Sonora,no,,,SSUA,,,,
37673,SSUC,small_airport,Fazenda Aurora II Airport,-21.491111755371094,-53.203887939453125,1194.0,SA,BR,BR-MS,Ribas Do Rio Pardo,no,,,SSUC,,,,
334933,SSUF,heliport,Rede D'Or São Luiz Anália Franco Helipad,-23.54891,-46.558315,2694.0,SA,BR,BR-SP,São Paulo,no,,,SSUF,SP0884,,,
37676,SSUG,heliport,Aurora Heliport,-21.460757,-42.698064,499.0,SA,BR,BR-MG,Leopoldina,no,,,SNOY,MG0300,,,SSUG
37677,SSUH,heliport,Porto Frade Heliport,-22.969999,-44.444443,16.0,SA,BR,BR-RJ,Angra Dos Reis,no,,,SNFD,RJ0128,,,SSUH
430303,SSUI,small_airport,Fazenda Novo Horizonte Airport,-7.096976,-48.760541,607.0,SA,BR,BR-TO,Santa Fé do Araguaia,no,,,SSUI,TO0040,,,
37678,SSUJ,heliport,Estrada do Iate Clube Heliport,-23.607221603393555,-47.263057708740234,2897.0,SA,BR,BR-SP,Mairinque,no,,,SSUJ,,,,
37680,SSUL,small_airport,Ultraleve Clube Curitiba Airport,-25.476944,-49.154167,3215.0,SA,BR,BR-PR,São José dos Pinhais,no,,,SSUL,,,,
509,SSUM,small_airport,Orlando de Carvalho Airport,-23.7987,-53.313801,1552.0,SA,BR,BR-PR,Umuarama,yes,SSUM,UMU,SSUM,PR0019,,https://en.wikipedia.org/wiki/Umuarama_Airport,
37681,SSUN,heliport,Terminal Petrobrás - Guarulhos Heliport,-23.470277786254883,-46.44694519042969,2474.0,SA,BR,BR-SP,Guarulhos,no,,,SSUN,,,,
37682,SSUO,heliport,Unifly Heliport,-23.4086112976,-46.330554962200004,2641.0,SA,BR,BR-SP,Arujá,no,,ZFU,SSUO,,,,
37683,SSUP,heliport,Hospital Santa Joana Heliport,-8.051667213439941,-34.89805603027344,135.0,SA,BR,BR-PE,Recife,no,,,SSUP,,,,
37685,SSUR,small_airport,Fazenda Tamanduá Bandeira Airport,-21.585423,-52.869372,1260.0,SA,BR,BR-MS,Santa Rita do Pardo,no,,,SIJ4,MS0731,,,"SSUR, Fazenda Água Branca"
516708,SSUS,small_airport,Uniggel Sementes - Fazenda Santa Maria Airport,-18.413577,-52.896824,2680.0,SA,BR,BR-MS,Costa Rica,no,,,SSUS,MS0337,,,
37687,SSUU,small_airport,Fazenda Colorado Airport,-10.741666793823242,-49.47999954223633,761.0,SA,BR,BR-TO,Lagoa Da Confusão,no,,,SSUU,,,,
510,SSUV,small_airport,José Cleto Airport,-26.233224,-51.066754,2467.0,SA,BR,BR-PR,União da Vitória,yes,SSUV,UVI,SSUV,PR0034,,https://en.wikipedia.org/wiki/Uni%C3%A3o_da_Vit%C3%B3ria_Airport,"José Cleto, QVB"
336868,SSUW,small_airport,Fazenda Palmeiras Airport,-22.775956,-51.505539,1470.0,SA,BR,BR-PR,Centenário do Sul,no,,,SSUW,PR0092,,https://pt.wikipedia.org/wiki/Fazenda_Palmeiras_(aer%C3%B3dromo),
511,SSUY,small_airport,Fazenda Menina Airport,-20.640499,-51.476898,1115.0,SA,BR,BR-SP,Itapura,no,,,SSUK,SP0258,,,SSUY
37689,SSVA,small_airport,Fazenda Visa Estância Airport,-19.0625,-57.62916564941406,805.0,SA,BR,BR-MS,Ladário,no,,,SSVA,,,,
37690,SSVB,small_airport,Fazenda Vaca Branca Airport,-23.066515,-53.821174,1086.0,SA,BR,BR-MS,Naviraí,no,,,SSJB,MS0288,,,SSVB
37693,SSVE,small_airport,Fazenda Cerro Verde Airport,-23.81277847290039,-55.057777404785156,1250.0,SA,BR,BR-MS,Tacuru,no,,,SSVE,,,,
37695,SSVG,small_airport,Fazenda Santa Virgínia Airport,-22.279057,-55.653944,2087.0,SA,BR,BR-MS,Ponta Porã,no,,,SDG2,MS0627,,,SSVG
37696,SSVH,small_airport,Fazenda Paquetá Airport,-22.366943359375,-55.127777099609375,1398.0,SA,BR,BR-MS,Ponta Porã,no,,,SSVH,,,,
512,SSVI,small_airport,Videira Airport,-26.999701,-51.141899,2766.0,SA,BR,BR-SC,Videira,no,SSVI,VIA,SSVI,SC0011,,https://en.wikipedia.org/wiki/Videira_Airport,
37698,SSVK,small_airport,Fazenda Dom Arlindo Airport,-22.794443130493164,-54.156944274902344,1299.0,SA,BR,BR-MS,Naviraí,no,,,SSVK,,,,
37699,SSVL,small_airport,Fazenda Santa Claudina Airport,-22.521667,-54.677776,1476.0,SA,BR,BR-MS,Caarapó,no,,,SDNL,MS0040,,,SSVL
30527,SSVN,small_airport,Veranópolis Airport,-28.935407,-51.568067,2218.0,SA,BR,BR-RS,Veranópolis,no,,,SSVN,RS0030,,,
44734,SSVO,small_airport,Usina de Monções Airport,-20.8716678619,-50.1269454956,1437.0,SA,BR,BR-SP,Monções,no,,,SSVO,,,,
343205,SSVP,small_airport,Fazenda São Joaquim Airstrip,-18.263982,-39.86629,180.0,SA,BR,BR-ES,Conceição da Barra,no,SSVP,,SSVP,ES0049,,,
46359,SSVS,heliport,Zezé Heliport,-23.128289,-47.003283,2480.0,SA,BR,BR-SP,Jundiaí,no,,,SIZZ,SP0585,,,SSVS
45578,SSVU,small_airport,Fazenda Serra do Cabral Airport,-17.698889,-44.350278,3773.0,SA,BR,BR-MG,Lassance,no,,,SSVU,,,,
37702,SSVV,small_airport,Fazenda Vaticano Airport,-21.285926,-56.120272,1027.0,SA,BR,BR-MS,Nioaque,no,,,SSWT,MS0345,,,
37703,SSVW,small_airport,Fazenda Galera Airport,-14.513055801391602,-59.55694580078125,975.0,SA,BR,BR-MT,Conquista D`Oeste,no,,,SSVW,,,,
30266,SSVY,small_airport,Fazenda Três Barras Airport,-20.93779945373535,-48.173301696777344,1575.0,SA,BR,BR-SP,Pitangueiras,no,,,SSVY,,,,
45623,SSVZ,heliport,Autovias Heliport,-21.163333,-47.754722,1804.0,SA,BR,BR-SP,Ribeirão Preto,no,,,SSVZ,,,,
45579,SSWG,heliport,Laguna Heliport,-21.780833,-46.556111,4249.0,SA,BR,BR-MG,Poços De Caldas,no,,,SSWG,,,,
45631,SSWH,small_airport,Dr. Emílio Fehr Airport,-21.906268,-47.820806,2300.0,SA,BR,BR-SP,São Carlos,no,,,SSWH,SP0261,,,Agropecuária Rossignolo
45629,SSWI,heliport,Escas-Ipê Heliport,-23.157222,-46.320833,2848.0,SA,BR,BR-SP,Nazaré Paulista,no,,,SSWI,,,,
46358,SSWJ,heliport,Studart Heliport,-4.457222,-37.794722,56.0,SA,BR,BR-CE,Fortim,no,,,SSWJ,SSWJ,,,
37711,SSWM,small_airport,Fazenda Santa Maria Airport,-23.495871,-51.320029,2461.0,SA,BR,BR-PR,Londrina,no,,,SWSA,PR0098,,,SSWM
37714,SSWP,small_airport,Fazenda Araguaia Airport,-8.741466,-50.209812,771.0,SA,BR,BR-PA,Santa Maria das Barreiras,no,,,SJO8,PA0398,,,SSWP
37715,SSWR,small_airport,Fazenda Campana Airport,-21.894132,-54.294185,1043.0,SA,BR,BR-MS,Rio Brilhante,no,,,SSWR,MS0344,,,
29745,SSWS,small_airport,Caçapava do Sul Airport,-30.549625,-53.458177,1365.0,SA,BR,BR-RS,Caçapava do Sul,no,,,SSWS,RS0025,https://cacapavadosul.rs.gov.br/noticia/visualizar/id/2856/?aeroporto-de-cacapava-do-sul-recebe-liberacao-da-anac.html,,
43317,SSWU,heliport,Quick Heliport,-16.62027778,-49.2605552673,1552.0,SA,BR,BR-GO,Goiânia,no,,,SSWU,SSWU,,,
37717,SSWV,small_airport,Fazenda Barra Grande Airport,-23.589072,-50.036105,1772.0,SA,BR,BR-PR,Tomazina,no,,,SDXO,PR0041,,,SSWV
37718,SSWW,small_airport,Fazenda Belém Airport,-18.67416763305664,-55.89472198486328,262.0,SA,BR,BR-MS,Corumbá,no,,,SSWW,,,,
46472,SSWY,heliport,Flamboyant Heliport,-23.049027,-47.167742,2100.0,SA,BR,BR-SP,Indaiatuba,no,,,SSOB,SP0765,,,SSWY
44735,SSWZ,small_airport,Fazenda Dona Neném Airport,-18.5094432831,-46.2738876343,3458.0,SA,BR,BR-MG,Presidente Olegário,no,,,SSWZ,,,,
37720,SSXA,small_airport,Fazenda Congonhas Airport,-23.038610458374023,-50.934444427490234,1526.0,SA,BR,BR-PR,Rancho Alegre,no,,,SSXA,,,,
37721,SSXB,small_airport,Casa das Onças Airport,-17.152219,-56.570669,351.0,SA,BR,BR-MT,Barão de Melgaço,no,,,SDU7,MT0778,,,"SSXB, Fazenda Alaska II"
30396,SSXD,small_airport,Sarandi Airport,-27.98110008239746,-52.86360168457031,2034.0,SA,BR,BR-RS,Sarandi,no,,,SSXD,,,,
44714,SSXF,heliport,Alexandre Castro e Silva Helipad,-8.111772,-34.892798,199.0,SA,BR,BR-PE,Recife,no,,,SNWN,PE0050,,,SSXF
285,SSXH,small_airport,Sócrates Mariani Bittencourt Airport,-14.2554,-41.817501,1673.0,SA,BR,BR-BA,Brumado,no,SSXH,BMS,SSXH,BA0168,,https://sv.wikipedia.org/wiki/Sócrates_Mariani_Bittencourt_Airport,SNBU
37724,SSXI,small_airport,Fazenda Macisa Airport,-11.182804,-56.798977,1193.0,SA,BR,BR-MT,Tabaporã,no,,,SIT7,MT1027,,,SSXI
42238,SSXJ,heliport,Unidade de Tratamento de Gás de Cacimbas (UTCG) Heliport,-19.4658336639,-39.7583312988,16.0,SA,BR,BR-ES,Linhares,no,,,SSXJ,,,,
42741,SSXL,small_airport,Laguna Airport,-20.434722900390625,-56.33583450317383,554.0,SA,BR,BR-MS,Miranda,no,,,SSXL,,,,
37726,SSXM,small_airport,Fazenda Guaciara Airport,-22.78595,-53.880853,1063.0,SA,BR,BR-MS,Jateí,no,,,SJS3,MS0348,,,SSXM
44560,SSXN,small_airport,Aéreo Amazônia Airport,-8.298333333,-55.11472222,820.0,SA,BR,BR-PA,Altamira,no,,,SSXN,,,,
37727,SSXO,small_airport,Pousada das Águias Airport,-23.288888931274414,-52.12916564941406,1932.0,SA,BR,BR-PR,Presidente Castelo Branco,no,,,SSXO,,,,
37729,SSXQ,small_airport,Fazenda Jota III Airport,-19.330599,-51.971108,1700.0,SA,BR,BR-MS,Inocência,no,,,SIN8,MS0349,,,SSXQ
37731,SSXS,heliport,Miramar Maragogi Heliport,-8.95888900756836,-35.178611755371094,10.0,SA,BR,BR-AL,Maragogi,no,,,SSXS,,,,
37732,SSXT,heliport,Clube Céu Heliport,-22.977676,-43.390267,3.0,SA,BR,BR-RJ,Rio de Janeiro,no,,,SWCL,RJ0151,,,SSXT
37734,SSXV,small_airport,Fazenda Santa Rita Airport,-22.950000762939453,-54.112220764160156,1201.0,SA,BR,BR-MS,Naviraí,no,,,SSXV,,,,
37735,SSXW,small_airport,Fazendas Reunidas Schlatter Airport,-18.807777,-52.600277,2625.0,SA,BR,BR-MS,Chapadão Do Sul,no,,,SSLW,MS0304,,,"SSXW, Aero Porto Dal Lago"
37736,SSXX,small_airport,Xanxerê Airport,-26.875067,-52.372862,2986.0,SA,BR,BR-SC,Xanxerê,no,,AXE,SSXX,SC0017,,,
37738,SSXZ,small_airport,Fazenda Santa Rosa Airport,-19.747499465942383,-50.12916564941406,1348.0,SA,BR,BR-MG,Iturama,no,,,SSXZ,,,,
345120,SSYA,small_airport,Fazenda Tropical Airport,-14.87732,-49.195157,1854.0,SA,BR,BR-GO,São Luiz do Norte,no,SSYA,,SSYA,GO0262,,,
37739,SSYC,small_airport,Fazenda Mimoso Airport,-19.049771,-52.966901,1959.0,SA,BR,BR-MS,Chapadão do Sul,no,,,SIFM,MS0081,,,SSYC
37740,SSYD,small_airport,Fazenda Andorinha I Airport,-7.548056,-49.208057,643.0,SA,BR,BR-TO,Pau D`Arco,no,,,,,,,SSYD
37741,SSYE,small_airport,Fazenda Roberta Airport,-15.320833206176758,-58.50166702270508,1033.0,SA,BR,BR-MT,Araputanga,no,,,SSYE,,,,
37742,SSYF,small_airport,Fazenda do Café Airport,-18.871667861938477,-48.72055435180664,2762.0,SA,BR,BR-MG,Monte Alegre De Minas,no,,,SSYF,,,,
37743,SSYG,heliport,Edifício Palládio Heliport,-23.59502,-46.685619,2589.0,SA,BR,BR-SP,São Paulo,no,,,SDOF,SP0393,,,SSYG
526475,SSYI,small_airport,Fazenda Sesmarias Airport,-13.055395,-40.833663,1119.0,SA,BR,BR-BA,Itaeté,no,,,SSYI,BA0171,,,
37745,SSYJ,heliport,Igreja Messiânica Mundial do Brasil Heliport,-23.761943817138672,-46.75555419921875,2513.0,SA,BR,BR-SP,São Paulo,no,,,SSYJ,,,,
37747,SSYL,small_airport,Fazenda Tuju Puitan Airport,-23.341110229492188,-54.56888961791992,1142.0,SA,BR,BR-MS,Iguatemi,no,,,SSYL,,,,
37750,SSYO,small_airport,Cachoeira Rica Airport,-15.2625,-55.614723,1155.0,SA,BR,BR-MT,Chapada dos Guimarães,no,,,,,,,
598484,SSYP,small_airport,Gessomar Airport,-4.521275,-43.919575,190.0,SA,BR,BR-MA,Codó,no,,,SSYP,MA0048,,,
37751,SSYQ,small_airport,Agropecuária Monte Alverne Airport,-28.378889,-52.879444,1752.0,SA,BR,BR-RS,Carazinho,no,,,,,,,SSYQ
37752,SSYR,small_airport,Fazenda Santa Maria Airport,-20.346468,-52.319283,1306.0,SA,BR,BR-MS,Três Lagoas,no,,,SD3D,MS0542,,,SSYR
37753,SSYS,small_airport,Fazenda Imbaúba Airport,-19.90889,-52.536388,1552.0,SA,BR,BR-MS,Três Lagoas,no,,,,,,,SSYS
37754,SSYT,small_airport,Itapiranga Airport,-27.1425,-53.685799,1247.0,SA,BR,BR-SC,Itapiranga,no,,,,,,,SSYT
37755,SSYU,closed,Fazenda Três Pontes Airport,-19.830639,-52.585309,1440.0,SA,BR,BR-MS,Três Lagoas,no,,,,,,,"SSYU, Água Clara, SJGT, MS0166"
37756,SSYV,small_airport,Fazenda Progresso Airport,-19.726388931274414,-52.85139083862305,1650.0,SA,BR,BR-MS,Água Clara,no,,,SSYV,,,,
37757,SSYW,closed,Fazenda Terra Forte Airport,-18.266569,-54.778775,1460.0,SA,BR,BR-MS,Coxim,no,,,,,,,"SSYW, MS0354"
37759,SSYY,small_airport,Fazenda Fundãozinho Airport,-18.95111083984375,-53.149444580078125,1923.0,SA,BR,BR-MS,Costa Rica,no,,,SSYY,,,,
37760,SSYZ,small_airport,Fazenda Procomp II Airport,-22.851110458374023,-55.39611053466797,2080.0,SA,BR,BR-MS,Aral Moreira,no,,,SSYZ,,,,
37761,SSZA,small_airport,Fazenda São Sebastião da Formosa Airport,-17.722221,-56.753334,331.0,SA,BR,BR-MS,Corumbá,no,,,,,,,SSZA
37763,SSZC,small_airport,Fazenda Lambari Airport,-18.025275,-54.999262,564.0,SA,BR,BR-MS,Coxim,no,,,SI4E,MS0603,,,"SWLL, SSZC"
37765,SSZF,small_airport,Fazenda Santa Gertrudes Airport,-18.4777774810791,-56.02166748046875,150.0,SA,BR,BR-MS,Corumbá,no,,,SSZF,,,,
37766,SSZG,small_airport,Fazenda São João Airport,-19.257221221923828,-52.89638900756836,1575.0,SA,BR,BR-MS,Água Clara,no,,,SSZG,,,,
37767,SSZH,small_airport,Fazenda Corrientes Airport,-23.645969,-54.714375,1122.0,SA,BR,BR-MS,Tacuru,no,,,SSZH,MS0359,,,Procomp I
37768,SSZI,heliport,Condomínio Laguna Heliport,-9.703204,-35.800694,13.0,SA,BR,BR-AL,Marechal Deodoro,no,,,SNLX,AL0018,,,SSZI
37770,SSZL,small_airport,Fazenda Córrego Azul Airport,-21.44161,-52.157492,1047.0,SA,BR,BR-MS,Brasilândia,no,,,SSZL,MS0360,,,
37771,SSZM,small_airport,Reserva Acurizal Airport,-17.832875,-57.554401,351.0,SA,BR,BR-MS,Corumbá,no,,,SDV7,MS0577,,,SSZM
37772,SSZN,small_airport,Prudentópolis Airport,-25.182639,-50.923443,2510.0,SA,BR,BR-PR,Prudentópolis,no,,,SJ96,PR0238,,,SSZN
505661,SSZO,small_airport,Santa Marta I Airport,-8.541299,-50.652199,909.0,SA,BR,BR-PA,Santa Maria das Barreiras,no,,,SSZO,PA0136,,,
37773,SSZP,small_airport,Fazenda Santa Adriana Airport,-22.69611167907715,-54.2158317565918,1499.0,SA,BR,BR-MS,Jateí,no,,,SSZP,,,,
515,SSZQ,small_airport,Fazenda Panorama Airport,-22.038999557495117,-56.26940155029297,1197.0,SA,BR,BR-MS,Bela Vista,no,,,SSZQ,SSZQ,,,
516,SSZR,small_airport,Luis Alberto Lehr Airport,-27.90658,-54.520628,1014.0,SA,BR,BR-RS,Santa Rosa,yes,SSZR,SRA,SSZR,RS0027,,https://en.wikipedia.org/wiki/Santa_Rosa_Airport_(Brazil),
42239,SSZT,small_airport,Fazenda São João Airport,-22.794166564941406,-49.34111022949219,2146.0,SA,BR,BR-SP,Águas De Santa Bárbara,no,,,SSZT,,,,
37774,SSZU,small_airport,Fazenda Três Marias Airport,-19.503125,-53.049556,1821.0,SA,BR,BR-MS,Água Clara,no,,,SWUU,MS0425,,,"SJTE, SSZU"
36608,SSZW,small_airport,Usina Coruripe - Filial Limeira do Oeste Airport,-19.520191,-50.654031,1384.0,SA,BR,BR-MG,Limeira Do Oeste,no,SSZW,,SSZW,MG0460,,,SJIQ
322989,ST-0001,seaplane_base,Santo Antonio Seaport,1.63777,7.417778,,AF,ST,ST-P,Santo Antonio,no,,,,,,,
322988,ST-0002,closed,Roça Porto Alegre Airport,0.038624,6.515965,32.0,AF,ST,ST-03,Porto Alegro,no,,,,,,,"PGP, PGP"
525449,SU01,small_airport,Campo di volo Porto Pino,39.012206,8.601758,,EU,IT,IT-88,Sant’Anna Arresi (SU),no,,,,SU01,https://www.campovoloportopino.it,,
6244,SUAA,medium_airport,Ángel S. Adami International Airport,-34.7892,-56.264702,174.0,SA,UY,UY-MO,Montevideo,no,,,SUAA,,,https://en.wikipedia.org/wiki/%C3%81ngel_S._Adami_Airport,"Aeródromo de Melilla, Melilla Airport"
30655,SUAG,small_airport,Artigas International Airport,-30.4007,-56.5079,410.0,SA,UY,UY-AR,Artigas,no,SUAG,ATI,SUAG,,,https://en.wikipedia.org/wiki/Artigas_Airport,
325606,SUAN,small_airport,Anchorena Airport,-34.270516,-57.964383,49.0,SA,UY,UY-CO,Estancia Anchorena,no,,,SUAN,,,https://en.wikipedia.org/wiki/Estancia_Presidencial_Anchorena_Airport,
325318,SUAY,small_airport,Termas del Arapey Airport,-30.938271,-57.517528,153.0,SA,UY,UY-SA,Termas del Arapey,no,,,SUAY,,,,
325319,SUBL,small_airport,Captain Juan Manuel Boiso Lanza Air Base,-34.811533,-56.164317,131.0,SA,UY,UY-MO,Montevideo,no,,,SUBL,,,https://es.wikipedia.org/wiki/Base_A%C3%A9rea_Cap._Juan_Manuel_Boiso_Lanza,
41564,SUBU,small_airport,Placeres Airport,-30.319807,-57.558823,252.0,SA,UY,UY-AR,Bella Union,no,SUBU,BUV,SUBU,1290,,https://en.wikipedia.org/wiki/Placeres_Airport,
30868,SUCA,small_airport,Colonia Laguna de Los Patos International Airport,-34.456402,-57.770599,66.0,SA,UY,UY-CO,Colonia del Sacramento,no,SUCA,CYR,SUCA,,,https://en.wikipedia.org/wiki/Colonia_Airport,
325607,SUCD,small_airport,Cardona Airport,-33.875502,-57.397875,554.0,SA,UY,UY-SO,Cardona,no,,,SUCD,,,,
325611,SUCH,small_airport,Chuy Airport,-33.71085,-53.471334,59.0,SA,UY,UY-RO,Chuy,no,,,SUCH,,,,
325613,SUCL,small_airport,La Calera Airport,-34.286766,-55.354757,501.0,SA,UY,UY-LA,Minas,no,,,SUCL,,,,
39082,SUCM,small_airport,Zagarzazú International Airport,-33.96611,-58.325279,42.0,SA,UY,UY-CO,Carmelo,no,,,SUCM,,,https://en.wikipedia.org/wiki/Zagarzaz%C3%BA_International_Airport,"Balneario Zagarzazú, Carmelo"
325615,SUCN,small_airport,Aeroclub Canelones,-34.515153,-56.261384,98.0,SA,UY,UY-CA,Canelones,no,,,SUCN,,http://www.aeroclubcanelones.org.uy/sitio/,,
6245,SUDU,medium_airport,Santa Bernardina International Airport,-33.358898,-56.499199,305.0,SA,UY,UY-DU,Durazno,no,SUDU,DZO,SUDU,,,https://en.wikipedia.org/wiki/Santa_Bernardina_International_Airport,Tte. 2° Mario W. Parallada Air Base
325619,SUEL,heliport,Liberty Building Helipad,-34.868763,-56.166733,275.0,SA,UY,UY-MO,Montevideo,no,,,SUEL,,,,
326535,SUFT,small_airport,Frigorifico Tacuarembó Airport,-31.703611,-55.943056,490.0,SA,UY,UY-TA,Tacuarembó,no,,,SUFT,,,,
326530,SUGA,small_airport,Military Aeronautical School,-34.7469,-55.961,38.0,SA,UY,UY-CA,Pando,no,,,SUGA,,http://www.ema.edu.uy/,,
326536,SUGN,small_airport,Guichón Airfield,-32.3478,-57.1894,291.0,SA,UY,UY-PA,Guichón,no,,,SUGN,,,,
326537,SUJL,small_airport,Juan Lacaze Airport,-34.415352,-57.46422,40.0,SA,UY,UY-CO,Juan Lacaze,no,,,SUJL,,,,
326538,SUJP,small_airport,José Pedro Varela Airport,-33.4753,-54.539702,316.0,SA,UY,UY-LA,José Pedro Varela,no,,,SUJP,,,,
6246,SULS,medium_airport,Capitan Corbeta CA Curbelo International Airport,-34.855099,-55.094299,95.0,SA,UY,UY-MA,Punta del Este,yes,SULS,PDP,SULS,,http://www.puntadeleste.aero/,https://en.wikipedia.org/wiki/Capitan_Corbeta_CA_Curbelo_International_Airport,
32388,SUME,small_airport,Ricardo Detomasi Airport,-33.2489,-58.0737,68.0,SA,UY,UY-RN,Mercedes,no,,,SUME,,,https://es.wikipedia.org/wiki/Aeropuerto_Ricardo_Detomasi,
326525,SUMI,small_airport,Minas Municipal Airfield,-34.345455,-55.227522,458.0,SA,UY,UY-LA,Minas,no,,,SUMI,,,https://en.wikipedia.org/wiki/Campo_Municipal_de_Aterrizaje_Airport,
31920,SUMO,small_airport,Cerro Largo International Airport,-32.337898,-54.216702,364.0,SA,UY,UY-CL,Melo,no,SUMO,MLZ,SUMO,,,https://en.wikipedia.org/wiki/Cerro_Largo_International_Airport,
6247,SUMU,large_airport,Carrasco General Cesáreo L. Berisso International Airport,-34.835647,-56.026497,105.0,SA,UY,UY-CA,Ciudad de la Costa,yes,SUMU,MVD,SUMU,,,https://en.wikipedia.org/wiki/Carrasco_International_Airport,Montevideo
326534,SUNM,small_airport,Estancia Nueva Mehlem Airport,-32.96963,-57.982351,158.0,SA,UY,UY-RN,Nuevo Berlin,no,,,SUNM,,,,
326526,SUPC,small_airport,Charles Chalkling Airport,-32.379601,-58.029761,184.0,SA,UY,UY-PA,Paysandú,no,,,SUPC,,http://www.charleschalkling.com/,,
32390,SUPE,small_airport,El Jagüel / Punta del Este Airport,-34.909716,-54.920212,66.0,SA,UY,UY-MA,Maldonado,yes,,,SUPE,,,https://en.wikipedia.org/wiki/El_Jag%C3%BCel_Airport,
511990,SUPL,small_airport,Centro Aeronáutico Piriápolis,-34.88278,-55.24861,100.0,SA,UY,UY-MA,Punta Colorada,no,,,SUPL,SUPL,https://www.facebook.com/p/Centro-Aeron%C3%A1utico-Piriapolis-SUPL-100064702209825/,,
30253,SUPU,medium_airport,Tydeo Larre Borges Airport,-32.3633,-58.061901,138.0,SA,UY,UY-PA,Paysandú,no,SUPU,PDU,SUPU,,,https://en.wikipedia.org/wiki/Paysand%C3%BA_Airport,
39083,SURB,small_airport,Rio Branco Airport,-32.583057,-53.454166,55.0,SA,UY,UY-CL,Jaguarao,no,,,SURB,,,https://en.wikipedia.org/wiki/R%C3%ADo_Branco_Airport,
32240,SURV,medium_airport,Pres. Gral. Óscar D. Gestido Binational Airport,-30.9746,-55.4762,712.0,SA,UY,UY-RV,Rivera/Santana do Livramento,yes,SURV,RVY,SURV,,,https://en.wikipedia.org/wiki/Rivera_International_Airport,"Santana do Livramento, Cerro Chapeu International Airport"
326557,SUSG,small_airport,San Gregorio Airport,-32.526501,-55.841636,371.0,SA,UY,UY-TA,Cerro Chato,no,,,SUSG,,,,
326553,SUSJ,small_airport,San José Airport,-34.350554,-56.752438,229.0,SA,UY,UY-SJ,San José,no,,,SUSJ,,,,Aeroclub Maragato
6248,SUSO,medium_airport,Nueva Hesperides International Airport,-31.438499,-57.985298,187.0,SA,UY,UY-SA,Salto,no,SUSO,STY,SUSO,,,https://en.wikipedia.org/wiki/Nueva_Hesperides_International_Airport,
32423,SUTB,small_airport,Tacuarembo Airport,-31.749001,-55.925801,440.0,SA,UY,UY-TA,Tacuarembo,no,SUTB,TAW,SUTB,,,https://en.wikipedia.org/wiki/Tacuaremb%C3%B3_Airport,
326547,SUTG,small_airport,Tomás Gomenzoro Airport,-30.436607,-57.446726,273.0,SA,UY,UY-AR,Tomás Gomenzoro,no,,,SUTG,,,,
32492,SUTR,small_airport,Treinta y Tres Airport,-33.195714,-54.347246,337.0,SA,UY,UY-TT,Treinta y Tres,no,SUTR,TYT,SUTR,,,https://en.wikipedia.org/wiki/Treinta_y_Tres_Airport,
326544,SUVE,small_airport,SAMAN Vergara Airport,-32.960353,-53.930913,102.0,SA,UY,UY-TT,Vergara,no,,,SUVE,,,,SAMAN Vergara Rice Plant
32568,SUVO,small_airport,Vichadero Airport,-31.739166,-54.587776,488.0,SA,UY,UY-RV,Vichadero,no,SUVO,VCH,SUVO,,,https://en.wikipedia.org/wiki/Vichadero_Airport,
326542,SUYI,small_airport,Sarandí del Yí Airport,-33.311667,-55.600278,460.0,SA,UY,UY-DU,Sarandi del Yí,no,,,SUYI,,,,
326541,SUYN,small_airport,Young Airport,-32.6872,-57.6581,230.0,SA,UY,UY-RN,Young,no,,,SUYN,,,,
42020,SV-0001,small_airport,Rio Sucio Highway Airstrip,13.771100044250488,-89.37139892578125,1594.0,NA,SV,SV-LI,El Botoncillal,no,,,,,,,
42021,SV-0002,small_airport,Las Cachas Airport,13.466724,-89.191345,51.0,NA,SV,SV-LI,Cangrejera,no,,,MSCS,,,https://en.wikipedia.org/wiki/Las_Cachas_Airport,
42022,SV-0003,closed,El Playón Airport,13.454823,-88.756378,137.0,NA,SV,SV-SV,San Fernando,no,,,,,,,
42023,SV-0004,small_airport,Santa Rosa de Lima Airport,13.616000175476074,-87.86389923095703,239.0,NA,SV,SV-UN,Santa Rosa de Lima,no,,,,,,,
351334,SV-0005,small_airport,Usulutan Private Airport,13.33199,-88.50131,285.0,NA,SV,SV-US,Usulutan,no,,,,,,,
351335,SV-0006,small_airport,Puerto El Triunfo Airport,13.29613,-88.53113,118.0,NA,SV,SV-US,Puerto El Triunfo,no,,,,,,,
42013,SV-0007,closed,La Gloria Airport,13.71474,-89.191345,2163.0,NA,SV,SV-SS,San Salvador,no,,,,,,,"MSLG, MSLG"
26480,SV02,small_airport,San Diego De Cabrutica Airport,8.404430389404297,-65.0155029296875,492.0,SA,VE,VE-B,El Roble,no,,,SV02,,,,
26483,SV73,small_airport,Uverito Airport,8.670319557189941,-62.62540054321289,300.0,SA,VE,VE-N,,no,,,SV73,,,,
26484,SV74,small_airport,Aricuaisa Airport,9.581870079040527,-72.78800201416016,165.0,SA,VE,VE-V,,no,,,SV74,,,,
26485,SV75,small_airport,Machiques North Airport,10.088299751281738,-72.55480194091797,361.0,SA,VE,VE-V,,no,,,SV75,,,,
6249,SVAC,medium_airport,Oswaldo Guevara Mujica Airport,9.553375,-69.237869,640.0,SA,VE,VE-P,Acarigua,no,SVAC,AGV,SVAC,,,https://en.wikipedia.org/wiki/Oswaldo_Guevara_Mujica_Airport,Acarigua-Araure Airport
40070,SVAE,small_airport,Montellano Airport,10.328744,-72.480803,656.0,SA,VE,VE-V,,no,,,,,,,Formerly SV77
40071,SVAF,small_airport,Medano Alto Airport,6.933332920074463,-68.01667022705078,459.0,SA,VE,VE-C,Médano Alto,no,,,SVAF,,,,
40072,SVAH,small_airport,Cachimbo Airport,10.033333,-69.166664,1000.0,SA,VE,VE-K,Coco de Mono,no,,,,,,,
6250,SVAJ,small_airport,Mata de Juajua Airport,8.81893,-65.886703,394.0,SA,VE,VE-J,,no,,,SVNJ,,,,
40074,SVAL,small_airport,Algodonal Airport,8.350000381469727,-69.51667022705078,574.0,SA,VE,VE-E,,no,,,SVAL,,,,
40075,SVAM,small_airport,Mata de Caña Airport,7.316667079925537,-69.19999694824219,344.0,SA,VE,VE-C,,no,,,SVAM,,,,
6251,SVAN,medium_airport,Anaco Airport,9.430225,-64.470726,721.0,SA,VE,VE-B,Anaco,no,SVAN,AAO,SVAN,,,https://en.wikipedia.org/wiki/Anaco_Airport,
40076,SVAO,small_airport,Altagracia de Orituco Airport,9.863332748413086,-66.2933349609375,1148.0,SA,VE,VE-J,,no,,,SVAO,,,,
40077,SVAP,small_airport,Apurito Airport,7.918849945068359,-68.48300170898438,295.0,SA,VE,VE-C,Apurito,no,,,SVAP,,,,
40078,SVAQ,small_airport,Mata Oscura Airport,9.25,-68.48332977294922,196.0,SA,VE,VE-H,,no,,,SVAQ,,,,
32393,SVAR,small_airport,Adícora Airport,11.936079,-69.811965,7.0,SA,VE,VE-I,Adícora,no,SVAD,,SVAD,,,,
6252,SVAS,small_airport,Armando Schwarck Airport,6.577504,-66.816564,266.0,SA,VE,VE-F,Guayabal,no,,LPJ,SVAS,,,https://es.wikipedia.org/wiki/Aeropuerto_Armando_Schwarck,Los Pijiguaos mine
40315,SVAT,small_airport,San Fernando de Atabapo Airport,4.051683,-67.701133,301.0,SA,VE,VE-Z,San Fernando de Atabapo,no,SVAT,,SVAT,,,,
40079,SVAU,small_airport,Agua Clara Airport,6.75,-68.33333587646484,328.0,SA,VE,VE-C,,no,,,SVAU,,,,
40080,SVAV,small_airport,El Alcaravan Airport,9.273332595825195,-63.418331146240234,128.0,SA,VE,VE-N,,no,,,SVAV,,,,
40081,SVAW,small_airport,Merecure Airport,7.483333110809326,-67.8499984741211,220.0,SA,VE,VE-C,,no,,,SVAW,,,,
6254,SVAX,small_airport,Los Andes Airport,10.0,-72.583336,393.0,SA,VE,VE-V,,no,,,SVIA,,,,
40082,SVAY,small_airport,Araya Airport,10.597324,-64.272011,33.0,SA,VE,VE-R,,no,SVAA,,SVAA,,,,
40083,SVAZ,small_airport,Mata Palos Airport,8.433333396911621,-68.55000305175781,224.0,SA,VE,VE-P,,no,,,SVAZ,,,,
40084,SVBA,small_airport,Boca Anaro Airport,7.8333330154418945,-70.26667022705078,298.0,SA,VE,VE-E,Boca de Anaro,no,,,SVBA,,,,
6255,SVBC,large_airport,General José Antonio Anzoategui International Airport,10.111111,-64.692222,30.0,SA,VE,VE-B,Barcelona,yes,SVBC,BLA,SVBC,,http://aigdjaa.baer.gob.ve,https://en.wikipedia.org/wiki/General_Jos%C3%A9_Antonio_Anzo%C3%A1tegui_International_Airport,"Barcelona, Puero La Cruz,Lecheria"
40085,SVBD,small_airport,Los Camorucos Airport,7.616666793823242,-69.05000305175781,321.0,SA,VE,VE-C,,no,,,SVBD,,,,
40086,SVBE,small_airport,Bernal Airport,9.666666984558105,-72.58333587646484,249.0,SA,VE,VE-V,,no,,,SVBE,,,,
40088,SVBG,small_airport,La Batalla Airport,9.194444,-68.147778,273.0,SA,VE,VE-H,La Cruz,no,,,SVBG,,,,
40089,SVBH,small_airport,Los Belseres Airport,10.941666603088379,-68.26667022705078,3.0,SA,VE,VE-I,,no,,,SVBH,,,,
6256,SVBI,medium_airport,Barinas Airport,8.615,-70.214167,615.0,SA,VE,VE-E,Barinas,yes,SVBI,BNS,SVBI,,,https://en.wikipedia.org/wiki/Barinas_Airport,
40090,SVBJ,small_airport,Hato Viejo Airport,7.321667194366455,-69.66999816894531,524.0,SA,VE,VE-C,,no,,,SVBJ,,,,
6257,SVBK,small_airport,Bocono Airport,9.266281,-70.229855,5187.0,SA,VE,VE-T,Bocono,no,,,SVBO,,,,SVBK
6258,SVBL,medium_airport,El Libertador Airbase,10.183375,-67.55732,1450.0,SA,VE,VE-D,,no,,,SVBL,ELR,,https://en.wikipedia.org/wiki/El_Libertador_Air_Base,
6259,SVBM,large_airport,Jacinto Lara International Airport,10.042747,-69.35862,2042.0,SA,VE,VE-K,Barquisimeto,yes,SVBM,BRM,SVBM,,,https://en.wikipedia.org/wiki/Jacinto_Lara_International_Airport,
40091,SVBN,small_airport,Bocon Airport,6.599999904632568,-62.733333587646484,1462.0,SA,VE,VE-F,,no,,,SVBN,,,,
40092,SVBP,small_airport,Jobito Airport,7.590715,-67.207841,138.0,SA,VE,VE-C,San Fernando de Apure,no,,,SVBP,,,,
40093,SVBR,small_airport,Carbonero Airport,10.416666984558105,-68.66666412353516,328.0,SA,VE,VE-U,,no,,,SVBR,,,,
6261,SVBS,medium_airport,Escuela Mariscal Sucre Airport,10.249978,-67.649422,1338.0,SA,VE,VE-D,Maracay,no,SVBS,MYC,SVBS,,,https://en.wikipedia.org/wiki/Mariscal_Sucre_Airport_(Venezuela),
40094,SVBT,small_airport,Boquemonte Airport,9.199999809265137,-69.75,1000.0,SA,VE,VE-P,,no,,,SVBT,,,,
40095,SVBU,small_airport,Central Venezuela Airport,9.173054,-71.112871,33.0,SA,VE,VE-T,Bobures,no,,,SVBU,,,,
40096,SVBV,small_airport,Banco Verde Airport,8.733332633972168,-69.53333282470703,348.0,SA,VE,VE-P,,no,,,SVBV,,,,
40097,SVBW,small_airport,Hato El Burro Airport,7.128957,-63.461154,921.0,SA,VE,VE-F,,no,,,SVBW,,,,
6262,SVCB,medium_airport,General Tomas de Heres Airport,8.122161,-63.536957,197.0,SA,VE,VE-F,Ciudad Bolivar,no,SVCB,CBL,SVCB,,,https://en.wikipedia.org/wiki/Tom%C3%A1s_de_Heres_Airport,Aeropuerto General Tomas de Heres
6263,SVCD,medium_airport,Caicara del Orinoco Airport,7.62551,-66.162804,141.0,SA,VE,VE-F,,no,SVCD,CXA,SVCD,,,https://en.wikipedia.org/wiki/Caicara_del_Orinoco_Airport,
6264,SVCE,small_airport,Cuenca de Unare Airport,9.350306,-65.280655,204.0,SA,VE,VE-B,"Zaraza, Guárico",no,SVUR,,SVUR,,,,"SVCE, Apruna"
6265,SVCG,small_airport,Casigua El Cubo Airport,8.75814,-72.536301,99.0,SA,VE,VE-V,Casigua El Cubo,no,SVCG,CUV,SVCG,,,https://en.wikipedia.org/wiki/El_Cubo_Airport,
40099,SVCH,small_airport,Achaguas Airport,7.739999771118164,-68.23999786376953,187.0,SA,VE,VE-C,,no,,,SVCH,,,,
6266,SVCJ,small_airport,San Carlos Airport,9.64772,-68.574699,512.0,SA,VE,VE-H,San Carlos,no,,,SVCJ,,,https://en.wikipedia.org/wiki/San_Carlos_Airport_(Venezuela),
40101,SVCK,small_airport,Caño Lucas Airport,9.416666984558105,-68.88333129882812,301.0,SA,VE,VE-P,El Poblado,no,,,SVCK,,,,
6267,SVCL,medium_airport,Calabozo Airport,8.924656,-67.417091,328.0,SA,VE,VE-J,Guarico,no,SVCL,CLZ,SVCL,,,https://en.wikipedia.org/wiki/Calabozo_Airport,
40102,SVCM,small_airport,Cañita Mendera Airport,9.683333396911621,-68.41666412353516,662.0,SA,VE,VE-H,Tinaco,no,,,SVCM,,,,
6268,SVCN,medium_airport,Canaima Airport,6.231989,-62.85485,1450.0,SA,VE,VE-F,Canaima,yes,SVCN,CAJ,SVCN,,,https://en.wikipedia.org/wiki/Canaima_Airport,
6270,SVCP,medium_airport,General Francisco Bermúdez Airport,10.660014,-63.261681,33.0,SA,VE,VE-R,Carúpano,yes,SVCP,CUP,SVCP,,,https://en.wikipedia.org/wiki/General_Jos%C3%A9_Francisco_Berm%C3%BAdez_Airport,
40103,SVCQ,small_airport,Cazorla Airport,8.060600280761719,-66.96990203857422,639.0,SA,VE,VE-J,,no,,,SVCQ,,,,
6271,SVCR,medium_airport,José Leonardo Chirinos Airport,11.414944,-69.680901,52.0,SA,VE,VE-I,Coro,yes,SVCR,CZE,SVCR,,,https://en.wikipedia.org/wiki/Jos%C3%A9_Leonardo_Chirino_Airport,
6272,SVCS,medium_airport,Caracas Óscar Machado Zuloaga International Airport,10.286874,-66.815847,2145.0,SA,VE,VE-M,Charallave,no,SVCS,,SVCS,,,https://en.wikipedia.org/wiki/%C3%93scar_Machado_Zuloaga_International_Airport,
40104,SVCT,small_airport,Caujarito Airport,6.883333,-68.383331,360.0,SA,VE,VE-C,,no,SVJT,,SVJT,,,,
6273,SVCU,medium_airport,Antonio José de Sucre Airport,10.450333,-64.13047,14.0,SA,VE,VE-R,Cumaná,yes,SVCU,CUM,SVCU,,,https://en.wikipedia.org/wiki/Antonio_Jos%C3%A9_de_Sucre_Airport,
40105,SVCV,small_airport,Cunaviche Airport,7.400000095367432,-67.43333435058594,262.0,SA,VE,VE-C,Cunaviche,no,,,SVCV,,,,
40106,SVCW,small_airport,Chinazón Airport,9.326666831970215,-70.93333435058594,98.0,SA,VE,VE-T,,no,,,SVCW,,,,
40107,SVCX,small_airport,Guachara Airport,7.300000190734863,-68.36666870117188,656.0,SA,VE,VE-C,,no,,,SVCX,,,,
40108,SVCY,small_airport,Cuartel Yaruro Airport,6.933332920074463,-68.63333129882812,442.0,SA,VE,VE-C,Las Campanas,no,,,SVCY,,,,
6274,SVCZ,small_airport,Captain Manuel Ríos Air Base,9.37265,-66.922798,595.0,SA,VE,VE-J,Carrizal,no,,,SVCZ,,,,El Sombrero
40109,SVDA,small_airport,La Tortuga Punta Delgada Airport,10.947963,-65.228014,30.0,SA,VE,VE-O,Isla La Tortuga,no,SVIT,,SVIT,,,,"ISL, SVDA"
40110,SVDB,small_airport,Doña Bella Airport,9.333333015441895,-68.43333435058594,651.0,SA,VE,VE-H,,no,,,SVDB,,,,
40111,SVDC,small_airport,Cocuiza Airport,8.59000015258789,-66.25499725341797,230.0,SA,VE,VE-J,,no,,,SVDC,,,,
40112,SVDF,small_airport,Punto Fijo Airport,6.866666793823242,-68.78333282470703,360.0,SA,VE,VE-C,,no,,,SVDF,,,,
40113,SVDG,small_airport,Punta Gorda Airport,9.649999618530273,-63.7216682434082,859.0,SA,VE,VE-N,,no,,,SVDG,,,,
40114,SVDM,small_airport,Dos Mosquises Airport,11.79432,-66.892953,7.0,NA,VE,VE-W,Isla Los Roques,no,SVID,,SVID,,,,SVDM
32394,SVDP,small_airport,Hato Divina Pastora Airstrip,4.688457,-61.059324,2802.0,SA,VE,VE-F,Santa Elena de Uairén,no,SVDP,,,,,,
40115,SVDR,small_airport,Cordereño Airport,7.903549,-69.922972,268.0,SA,VE,VE-E,Cordereño,no,,,SVUC,,,,SVDR
40116,SVDS,small_airport,CODSA Airstrip,4.780924,-61.125569,2850.0,SA,VE,VE-F,,no,SVDS,,,SVWD,,,
526487,SVDU,small_airport,Dabajuro Airport,11.0275,-70.6925,256.0,SA,VE,VE-I,,no,,,SVDU,,,,
40117,SVDV,small_airport,Hato Veladero Airport,9.449999809265137,-63.17499923706055,239.0,SA,VE,VE-N,,no,,,SVDV,,,,
6275,SVDW,small_airport,Ciudad Piar Airport,7.493,-63.269169,879.0,SA,VE,VE-F,Ciudad Piar,no,SVPI,,SVPI,,,,
40118,SVDX,closed,Old Hato Puga Airstrip,8.414661,-62.489119,268.0,SA,VE,VE-Y,El Triunfo,no,,,,,,,SVDX
40119,SVDZ,small_airport,Puerto Paez Airport,6.220095,-67.447508,146.0,SA,VE,VE-C,Puerto Paez,no,SVPP,PPZ,SVPP,,,https://en.wikipedia.org/wiki/Puerto_Páez_Airport,SVDZ
6276,SVEB,small_airport,El Guayabo del Zulia Airport,8.676159858703613,-72.33560180664062,79.0,SA,VE,VE-V,,no,,,SVEB,,,,
6277,SVED,medium_airport,El Dorado Airport,6.71573,-61.638786,318.0,SA,VE,VE-F,Bolivar,no,SVED,EOR,SVED,,,,
40120,SVEE,small_airport,El Esterero Airport,7.908332824707031,-68.69667053222656,590.0,SA,VE,VE-C,El Samán de Apure,no,,,SVEE,,,,
40121,SVEF,small_airport,Empujeca Airport,10.595000267028809,-68.49500274658203,66.0,SA,VE,VE-U,,no,,,SVEF,,,,
40122,SVEG,small_airport,El Guayabo de Cojedes Airport,9.699999809265137,-68.33333587646484,23.0,SA,VE,VE-H,,no,,,SVEG,,,,
40123,SVEJ,small_airport,El Jabillal Airport,9.452879,-70.773503,354.0,SA,VE,VE-T,,no,SVQL,,SVQL,,,,
40124,SVEK,small_airport,El Capitán Airport,10.11359977722168,-72.57659912109375,452.0,SA,VE,VE-V,,no,,,SVEK,,,,
40125,SVEL,small_airport,El Callao Airport,7.333353,-61.829939,787.0,SA,VE,VE-F,El Callao,no,SVLL,,SVLL,,,,SVEL
40126,SVEM,small_airport,El Paraiso Airport,8.333333,-70.375,656.0,SA,VE,VE-E,El Paraiso,no,,,,,,,
6278,SVEN,small_airport,Encontrados Airport,9.03777,-72.24797,66.0,SA,VE,VE-V,,no,,,SVEW,,,,
6279,SVEP,small_airport,El Palmar Airport,10.198035,-67.443118,1554.0,SA,VE,VE-D,,no,,,SVEP,,,,
40127,SVER,small_airport,El Respiro Airport,7.216667175292969,-68.98332977294922,387.0,SA,VE,VE-C,,no,,,SVER,,,,
40128,SVES,small_airport,El Samán de Apure Airport,7.912350177764893,-68.69270324707031,361.0,SA,VE,VE-C,El Samán de Apure,no,,,SVES,,,,
6280,SVET,small_airport,El Manteco Airport,7.349514,-62.531447,1000.0,SA,VE,VE-F,,no,,,SVET,,,,
40129,SVEW,small_airport,El Cenizo Airport,9.55,-70.683334,426.0,SA,VE,VE-T,,no,,,SVKC,,,,
40130,SVEX,small_airport,La Esperanza Airport,8.699999809265137,-69.07499694824219,256.0,SA,VE,VE-P,,no,,,SVEX,,,,
40131,SVEY,small_airport,El Centro Airport,6.28,-69.116669,318.0,SA,VE,VE-C,,no,,,SVNC,,,,
6281,SVEZ,medium_airport,Elorza Airport,7.059677,-69.4967,295.0,SA,VE,VE-C,,no,SVEZ,EOZ,SVEZ,,,https://en.wikipedia.org/wiki/Elorza_Airport,
40132,SVFE,small_airport,Hacienda Santa Fé Airport,9.57438,-72.565838,157.0,SA,VE,VE-V,Hacienda Santa Fé,no,,,SVFE,,,,
40133,SVFG,small_airport,El Flagelo Airport,9.1856,-67.032452,663.0,SA,VE,VE-J,Francisco de Miranda,no,,,SVFG,,,,
40134,SVFK,small_airport,La Fe de Cojedes Airport,9.483332633972168,-67.81666564941406,412.0,SA,VE,VE-J,La Mosca,no,,,SVFK,,,,
40135,SVFL,small_airport,Fundación Layera Airport,7.199999809265137,-68.13333129882812,219.0,SA,VE,VE-C,,no,,,SVFL,,,,
6282,SVFM,medium_airport,Generalissimo Francisco de Miranda Air Base,10.485033,-66.843513,2739.0,SA,VE,VE-M,Caracas,no,,,SVFM,,,https://en.wikipedia.org/wiki/Generalissimo_Francisco_de_Miranda_Air_Base,"Caracas Francisco de Miranda, La Carlota"
40136,SVFR,small_airport,El Frío Airport,7.823332786560059,-68.89833068847656,219.0,SA,VE,VE-C,Guarico,no,,,SVFR,,,,
40137,SVFS,small_airport,Fagotrans Airport,9.401639938354492,-66.64309692382812,590.0,SA,VE,VE-D,,no,,,SVFS,,,,
40138,SVFT,small_airport,El Fuentero Airport,7.1,-69.583333,420.0,SA,VE,VE-C,,no,,,SVBF,,,,
6283,SVFU,small_airport,La Fortuna Airport,7.5833330154418945,-71.46666717529297,417.0,SA,VE,VE-S,San Antonio de Caparo,no,,,SVFU,,,,
526488,SVFW,small_airport,Finca Villa Carrara II Airport,9.868,-63.752167,597.0,SA,VE,VE-N,,no,,,SVFW,,,,
40139,SVFX,small_airport,La Fe de Apure Airport,7.2133331298828125,-69.49666595458984,442.0,SA,VE,VE-C,,no,,,SVFX,,,,
40140,SVFY,small_airport,Finca Yacurito Airport,9.033332824707031,-69.0999984741211,1706.0,SA,VE,VE-P,,no,,,SVFY,,,,
40141,SVGA,small_airport,Agropecuaria Gamma Airport,8.75,-70.0,495.0,SA,VE,VE-E,,no,,,,,,,
6284,SVGC,small_airport,La Gran China Airport,9.77708,-72.486801,138.0,SA,VE,VE-V,,no,,,SVKG,,,,SVGC
6285,SVGD,medium_airport,Guasdualito Airport,7.210834,-70.756386,427.0,SA,VE,VE-C,Guasdualito,no,SVGD,GDO,SVGD,,,https://en.wikipedia.org/wiki/Guasdualito_Airport,
40142,SVGE,small_airport,Ganadería Pedernales Airport,9.210000038146973,-69.5816650390625,467.0,SA,VE,VE-P,,no,,,SVGE,,,,
40143,SVGG,small_airport,Agropecuaria Los Araguaneyes Airport,9.583333,-63.049999,507.0,SA,VE,VE-N,,no,,,SVAH,,,,
40144,SVGH,small_airport,La Guacharaca Airport,9.53499984741211,-66.7249984741211,984.0,SA,VE,VE-D,,no,,,SVGH,,,,
6286,SVGI,medium_airport,Guiria Airport,10.574077606200001,-62.3126678467,42.0,SA,VE,VE-R,,no,SVGI,GUI,SVGI,,,https://en.wikipedia.org/wiki/Guiria_Airport,
40145,SVGL,small_airport,Agua Linda Airport,7.635000228881836,-70.8499984741211,417.0,SA,VE,VE-E,,no,,,SVGL,,,,
40146,SVGP,small_airport,Guesipo Airport,9.633333206176758,-67.18333435058594,641.0,SA,VE,VE-J,,no,,,SVGP,,,,
40147,SVGR,small_airport,El Milagro Carabobo Airport,10.152999877929688,-68.37519836425781,2013.0,SA,VE,VE-U,,no,,,SVGR,,,,
32395,SVGT,small_airport,Guasipati Airport,7.475,-61.900002,977.0,SA,VE,VE-F,,no,,,SVGT,,,https://en.wikipedia.org/wiki/Guasipati_Airport,
6287,SVGU,medium_airport,Guanare Airport,9.026944,-69.75515,606.0,SA,VE,VE-P,Guanare,no,SVGU,GUQ,SVGU,,,https://en.wikipedia.org/wiki/Guanare_Airport,
40148,SVGX,small_airport,Las Guadalupes Airport,8.749278,-63.556488,984.0,SA,VE,VE-B,Independencia,no,,,SVGX,,,,
40149,SVGZ,small_airport,La Garza Airport,7.949999809265137,-69.11666870117188,237.0,SA,VE,VE-C,,no,,,SVGZ,,,,
40150,SVHA,small_airport,Hato Altamira de Bolívar Airport,7.6,-63.216667,1098.0,SA,VE,VE-F,,no,,,SVJX,,,,
40151,SVHC,small_airport,Hacienda El Caimito Airport,10.149999618530273,-72.18333435058594,138.0,SA,VE,VE-V,,no,,,SVHC,,,,
6288,SVHD,small_airport,Hacienda El Calvario Airport,9.899999618530273,-72.55000305175781,264.0,SA,VE,VE-V,,no,,,SVHD,,,,
40152,SVHE,small_airport,Hato Rancho Alegre Airport,9.566666603088379,-67.56666564941406,534.0,SA,VE,VE-J,,no,,,SVHE,,,,
6289,SVHG,small_airport,Higuerote Airport,10.462474,-66.092779,12.0,SA,VE,VE-M,Higuerote,no,SVHG,HGE,SVHG,,,https://en.wikipedia.org/wiki/Higuerote_Airport,Sabana de Oro
6290,SVHH,small_airport,Churuguara Airport,10.808099746704102,-69.63839721679688,2461.0,SA,VE,VE-I,Churuguara,no,,,SVHH,,,,
40153,SVHK,small_airport,Hato la Guaca Airport,9.399999618530273,-67.78333282470703,328.0,SA,VE,VE-J,,no,,,SVHK,,,,
40154,SVHL,small_airport,Hacienda Carutal Airport,9.716667,-66.783333,1000.0,SA,VE,VE-D,,no,,,,,,,
40155,SVHM,small_airport,Hato Los Mamones Airport,9.333333015441895,-67.91666412353516,594.0,SA,VE,VE-H,Hato Los Mamomes,no,,,SVHM,,,,
40156,SVHN,small_airport,Hato La Chaconera Airport,8.105409622192383,-68.71910095214844,208.0,SA,VE,VE-E,,no,,,SVHN,,,,
40157,SVHO,small_airport,Hacienda El Oasis Airport,8.36822,-69.9571,354.0,SA,VE,VE-E,La Palmita,no,,,SVJZ,,,,
40158,SVHP,small_airport,Hacienda El Paso Airport,10.713333129882812,-69.20833587646484,495.0,SA,VE,VE-K,Las Vegas del Tuy,no,,,SVHP,,,,
40159,SVHR,small_airport,Hato El Carito Airport,9.479002,-67.99071,256.0,SA,VE,VE-H,Los Marimares,no,,,SVIH,,,,
40160,SVHS,small_airport,Hato El Sesenta Airport,8.245639,-65.556921,499.0,SA,VE,VE-J,El Socorro,no,,,SVXS,,,,
40161,SVHT,small_airport,Hato Altamira de Monagas Airport,9.366666793823242,-63.08333206176758,154.0,SA,VE,VE-N,,no,,,SVHT,,,,
40162,SVHX,small_airport,Hato La Candelaria Airport,8.683333396911621,-67.71666717529297,254.0,SA,VE,VE-J,,no,,,SVHX,,,,
40163,SVHY,small_airport,Hato Las Yeguas Airport,8.720000267028809,-68.47166442871094,1049.0,SA,VE,VE-H,,no,,,SVHY,,,,
31661,SVIC,small_airport,Ikabaru Airport,4.338137,-61.738661,1640.0,SA,VE,VE-F,Ikabarú,no,SVIC,ICA,,,,https://en.wikipedia.org/wiki/Icabar%C3%BA_Airport,
6291,SVIE,small_airport,Andrés Miguel Salazar Marcano Airport,10.794432,-63.98159,10.0,SA,VE,VE-O,Isla de Coche,yes,SVIE,ICC,SVIE,,,https://en.wikipedia.org/wiki/Andr%C3%A9s_Miguel_Salazar_Marcano_Airport,
40164,SVIM,small_airport,Hato El Caimán Airport,9.100000381469727,-69.62000274658203,462.0,SA,VE,VE-P,,no,,,SVIM,,,,
