origin,destination,airport_origin_name,airport_dest_name,origin_city,destination_city,vehicule_type,station_lat,station_long,station_lat_dest,station_long_dest,distance_km,co2_kg,departure_time,arrival_time,source,provider
Gare de Amboise,Gare de Pornichet,Amboise Dierre Airfield,La Baule-Escoublac Airport,Gare de Amboise,Gare de Pornichet,Avion,47.339771,0.945861,47.289398,-2.34639,248.23800373562744,100.0455096013167,,,airports,OurAirports
Gare de Ancenis,Gare de Saint-Pierre-des-Corps,Ancenis Airfield,Tours Val de Loire Airport,Gare de Ancenis,Gare de Saint-Pierre-des-Corps,Avion,47.4081,-1.1775,47.432201,0.727606,143.35475138436018,91.9671207155806,,,airports,OurAirports
Gare de Brest,Gare de Montauban-de-Bretagne,Brest Bretagne airport,Queneleuc Airfield,Gare de Brest,Gare de Montauban-de-Bretagne,Avion,48.447899,-4.41854,48.098333,-2.076389,177.63753712332235,113.96073490746774,,,airports,OurAirports
Gare de Chartres,Gare de Le Mans,Chartres-Métropole Airfield,Le Mans-Arnage Airport,Gare de Chartres,Gare de Le Mans,Avion,48.457502,1.519843,47.948604,0.201702,112.89169088504315,72.42399476229339,,,airports,OurAirports
Gare de Coutances,Gare de Pontchaillou,Lessay Airfield,Rennes-Saint-Jacques Airport,Gare de Coutances,Gare de Pontchaillou,Avion,49.202276,-1.507983,48.0695,-1.73479,127.05658843460066,81.51127530433276,,,airports,OurAirports
Gare de Douai,Gare de Morgny,Vitry-en-Artois Airfield,Rouen Vallée de Seine Airport,Gare de Douai,Gare de Morgny,Avion,50.337883,2.990714,49.384887,1.179142,167.59665206244057,107.51915358862121,,,airports,OurAirports
Gare de Frénouville - Cagny,Gare de Évreux Normandie,Rouvres Airfield,Évreux-Fauville (BA 105) Air Base,Gare de Frénouville - Cagny,Gare de Évreux Normandie,Avion,49.02,-0.198333,49.028702,1.21986,103.41022789965594,66.34130240283702,,,airports,OurAirports
Gare de Hennebont,Gare de Nantes,Lorient South Brittany (Bretagne Sud) Airport,Nantes Atlantique Airport,Gare de Hennebont,Gare de Nantes,Avion,47.760601,-3.44,47.153198,-1.61073,153.21527576279365,98.29299430590828,,,airports,OurAirports
Gare de La Baule les Pins,Gare de Orléans,La Baule-Escoublac Airport,Mardié Airfield,Gare de La Baule les Pins,Gare de Orléans,Avion,47.289398,-2.34639,47.903611,2.067778,337.9140180492338,108.12201520054764,,,airports,OurAirports
Gare de La Suze,Gare de Savenay,Le Mans-Arnage Airport,Campbon La Berthelière Airfield,Gare de La Suze,Gare de Savenay,Avion,47.948604,0.201702,47.420833,-2.011944,175.7850065229802,112.77227129739754,,,airports,OurAirports
Gare de Langeais,Gare de Ancenis,Hommes Volants Ultralight Airfield,Ancenis Airfield,Gare de Langeais,Gare de Ancenis,Avion,47.418534,0.323495,47.4081,-1.1775,112.94829893483406,72.46031081947545,,,airports,OurAirports
Gare de Langeais,Gare de Pouzauges,Hommes Volants Ultralight Airfield,Breuil Barret Airfield,Gare de Langeais,Gare de Pouzauges,Avion,47.418534,0.323495,46.660556,-0.663611,112.68764650026215,72.29309310479492,,,airports,OurAirports
Gare de Laval,Gare de Pornichet,Laval-Entrammes Airport,La Baule-Escoublac Airport,Gare de Laval,Gare de Pornichet,Avion,48.032208,-0.743999,47.289398,-2.34639,145.67844094811258,93.45784939078281,,,airports,OurAirports
Gare de Maintenon,Gare de Champagné,Les Ailes d'Eure et Loir Airfield,Le Mans-Arnage Airport,Gare de Maintenon,Gare de Champagné,Avion,48.59244,1.53759,47.948604,0.201702,122.0673885892981,78.31052792752028,,,airports,OurAirports
Gare de Morannes,Gare de Saint-Nazaire,Solib'Ailes Airfield,Saint-Nazaire-Montoir Airport,Gare de Morannes,Gare de Saint-Nazaire,Avion,47.7775,-0.514167,47.31142,-2.152634,133.45143369848344,85.61379371172144,,,airports,OurAirports
Gare de Nantes,Gare de Quimper,Nantes Atlantique Airport,Quimper-Cornouaille Airport,Gare de Nantes,Gare de Quimper,Avion,47.153198,-1.61073,47.973031,-4.169655,212.52879991746386,85.65389574814454,,,airports,OurAirports
Gare de Orléans,Gare de Angers Saint-Laud,Mardié Airfield,Soulaire Airfield,Gare de Orléans,Gare de Angers Saint-Laud,Avion,47.903611,2.067778,47.565556,-0.549722,199.31820687103752,80.32972904692946,,,airports,OurAirports
Gare de Paris Saint-Lazare,Gare de Caen,Paris-Le Bourget International Airport,Caen Carpiquet airport,Gare de Paris Saint-Lazare,Gare de Caen,Avion,48.962276,2.436539,49.17678,-0.454883,211.96874819850595,85.42818228452069,,,airports,OurAirports
Gare de Plouaret Trégor,Gare de Quédillac,Lannion Airport,Queneleuc Airfield,Gare de Plouaret Trégor,Gare de Quédillac,Avion,48.754398,-3.47166,48.098333,-2.076389,126.1756363820004,80.94611354315123,,,airports,OurAirports
Gare de Port Boulet,Gare de Savenay,Aérodrome de Saumur - Saint-Florent,Campbon La Berthelière Airfield,Gare de Port Boulet,Gare de Savenay,Avion,47.256802,-0.115142,47.420833,-2.011944,144.0841985551669,92.43508676041264,,,airports,OurAirports
Gare de Quimperlé,Gare de Savenay,Mellac Ultralight Airfield,Campbon La Berthelière Airfield,Gare de Quimperlé,Gare de Savenay,Avion,47.912079,-3.565698,47.420833,-2.011944,128.53200806053414,82.45780894576437,,,airports,OurAirports
Gare de Saint-Lô,Gare de Rennes,Mosles Airfield,Rennes-Saint-Jacques Airport,Gare de Saint-Lô,Gare de Rennes,Avion,49.30083,-0.81183,48.0695,-1.73479,152.7620805551328,98.00225362261612,,,airports,OurAirports
Gare de Tours,Gare de Pouzauges,Tours Val de Loire Airport,Breuil Barret Airfield,Gare de Tours,Gare de Pouzauges,Avion,47.432201,0.727606,46.660556,-0.663611,135.9139115051229,87.1935599316457,,,airports,OurAirports
Gare de Villedieu-les-Poêles,Gare de Paris Montparnasse Vaugirard,Avranches Le Val-Saint-Père Airfield,Vélizy-Villacoublay Air Base,Gare de Villedieu-les-Poêles,Gare de Paris Montparnasse Vaugirard,Avion,48.662255,-1.403685,48.774406,2.203102,264.870347317691,106.74871887826482,,,airports,OurAirports
Gare de Vire,Gare de Paris Montparnasse Hall 1 - 2,Aérodrome de Flers Saint-Paul,Vélizy-Villacoublay Air Base,Gare de Vire,Gare de Paris Montparnasse Hall 1 - 2,Avion,48.749964,-0.593927,48.774406,2.203102,205.0234859119462,82.62908507008417,,,airports,OurAirports
Gare de Étriché - Châteauneuf,Gare de Le Croisic,Aérodrome privé de Soucelles,La Baule-Escoublac Airport,Gare de Étriché - Châteauneuf,Gare de Le Croisic,Avion,47.580399,-0.412269,47.289398,-2.34639,149.02635201568273,95.6056522248216,,,airports,OurAirports
Gare de Évreux Normandie,Gare de Valognes,Évreux-Fauville (BA 105) Air Base,Cherbourg Manche airport,Gare de Évreux Normandie,Gare de Valognes,Avion,49.028702,1.21986,49.650101,-1.47028,206.77721574712803,83.33587771433479,,,airports,OurAirports
Gare de Albert,Gare de Rouen Rive Droite,La Boisselle Airfield,Rouen Vallée de Seine Airport,Gare de Albert,Gare de Rouen Rive Droite,Avion,50.015803,2.688594,49.384887,1.179142,129.25029768056874,82.91861702890458,,,airports,OurAirports
Gare de Angers Maître École,Gare de Le Croisic,Soulaire Airfield,La Baule-Escoublac Airport,Gare de Angers Maître École,Gare de Le Croisic,Avion,47.565556,-0.549722,47.289398,-2.34639,138.5969382144863,88.91481603847376,,,airports,OurAirports
Gare de Angers Maître École,Gare de Saint-Nazaire,Soulaire Airfield,Saint-Nazaire-Montoir Airport,Gare de Angers Maître École,Gare de Saint-Nazaire,Avion,47.565556,-0.549722,47.31142,-2.152634,123.82045789855806,79.43518361720312,,,airports,OurAirports
Gare de Argentan,Gare de Saint-Pierre-des-Corps,Argentan Airfield,Tours Val de Loire Airport,Gare de Argentan,Gare de Saint-Pierre-des-Corps,Avion,48.709456,0.002856,47.432201,0.727606,151.88860361248982,97.44188740768026,,,airports,OurAirports
Gare de Bretteville - Norrey,Gare de Dol-de-Bretagne,Caen Carpiquet airport,Le Haut des Places Airfield,Gare de Bretteville - Norrey,Gare de Dol-de-Bretagne,Avion,49.17678,-0.454883,48.474167,-1.591111,114.11361814716966,73.20790412655536,,,airports,OurAirports
Gare de Caen,Gare de Montbizot,Caen Carpiquet airport,Assé le Riboul Airfield,Gare de Caen,Gare de Montbizot,Avion,49.17678,-0.454883,48.195278,0.099444,116.47662229890472,74.72385449426494,,,airports,OurAirports
Gare de Connerré - Beillé,Gare de Versailles Chantiers,Champ-Romet Airfield,Saint-Cyr-l'École Airport,Gare de Connerré - Beillé,Gare de Versailles Chantiers,Avion,48.298611,0.453056,48.812459,2.067533,131.84419929942018,84.58269625196182,,,airports,OurAirports
Gare de Courville-sur-Eure,Gare de Noyen,Loulappe Airfield,La Flèche-Thorée-les-Pins Airfield,Gare de Courville-sur-Eure,Gare de Noyen,Avion,48.438333,1.274444,47.69261,-0.002198,125.99479833980982,80.83009957154925,,,airports,OurAirports
Gare de Coutances,Gare de Rennes,Lessay Airfield,Rennes-Saint-Jacques Airport,Gare de Coutances,Gare de Rennes,Avion,49.202276,-1.507983,48.0695,-1.73479,127.05658843460066,81.51127530433276,,,airports,OurAirports
Gare de Dol-de-Bretagne,Gare de Bayeux,Le Haut des Places Airfield,Mosles Airfield,Gare de Dol-de-Bretagne,Gare de Bayeux,Avion,48.474167,-1.591111,49.30083,-0.81183,108.14580093927046,69.37933925327931,,,airports,OurAirports
Gare de La Baule-Escoublac,Gare de Saumur,La Baule-Escoublac Airport,Aérodrome de Saumur - Saint-Florent,Gare de La Baule-Escoublac,Gare de Saumur,Avion,47.289398,-2.34639,47.256802,-0.115142,168.37261114321973,108.0169586614439,,,airports,OurAirports
Gare de La Rochelle,Gare de Nantes,La Rochelle Île de Ré Airport,Nantes Atlantique Airport,Gare de La Rochelle,Gare de Nantes,Avion,46.179199,-1.19528,47.153198,-1.61073,112.84768795883267,72.39576533573056,,,airports,OurAirports
Gare de Landerneau,Gare de Rennes,Landivisiau Air Base,Rennes-Saint-Jacques Airport,Gare de Landerneau,Gare de Rennes,Avion,48.5303,-4.15164,48.0695,-1.73479,185.96383602226268,119.30234883067666,,,airports,OurAirports
Gare de Landivisiau,Gare de Rennes,Landivisiau Air Base,Rennes-Saint-Jacques Airport,Gare de Landivisiau,Gare de Rennes,Avion,48.5303,-4.15164,48.0695,-1.73479,185.96383602226268,119.30234883067666,,,airports,OurAirports
Gare de Le Mans,Gare de Le Pouliguen,Le Mans-Arnage Airport,La Baule-Escoublac Airport,Gare de Le Mans,Gare de Le Pouliguen,Avion,47.948604,0.201702,47.289398,-2.34639,204.55488417657855,82.4402280106919,,,airports,OurAirports
Gare de Le Theil - La Rouge,Gare de Versailles Chantiers,BELLEME St Germain de la Coudr Airfield,Saint-Cyr-l'École Airport,Gare de Le Theil - La Rouge,Gare de Versailles Chantiers,Avion,48.300556,0.581111,48.812459,2.067533,123.31680112880906,79.11207006501584,,,airports,OurAirports
Gare de Lille Flandres,Gare de Longuerue - Vieux-Manoir,Marcq-en-Baroeul Airfield,Rouen Vallée de Seine Airport,Gare de Lille Flandres,Gare de Longuerue - Vieux-Manoir,Avion,50.687199,3.07556,49.384887,1.179142,198.26771985971553,79.90635910841995,,,airports,OurAirports
Gare de Lille Flandres,Gare de Poix-de-Picardie,Marcq-en-Baroeul Airfield,Poix de Picardie Airfield,Gare de Lille Flandres,Gare de Poix-de-Picardie,Avion,50.687199,3.07556,49.780278,2.001944,126.49200613631355,81.14907588032318,,,airports,OurAirports
Gare de Mantes-la-Jolie,Gare de Caen,Mantes-Chérence Airfield,Caen Carpiquet airport,Gare de Mantes-la-Jolie,Gare de Caen,Avion,49.078814,1.68829,49.17678,-0.454883,156.31858098241744,100.2838738756075,,,airports,OurAirports
Gare de Morannes,Gare de La Baule-Escoublac,Solib'Ailes Airfield,La Baule-Escoublac Airport,Gare de Morannes,Gare de La Baule-Escoublac,Avion,47.7775,-0.514167,47.289398,-2.34639,147.86859167234084,94.8629081983585,,,airports,OurAirports
Gare de Morannes,Gare de Le Croisic,Solib'Ailes Airfield,La Baule-Escoublac Airport,Gare de Morannes,Gare de Le Croisic,Avion,47.7775,-0.514167,47.289398,-2.34639,147.86859167234084,94.8629081983585,,,airports,OurAirports
Gare de Morgny,Gare de Arras,Rouen Vallée de Seine Airport,Arras-Roclincourt Airfield,Gare de Morgny,Gare de Arras,Avion,49.384887,1.179142,50.323898,2.80278,156.36181138510756,100.31160770113048,,,airports,OurAirports
Gare de Paris Montparnasse Hall 1 - 2,Gare de Connerré - Beillé,Vélizy-Villacoublay Air Base,Champ-Romet Airfield,Gare de Paris Montparnasse Hall 1 - 2,Gare de Connerré - Beillé,Avion,48.774406,2.203102,48.298611,0.453056,139.28496568128617,89.35620988474513,,,airports,OurAirports
Gare de Paris Montparnasse Hall 1 - 2,Gare de Sainte-Gauburge,Vélizy-Villacoublay Air Base,L'Aigle-Saint-Michel Airfield,Gare de Paris Montparnasse Hall 1 - 2,Gare de Sainte-Gauburge,Avion,48.774406,2.203102,48.758502,0.656632,113.355569881831,72.72158947250028,,,airports,OurAirports
Gare de Paris Montparnasse Hall 1 - 2,Gare de Surdon,Vélizy-Villacoublay Air Base,Argentan Airfield,Gare de Paris Montparnasse Hall 1 - 2,Gare de Surdon,Avion,48.774406,2.203102,48.709456,0.002856,161.4948634246227,103.60464132574845,,,airports,OurAirports
Gare de Sablé-sur-Sarthe,Gare de Le Croisic,Solib'Ailes Airfield,La Baule-Escoublac Airport,Gare de Sablé-sur-Sarthe,Gare de Le Croisic,Avion,47.7775,-0.514167,47.289398,-2.34639,147.86859167234084,94.8629081983585,,,airports,OurAirports
Gare de Saint-Piat,Gare de Le Mans,Bailleau Armenonville Airfield,Le Mans-Arnage Airport,Gare de Saint-Piat,Gare de Le Mans,Avion,48.5158,1.64,47.948604,0.201702,123.79876344878045,79.4212658637817,,,airports,OurAirports
Gare de Saint-Piat,Gare de Montfort-le-Gesnois,Bailleau Armenonville Airfield,Le Mans-Arnage Airport,Gare de Saint-Piat,Gare de Montfort-le-Gesnois,Avion,48.5158,1.64,47.948604,0.201702,123.79876344878045,79.4212658637817,,,airports,OurAirports
Gare de Sainte-Gauburge,Gare de Paris Montparnasse Vaugirard,L'Aigle-Saint-Michel Airfield,Vélizy-Villacoublay Air Base,Gare de Sainte-Gauburge,Gare de Paris Montparnasse Vaugirard,Avion,48.758502,0.656632,48.774406,2.203102,113.355569881831,72.72158947250028,,,airports,OurAirports
Gare de Saumur,Gare de La Baule-Escoublac,Aérodrome de Saumur - Saint-Florent,La Baule-Escoublac Airport,Gare de Saumur,Gare de La Baule-Escoublac,Avion,47.256802,-0.115142,47.289398,-2.34639,168.37261114321973,108.0169586614439,,,airports,OurAirports
Gare de Saumur,Gare de La Roche-sur-Yon,Aérodrome de Saumur - Saint-Florent,La Roche-sur-Yon Les Ajoncs Airport,Gare de Saumur,Gare de La Roche-sur-Yon,Avion,47.256802,-0.115142,46.7019,-1.37863,113.99348657453474,73.13083549272511,,,airports,OurAirports
Gare de Savenay,Gare de Onzain - Chaumont-sur-Loire,Campbon La Berthelière Airfield,Chouzy-sur-Cisse Airfield,Gare de Savenay,Gare de Onzain - Chaumont-sur-Loire,Avion,47.420833,-2.011944,47.506944,1.232778,244.088347619429,98.37310467311144,,,airports,OurAirports
Gare de Savonnières,Gare de Ancenis,Tours Sorigny Airfield,Ancenis Airfield,Gare de Savonnières,Gare de Ancenis,Avion,47.266071,0.698691,47.4081,-1.1775,142.25616408723428,91.26233828182302,,,airports,OurAirports
Gare de Surdon,Gare de Paris Montparnasse Vaugirard,Argentan Airfield,Vélizy-Villacoublay Air Base,Gare de Surdon,Gare de Paris Montparnasse Vaugirard,Avion,48.709456,0.002856,48.774406,2.203102,161.4948634246227,103.60464132574845,,,airports,OurAirports
Gare de Surdon,Gare de Tours,Argentan Airfield,Tours Val de Loire Airport,Gare de Surdon,Gare de Tours,Avion,48.709456,0.002856,47.432201,0.727606,151.88860361248982,97.44188740768026,,,airports,OurAirports
Gare de Tours,Gare de Surdon,Tours Val de Loire Airport,Argentan Airfield,Gare de Tours,Gare de Surdon,Avion,47.432201,0.727606,48.709456,0.002856,151.88860361248982,97.44188740768026,,,airports,OurAirports
Gare de Villedieu-les-Poêles,Gare de Surdon,Avranches Le Val-Saint-Père Airfield,Argentan Airfield,Gare de Villedieu-les-Poêles,Gare de Surdon,Avion,48.662255,-1.403685,48.709456,0.002856,103.38524497320077,66.32527497583553,,,airports,OurAirports
Gare de Angers Maître École,Gare de Le Pouliguen,Soulaire Airfield,La Baule-Escoublac Airport,Gare de Angers Maître École,Gare de Le Pouliguen,Avion,47.565556,-0.549722,47.289398,-2.34639,138.5969382144863,88.91481603847376,,,airports,OurAirports
Gare de Argentan,Gare de Tours,Argentan Airfield,Tours Val de Loire Airport,Gare de Argentan,Gare de Tours,Avion,48.709456,0.002856,47.432201,0.727606,151.88860361248982,97.44188740768026,,,airports,OurAirports
Gare de Arras,Gare de Montérolier - Buchy,Arras-Roclincourt Airfield,Pavilly Airfield,Gare de Arras,Gare de Montérolier - Buchy,Avion,50.323898,2.80278,49.601111,0.9875,152.7017545850677,97.96355238866548,,,airports,OurAirports
Gare de Brest,Gare de Lamballe,Brest Bretagne airport,Saint-Brieuc-Armor Airport,Gare de Brest,Gare de Lamballe,Avion,48.447899,-4.41854,48.538628,-2.853518,115.76449294965802,74.26699844174611,,,airports,OurAirports
Gare de Bréauté - Beuzeville,Gare de Paris Saint-Lazare,Havre-Saint-Romain-de-Colbosc Airfield,Paris-Le Bourget International Airport,Gare de Bréauté - Beuzeville,Gare de Paris Saint-Lazare,Avion,49.544676,0.360403,48.962276,2.436539,164.00222538192762,105.21320230875241,,,airports,OurAirports
Gare de Caen,Gare de Mantes-la-Jolie,Caen Carpiquet airport,Mantes-Chérence Airfield,Gare de Caen,Gare de Mantes-la-Jolie,Avion,49.17678,-0.454883,49.078814,1.68829,156.31858098241744,100.2838738756075,,,airports,OurAirports
Gare de Caen,Gare de Rouen Rive Droite,Caen Carpiquet airport,Rouen Vallée de Seine Airport,Gare de Caen,Gare de Rouen Rive Droite,Avion,49.17678,-0.454883,49.384887,1.179142,120.76442236509939,77.4746292156044,,,airports,OurAirports
Gare de Conlie,Gare de Noyal - Acigné,Assé le Riboul Airfield,La Baillée sous Champ Fleu Airfield,Gare de Conlie,Gare de Noyal - Acigné,Avion,48.195278,0.099444,48.1875,-1.496389,118.29612564047245,75.89112995489972,,,airports,OurAirports
Gare de Corbie,Gare de Rouen Rive Droite,Amiens Glisy Airfield,Rouen Vallée de Seine Airport,Gare de Corbie,Gare de Rouen Rive Droite,Avion,49.873004,2.387074,49.384887,1.179142,102.54119461978358,65.78378695403553,,,airports,OurAirports
Gare de La Loupe,Gare de Tiercé,Fontaine Simon Airfield,Aérodrome privé de Soucelles,Gare de La Loupe,Gare de Tiercé,Avion,48.506027,0.991064,47.580399,-0.412269,146.547199433211,94.01518854906095,,,airports,OurAirports
Gare de La Roche-sur-Yon,Gare de Montreuil-Bellay,La Roche-sur-Yon Les Ajoncs Airport,Cizay-la-Madeleine UL,Gare de La Roche-sur-Yon,Gare de Montreuil-Bellay,Avion,46.7019,-1.37863,47.17962,-0.15915,106.73646035430846,68.47519764335769,,,airports,OurAirports
Gare de La Suze,Gare de Pornichet,Le Mans-Arnage Airport,La Baule-Escoublac Airport,Gare de La Suze,Gare de Pornichet,Avion,47.948604,0.201702,47.289398,-2.34639,204.55488417657855,82.4402280106919,,,airports,OurAirports
Gare de Laval,Gare de La Baule les Pins,Laval-Entrammes Airport,La Baule-Escoublac Airport,Gare de Laval,Gare de La Baule les Pins,Avion,48.032208,-0.743999,47.289398,-2.34639,145.67844094811258,93.45784939078281,,,airports,OurAirports
Gare de Le Croisic,Gare de Mer,La Baule-Escoublac Airport,Beaugency Airfield,Gare de Le Croisic,Gare de Mer,Avion,47.289398,-2.34639,47.749467,1.578984,299.1453042035859,120.56229889667506,,,airports,OurAirports
Gare de Le Croisic,Gare de Tours,La Baule-Escoublac Airport,Tours Val de Loire Airport,Gare de Le Croisic,Gare de Tours,Avion,47.289398,-2.34639,47.432201,0.727606,232.0655244716036,93.52763600767815,,,airports,OurAirports
Gare de Le Mans,Gare de Vitré,Le Mans-Arnage Airport,Moulins le Haut Bois Airfield,Gare de Le Mans,Gare de Vitré,Avion,47.948604,0.201702,48.001667,-1.352222,115.82217641905231,74.30400441847063,,,airports,OurAirports
Gare de Lille Flandres,Gare de Morgny,Marcq-en-Baroeul Airfield,Rouen Vallée de Seine Airport,Gare de Lille Flandres,Gare de Morgny,Avion,50.687199,3.07556,49.384887,1.179142,198.26771985971553,79.90635910841995,,,airports,OurAirports
Gare de Lorient,Gare de Pontchâteau,Lorient South Brittany (Bretagne Sud) Airport,Campbon La Berthelière Airfield,Gare de Lorient,Gare de Pontchâteau,Avion,47.760601,-3.44,47.420833,-2.011944,113.55986501943998,72.85265199676722,,,airports,OurAirports
Gare de Meung-sur-Loire,Gare de Ancenis,Cravant Les Lilas Airfield,Ancenis Airfield,Gare de Meung-sur-Loire,Gare de Ancenis,Avion,47.836706,1.617899,47.4081,-1.1775,214.8455924355438,86.5876153423396,,,airports,OurAirports
Gare de Montville,Gare de Paris Saint-Lazare,Pavilly Airfield,Paris-Le Bourget International Airport,Gare de Montville,Gare de Paris Saint-Lazare,Avion,49.601111,0.9875,48.962276,2.436539,126.85804689361444,81.38390391489077,,,airports,OurAirports
Gare de Nantes,Gare de Amboise,Nantes Atlantique Airport,Amboise Dierre Airfield,Gare de Nantes,Gare de Amboise,Avion,47.153198,-1.61073,47.339771,0.945861,194.08519680614938,78.22070806379215,,,airports,OurAirports
Gare de Orléans,Gare de Saint-Nazaire,Mardié Airfield,Saint-Nazaire-Montoir Airport,Gare de Orléans,Gare de Saint-Nazaire,Avion,47.903611,2.067778,47.31142,-2.152634,323.1318706579684,103.39218607371261,,,airports,OurAirports
Gare de Paris Montparnasse Hall 1 - 2,Gare de Argentan,Vélizy-Villacoublay Air Base,Argentan Airfield,Gare de Paris Montparnasse Hall 1 - 2,Gare de Argentan,Avion,48.774406,2.203102,48.709456,0.002856,161.4948634246227,103.60464132574845,,,airports,OurAirports
Gare de Paris Montparnasse Vaugirard,Gare de Briouze,Vélizy-Villacoublay Air Base,Aérodrome de Flers Saint-Paul,Gare de Paris Montparnasse Vaugirard,Gare de Briouze,Avion,48.774406,2.203102,48.749964,-0.593927,205.0234859119462,82.62908507008417,,,airports,OurAirports
Gare de Quimper,Gare de Vannes,Quimper-Cornouaille Airport,Vannes-Meucon Airport,Gare de Quimper,Gare de Vannes,Avion,47.973031,-4.169655,47.723301,-2.71856,111.78646637062347,71.71495431993702,,,airports,OurAirports
Gare de Rennes,Gare de Morlaix,Rennes-Saint-Jacques Airport,Morlaix-Ploujean Airport,Gare de Rennes,Gare de Morlaix,Avion,48.0695,-1.73479,48.6031990051,-3.81577992439,164.8654736707109,105.7670064820734,,,airports,OurAirports
Gare de Rennes,Gare de Plouaret Trégor,Rennes-Saint-Jacques Airport,Lannion Airport,Gare de Rennes,Gare de Plouaret Trégor,Avion,48.0695,-1.73479,48.754398,-3.47166,149.10450117375737,95.65578766145738,,,airports,OurAirports
Gare de Sablé-sur-Sarthe,Gare de La Baule les Pins,Solib'Ailes Airfield,La Baule-Escoublac Airport,Gare de Sablé-sur-Sarthe,Gare de La Baule les Pins,Avion,47.7775,-0.514167,47.289398,-2.34639,147.86859167234084,94.8629081983585,,,airports,OurAirports
Gare de Saint-Pierre-sur-Dives,Gare de Château-du-Loir,Rouvres Airfield,Saint-Pierre-de-Chevillé Airfield,Gare de Saint-Pierre-sur-Dives,Gare de Château-du-Loir,Avion,49.02,-0.198333,47.633333,0.452222,161.51589691278033,103.61813504901735,,,airports,OurAirports
Gare de Tiercé,Gare de La Baule les Pins,Aérodrome privé de Soucelles,La Baule-Escoublac Airport,Gare de Tiercé,Gare de La Baule les Pins,Avion,47.580399,-0.412269,47.289398,-2.34639,149.02635201568273,95.6056522248216,,,airports,OurAirports
Gare de Tours,Gare de Le Croisic,Tours Val de Loire Airport,La Baule-Escoublac Airport,Gare de Tours,Gare de Le Croisic,Avion,47.432201,0.727606,47.289398,-2.34639,232.0655244716036,93.52763600767815,,,airports,OurAirports
Gare de Versailles Chantiers,Gare de Folligny,Saint-Cyr-l'École Airport,Granville Airport,Gare de Versailles Chantiers,Gare de Folligny,Avion,48.812459,2.067533,48.883099,-1.56417,265.83384865442105,107.1370316296732,,,airports,OurAirports
Gare de Versailles Chantiers,Gare de Surdon,Saint-Cyr-l'École Airport,Argentan Airfield,Gare de Versailles Chantiers,Gare de Surdon,Avion,48.812459,2.067533,48.709456,0.002856,151.7687184905561,97.36497688065268,,,airports,OurAirports
Gare de Vitré,Gare de La Baule les Pins,Moulins le Haut Bois Airfield,La Baule-Escoublac Airport,Gare de Vitré,Gare de La Baule les Pins,Avion,48.001667,-1.352222,47.289398,-2.34639,108.71588505831791,69.74506828903272,,,airports,OurAirports
Gare de Albert,Gare de Longuerue - Vieux-Manoir,La Boisselle Airfield,Rouen Vallée de Seine Airport,Gare de Albert,Gare de Longuerue - Vieux-Manoir,Avion,50.015803,2.688594,49.384887,1.179142,129.25029768056874,82.91861702890458,,,airports,OurAirports
Gare de Ancenis,Gare de Orléans,Ancenis Airfield,Mardié Airfield,Gare de Ancenis,Gare de Orléans,Avion,47.4081,-1.1775,47.903611,2.067778,249.2136842522211,100.43873083667052,,,airports,OurAirports
Gare de Angers Saint-Laud,Gare de Savenay,Soulaire Airfield,Campbon La Berthelière Airfield,Gare de Angers Saint-Laud,Gare de Savenay,Avion,47.565556,-0.549722,47.420833,-2.011944,111.0302148352589,71.22979233142547,,,airports,OurAirports
Gare de Beaugency,Gare de La Baule-Escoublac,Beaugency Airfield,La Baule-Escoublac Airport,Gare de Beaugency,Gare de La Baule-Escoublac,Avion,47.749467,1.578984,47.289398,-2.34639,299.1453042035859,120.56229889667506,,,airports,OurAirports
Gare de Blois - Chambord,Gare de La Baule-Escoublac,Chouzy-sur-Cisse Airfield,La Baule-Escoublac Airport,Gare de Blois - Chambord,Gare de La Baule-Escoublac,Avion,47.506944,1.232778,47.289398,-2.34639,270.4555516033589,108.99968206914752,,,airports,OurAirports
Gare de Blois - Chambord,Gare de Le Pouliguen,Chouzy-sur-Cisse Airfield,La Baule-Escoublac Airport,Gare de Blois - Chambord,Gare de Le Pouliguen,Avion,47.506944,1.232778,47.289398,-2.34639,270.4555516033589,108.99968206914752,,,airports,OurAirports
Gare de Caen,Gare de Rennes,Caen Carpiquet airport,Rennes-Saint-Jacques Airport,Gare de Caen,Gare de Rennes,Avion,49.17678,-0.454883,48.0695,-1.73479,154.94486891600232,99.40258921485902,,,airports,OurAirports
Gare de Château-du-Loir,Gare de Surdon,Saint-Pierre-de-Chevillé Airfield,Argentan Airfield,Gare de Château-du-Loir,Gare de Surdon,Avion,47.633333,0.452222,48.709456,0.002856,124.21217759339369,79.68648559438716,,,airports,OurAirports
Gare de Courville-sur-Eure,Gare de Sablé-sur-Sarthe,Loulappe Airfield,Solib'Ailes Airfield,Gare de Courville-sur-Eure,Gare de Sablé-sur-Sarthe,Avion,48.438333,1.274444,47.7775,-0.514167,151.76924499907105,97.36531465440403,,,airports,OurAirports
Gare de Folligny,Gare de Argentan,Granville Airport,Argentan Airfield,Gare de Folligny,Gare de Argentan,Avion,48.883099,-1.56417,48.709456,0.002856,116.39252773821963,74.66990487250939,,,airports,OurAirports
Gare de Folligny,Gare de Verneuil-sur-Avre,Granville Airport,Le Buternay Airfield,Gare de Folligny,Gare de Verneuil-sur-Avre,Avion,48.883099,-1.56417,48.611944,0.841944,178.96512873244777,114.81243167090511,,,airports,OurAirports
Gare de La Bonneville-sur-Iton,Gare de Caen,Évreux-Fauville (BA 105) Air Base,Caen Carpiquet airport,Gare de La Bonneville-sur-Iton,Gare de Caen,Avion,49.028702,1.21986,49.17678,-0.454883,123.02520634281758,78.92500174238026,,,airports,OurAirports
Gare de La Chaize-le-Vicomte,Gare de Langeais,La Roche-sur-Yon Les Ajoncs Airport,Hommes Volants Ultralight Airfield,Gare de La Chaize-le-Vicomte,Gare de Langeais,Avion,46.7019,-1.37863,47.418534,0.323495,151.56648552088612,97.23523730973017,,,airports,OurAirports
Gare de Le Mans,Gare de Chartres,Le Mans-Arnage Airport,Chartres-Métropole Airfield,Gare de Le Mans,Gare de Chartres,Avion,47.948604,0.201702,48.457502,1.519843,112.89169088504315,72.42399476229339,,,airports,OurAirports
Gare de Le Mans,Gare de La Baule-Escoublac,Le Mans-Arnage Airport,La Baule-Escoublac Airport,Gare de Le Mans,Gare de La Baule-Escoublac,Avion,47.948604,0.201702,47.289398,-2.34639,204.55488417657855,82.4402280106919,,,airports,OurAirports
Gare de Le Pouliguen,Gare de Angers Saint-Laud,La Baule-Escoublac Airport,Soulaire Airfield,Gare de Le Pouliguen,Gare de Angers Saint-Laud,Avion,47.289398,-2.34639,47.565556,-0.549722,138.5969382144863,88.91481603847376,,,airports,OurAirports
Gare de Le Vieux Briollay,Gare de La Baule les Pins,Soulaire Airfield,La Baule-Escoublac Airport,Gare de Le Vieux Briollay,Gare de La Baule les Pins,Avion,47.565556,-0.549722,47.289398,-2.34639,138.5969382144863,88.91481603847376,,,airports,OurAirports
Gare de Lisieux,Gare de Valognes,La Boissière Airfield,Cherbourg Manche airport,Gare de Lisieux,Gare de Valognes,Avion,49.124774,0.142758,49.650101,-1.47028,130.5473218755528,83.75070371985288,,,airports,OurAirports
Gare de Lison,Gare de Rennes,Mosles Airfield,Rennes-Saint-Jacques Airport,Gare de Lison,Gare de Rennes,Avion,49.30083,-0.81183,48.0695,-1.73479,152.7620805551328,98.00225362261612,,,airports,OurAirports
Gare de Lorient,Gare de Rennes,Lorient South Brittany (Bretagne Sud) Airport,Rennes-Saint-Jacques Airport,Gare de Lorient,Gare de Rennes,Avion,47.760601,-3.44,48.0695,-1.73479,131.63988826574874,84.45162352981112,,,airports,OurAirports
Gare de Meung-sur-Loire,Gare de Batz-sur-Mer,Cravant Les Lilas Airfield,La Baule-Escoublac Airport,Gare de Meung-sur-Loire,Gare de Batz-sur-Mer,Avion,47.836706,1.617899,47.289398,-2.34639,303.5734755013084,122.34695171943295,,,airports,OurAirports
Gare de Montreuil-Bellay,Gare de La Roche-sur-Yon,Cizay-la-Madeleine UL,La Roche-sur-Yon Les Ajoncs Airport,Gare de Montreuil-Bellay,Gare de La Roche-sur-Yon,Avion,47.17962,-0.15915,46.7019,-1.37863,106.73646035430846,68.47519764335769,,,airports,OurAirports
Gare de Nantes,Gare de Brest,Nantes Atlantique Airport,Brest Bretagne airport,Gare de Nantes,Gare de Brest,Avion,47.153198,-1.61073,48.447899,-4.41854,254.3501684540715,102.50884972177289,,,airports,OurAirports
Gare de Paris Saint-Lazare,Gare de Le Havre,Paris-Le Bourget International Airport,Le Havre-Octeville Airport,Gare de Paris Saint-Lazare,Gare de Le Havre,Avion,48.962276,2.436539,49.534038,0.088406,181.90395692403064,116.69779343567143,,,airports,OurAirports
Gare de Paris Saint-Lazare,Gare de Lisieux,Paris-Le Bourget International Airport,La Boissière Airfield,Gare de Paris Saint-Lazare,Gare de Lisieux,Avion,48.962276,2.436539,49.124774,0.142758,168.15302099546585,107.8760838496123,,,airports,OurAirports
Gare de Pornichet,Gare de Sablé-sur-Sarthe,La Baule-Escoublac Airport,Solib'Ailes Airfield,Gare de Pornichet,Gare de Sablé-sur-Sarthe,Avion,47.289398,-2.34639,47.7775,-0.514167,147.86859167234084,94.8629081983585,,,airports,OurAirports
Gare de Rambouillet,Gare de Champagné,La Fontaine au Berger Airfield,Le Mans-Arnage Airport,Gare de Rambouillet,Gare de Champagné,Avion,48.582222,1.728889,47.948604,0.201702,133.19751668832168,85.45089700896287,,,airports,OurAirports
Gare de Redon,Gare de Quimperlé,Redon Bains-sur-Oust Airfield,Mellac Ultralight Airfield,Gare de Redon,Gare de Quimperlé,Avion,47.699402,-2.03667,47.912079,-3.565698,116.61431796062207,74.81219110969543,,,airports,OurAirports
Gare de Rennes,Gare de Audrieu,Rennes-Saint-Jacques Airport,Caen Carpiquet airport,Gare de Rennes,Gare de Audrieu,Avion,48.0695,-1.73479,49.17678,-0.454883,154.94486891600232,99.40258921485902,,,airports,OurAirports
Gare de Rennes,Gare de Hennebont,Rennes-Saint-Jacques Airport,Lorient South Brittany (Bretagne Sud) Airport,Gare de Rennes,Gare de Hennebont,Avion,48.0695,-1.73479,47.760601,-3.44,131.63988826574874,84.45162352981112,,,airports,OurAirports
Gare de Saint-Nazaire,Gare de Blois - Chambord,Saint-Nazaire-Montoir Airport,Chouzy-sur-Cisse Airfield,Gare de Saint-Nazaire,Gare de Blois - Chambord,Avion,47.31142,-2.152634,47.506944,1.232778,255.66465896990678,103.03861902197599,,,airports,OurAirports
Gare de Saint-Pierre-des-Corps,Gare de La Baule-Escoublac,Tours Val de Loire Airport,La Baule-Escoublac Airport,Gare de Saint-Pierre-des-Corps,Gare de La Baule-Escoublac,Avion,47.432201,0.727606,47.289398,-2.34639,232.0655244716036,93.52763600767815,,,airports,OurAirports
Gare de Saumur,Gare de La Baule les Pins,Aérodrome de Saumur - Saint-Florent,La Baule-Escoublac Airport,Gare de Saumur,Gare de La Baule les Pins,Avion,47.256802,-0.115142,47.289398,-2.34639,168.37261114321973,108.0169586614439,,,airports,OurAirports
Gare de Savenay,Gare de Blois - Chambord,Campbon La Berthelière Airfield,Chouzy-sur-Cisse Airfield,Gare de Savenay,Gare de Blois - Chambord,Avion,47.420833,-2.011944,47.506944,1.232778,244.088347619429,98.37310467311144,,,airports,OurAirports
Gare de Versailles Chantiers,Gare de La Ferté-Bernard,Saint-Cyr-l'École Airport,BELLEME St Germain de la Coudr Airfield,Gare de Versailles Chantiers,Gare de La Ferté-Bernard,Avion,48.812459,2.067533,48.300556,0.581111,123.31680112880906,79.11207006501584,,,airports,OurAirports
Gare de Vitré,Gare de La Baule-Escoublac,Moulins le Haut Bois Airfield,La Baule-Escoublac Airport,Gare de Vitré,Gare de La Baule-Escoublac,Avion,48.001667,-1.352222,47.289398,-2.34639,108.71588505831791,69.74506828903272,,,airports,OurAirports
Gare de Vitré,Gare de Pornichet,Moulins le Haut Bois Airfield,La Baule-Escoublac Airport,Gare de Vitré,Gare de Pornichet,Avion,48.001667,-1.352222,47.289398,-2.34639,108.71588505831791,69.74506828903272,,,airports,OurAirports
Gare de Amboise,Gare de Ancenis,Amboise Dierre Airfield,Ancenis Airfield,Gare de Amboise,Gare de Ancenis,Avion,47.339771,0.945861,47.4081,-1.1775,160.0696042377475,102.69028737218537,,,airports,OurAirports
Gare de Amboise,Gare de Saint-Nazaire,Amboise Dierre Airfield,Saint-Nazaire-Montoir Airport,Gare de Amboise,Gare de Saint-Nazaire,Avion,47.339771,0.945861,47.31142,-2.152634,233.543792757275,94.12341143989187,,,airports,OurAirports
Gare de Ancenis,Gare de Meung-sur-Loire,Ancenis Airfield,Cravant Les Lilas Airfield,Gare de Ancenis,Gare de Meung-sur-Loire,Avion,47.4081,-1.1775,47.836706,1.617899,214.8455924355438,86.5876153423396,,,airports,OurAirports
Gare de Angers Maître École,Gare de La Baule les Pins,Soulaire Airfield,La Baule-Escoublac Airport,Gare de Angers Maître École,Gare de La Baule les Pins,Avion,47.565556,-0.549722,47.289398,-2.34639,138.5969382144863,88.91481603847376,,,airports,OurAirports
Gare de Beaugency,Gare de Pornichet,Beaugency Airfield,La Baule-Escoublac Airport,Gare de Beaugency,Gare de Pornichet,Avion,47.749467,1.578984,47.289398,-2.34639,299.1453042035859,120.56229889667506,,,airports,OurAirports
Gare de Blois - Chambord,Gare de Nantes,Chouzy-sur-Cisse Airfield,Nantes Atlantique Airport,Gare de Blois - Chambord,Gare de Nantes,Avion,47.506944,1.232778,47.153198,-1.61073,217.86783828874903,87.80564852813012,,,airports,OurAirports
Gare de Chartres,Gare de Noyen,Chartres-Métropole Airfield,La Flèche-Thorée-les-Pins Airfield,Gare de Chartres,Gare de Noyen,Avion,48.457502,1.519843,47.69261,-0.002198,141.49153872407433,90.77180418792763,,,airports,OurAirports
Gare de Cherbourg,Gare de Évreux Normandie,Cherbourg Manche airport,Évreux-Fauville (BA 105) Air Base,Gare de Cherbourg,Gare de Évreux Normandie,Avion,49.650101,-1.47028,49.028702,1.21986,206.77721574712803,83.33587771433479,,,airports,OurAirports
Gare de Château-du-Loir,Gare de Sées,Saint-Pierre-de-Chevillé Airfield,Argentan Airfield,Gare de Château-du-Loir,Gare de Sées,Avion,47.633333,0.452222,48.709456,0.002856,124.21217759339369,79.68648559438716,,,airports,OurAirports
Gare de Châteaubourg,Gare de Conlie,La Baillée sous Champ Fleu Airfield,Assé le Riboul Airfield,Gare de Châteaubourg,Gare de Conlie,Avion,48.1875,-1.496389,48.195278,0.099444,118.29612564047245,75.89112995489972,,,airports,OurAirports
Gare de Cinq-Mars-la-Pile,Gare de La Roche-sur-Yon,Hommes Volants Ultralight Airfield,La Roche-sur-Yon Les Ajoncs Airport,Gare de Cinq-Mars-la-Pile,Gare de La Roche-sur-Yon,Avion,47.418534,0.323495,46.7019,-1.37863,151.56648552088612,97.23523730973017,,,airports,OurAirports
Gare de Condé-sur-Huisne,Gare de Angers Saint-Laud,Champrond Le Petit Bois Landry Ultralight Airfield,Soulaire Airfield,Gare de Condé-sur-Huisne,Gare de Angers Saint-Laud,Avion,48.39361,1.05753,47.565556,-0.549722,150.95791082170976,96.84481521152195,,,airports,OurAirports
Gare de Gazeran,Gare de Saint-Mars-la-Brière,La Fontaine au Berger Airfield,Le Mans-Arnage Airport,Gare de Gazeran,Gare de Saint-Mars-la-Brière,Avion,48.582222,1.728889,47.948604,0.201702,133.19751668832168,85.45089700896287,,,airports,OurAirports
Gare de Granville,Gare de Argentan,Granville Airport,Argentan Airfield,Gare de Granville,Gare de Argentan,Avion,48.883099,-1.56417,48.709456,0.002856,116.39252773821963,74.66990487250939,,,airports,OurAirports
Gare de L'Aigle,Gare de Paris Montparnasse Hall 1 - 2,L'Aigle-Saint-Michel Airfield,Vélizy-Villacoublay Air Base,Gare de L'Aigle,Gare de Paris Montparnasse Hall 1 - 2,Avion,48.758502,0.656632,48.774406,2.203102,113.355569881831,72.72158947250028,,,airports,OurAirports
Gare de La Ferté-Bernard,Gare de Le Vieux Briollay,BELLEME St Germain de la Coudr Airfield,Soulaire Airfield,Gare de La Ferté-Bernard,Gare de Le Vieux Briollay,Avion,48.300556,0.581111,47.565556,-0.549722,117.37365841361003,75.2993347476271,,,airports,OurAirports
Gare de La Loupe,Gare de Sablé-sur-Sarthe,Fontaine Simon Airfield,Solib'Ailes Airfield,Gare de La Loupe,Gare de Sablé-sur-Sarthe,Avion,48.506027,0.991064,47.7775,-0.514167,137.9680061863285,88.51133399691656,,,airports,OurAirports
Gare de La Suze,Gare de Batz-sur-Mer,Le Mans-Arnage Airport,La Baule-Escoublac Airport,Gare de La Suze,Gare de Batz-sur-Mer,Avion,47.948604,0.201702,47.289398,-2.34639,204.55488417657855,82.4402280106919,,,airports,OurAirports
Gare de La Suze,Gare de Le Pouliguen,Le Mans-Arnage Airport,La Baule-Escoublac Airport,Gare de La Suze,Gare de Le Pouliguen,Avion,47.948604,0.201702,47.289398,-2.34639,204.55488417657855,82.4402280106919,,,airports,OurAirports
Gare de Lamballe,Gare de Brest,Saint-Brieuc-Armor Airport,Brest Bretagne airport,Gare de Lamballe,Gare de Brest,Avion,48.538628,-2.853518,48.447899,-4.41854,115.76449294965802,74.26699844174611,,,airports,OurAirports
Gare de Le Croisic,Gare de Sablé-sur-Sarthe,La Baule-Escoublac Airport,Solib'Ailes Airfield,Gare de Le Croisic,Gare de Sablé-sur-Sarthe,Avion,47.289398,-2.34639,47.7775,-0.514167,147.86859167234084,94.8629081983585,,,airports,OurAirports
Gare de Le Pouliguen,Gare de Orléans,La Baule-Escoublac Airport,Mardié Airfield,Gare de Le Pouliguen,Gare de Orléans,Avion,47.289398,-2.34639,47.903611,2.067778,337.9140180492338,108.12201520054764,,,airports,OurAirports
Gare de Le Vieux Briollay,Gare de Savenay,Soulaire Airfield,Campbon La Berthelière Airfield,Gare de Le Vieux Briollay,Gare de Savenay,Avion,47.565556,-0.549722,47.420833,-2.011944,111.0302148352589,71.22979233142547,,,airports,OurAirports
Gare de Lisieux,Gare de Carentan,La Boissière Airfield,Lessay Airfield,Gare de Lisieux,Gare de Carentan,Avion,49.124774,0.142758,49.202276,-1.507983,120.33297763804676,77.19784223148439,,,airports,OurAirports
Gare de Lorient,Gare de Brest,Lorient South Brittany (Bretagne Sud) Airport,Brest Bretagne airport,Gare de Lorient,Gare de Brest,Avion,47.760601,-3.44,48.447899,-4.41854,105.45016307629845,67.6499926473566,,,airports,OurAirports
Gare de Montlouis,Gare de Nantes,Tours Val de Loire Airport,Nantes Atlantique Airport,Gare de Montlouis,Gare de Nantes,Avion,47.432201,0.727606,47.153198,-1.61073,179.0541250058952,114.86952591399326,,,airports,OurAirports
Gare de Morlaix,Gare de Montauban-de-Bretagne,Morlaix-Ploujean Airport,Queneleuc Airfield,Gare de Morlaix,Gare de Montauban-de-Bretagne,Avion,48.6031990051,-3.81577992439,48.098333,-2.076389,140.2554919359009,89.97883665054013,,,airports,OurAirports
Gare de Nantes,Gare de Auray,Nantes Atlantique Airport,Vannes-Meucon Airport,Gare de Nantes,Gare de Auray,Avion,47.153198,-1.61073,47.723301,-2.71856,104.69258996271121,67.16398281988076,,,airports,OurAirports
Gare de Nantes,Gare de Saint-Pierre-des-Corps,Nantes Atlantique Airport,Tours Val de Loire Airport,Gare de Nantes,Gare de Saint-Pierre-des-Corps,Avion,47.153198,-1.61073,47.432201,0.727606,179.0541250058952,114.86952591399326,,,airports,OurAirports
Gare de Neuville,Gare de Mézidon - Canon,Le Mans-Arnage Airport,Rouvres Airfield,Gare de Neuville,Gare de Mézidon - Canon,Avion,47.948604,0.201702,49.02,-0.198333,122.72744809943227,78.73397934480339,,,airports,OurAirports
Gare de Onzain - Chaumont-sur-Loire,Gare de La Baule les Pins,Chouzy-sur-Cisse Airfield,La Baule-Escoublac Airport,Gare de Onzain - Chaumont-sur-Loire,Gare de La Baule les Pins,Avion,47.506944,1.232778,47.289398,-2.34639,270.4555516033589,108.99968206914752,,,airports,OurAirports
Gare de Paris Saint-Lazare,Gare de Auffay,Paris-Le Bourget International Airport,Lammerville Airfield,Gare de Paris Saint-Lazare,Gare de Auffay,Avion,48.962276,2.436539,49.805556,0.973333,141.45464242521308,90.74813391304268,,,airports,OurAirports
Gare de Pontchâteau,Gare de Quimper,Campbon La Berthelière Airfield,Quimper-Cornouaille Airport,Gare de Pontchâteau,Gare de Quimper,Avion,47.420833,-2.011944,47.973031,-4.169655,172.75507222764418,110.82846175911217,,,airports,OurAirports
Gare de Pornichet,Gare de Beaugency,La Baule-Escoublac Airport,Beaugency Airfield,Gare de Pornichet,Gare de Beaugency,Avion,47.289398,-2.34639,47.749467,1.578984,299.1453042035859,120.56229889667506,,,airports,OurAirports
Gare de Rennes,Gare de Conlie,Rennes-Saint-Jacques Airport,Assé le Riboul Airfield,Gare de Rennes,Gare de Conlie,Avion,48.0695,-1.73479,48.195278,0.099444,136.836890628061,87.78568353827536,,,airports,OurAirports
Gare de Rennes,Gare de Coutances,Rennes-Saint-Jacques Airport,Lessay Airfield,Gare de Rennes,Gare de Coutances,Avion,48.0695,-1.73479,49.202276,-1.507983,127.05658843460066,81.51127530433276,,,airports,OurAirports
Gare de Sainte-Gauburge,Gare de Villedieu-les-Poêles,L'Aigle-Saint-Michel Airfield,Avranches Le Val-Saint-Père Airfield,Gare de Sainte-Gauburge,Gare de Villedieu-les-Poêles,Avion,48.758502,0.656632,48.662255,-1.403685,151.54676862403713,97.22258822614461,,,airports,OurAirports
Gare de Savenay,Gare de Saint-Pierre-des-Corps,Campbon La Berthelière Airfield,Tours Val de Loire Airport,Gare de Savenay,Gare de Saint-Pierre-des-Corps,Avion,47.420833,-2.011944,47.432201,0.727606,206.08213586487147,83.0557448580134,,,airports,OurAirports
Gare de Tiercé,Gare de Le Croisic,Aérodrome privé de Soucelles,La Baule-Escoublac Airport,Gare de Tiercé,Gare de Le Croisic,Avion,47.580399,-0.412269,47.289398,-2.34639,149.02635201568273,95.6056522248216,,,airports,OurAirports
Gare de Tours,Gare de Savenay,Tours Val de Loire Airport,Campbon La Berthelière Airfield,Gare de Tours,Gare de Savenay,Avion,47.432201,0.727606,47.420833,-2.011944,206.08213586487147,83.0557448580134,,,airports,OurAirports
Gare de Écommoy,Gare de Saint-Pierre-sur-Dives,Le Mans-Arnage Airport,Rouvres Airfield,Gare de Écommoy,Gare de Saint-Pierre-sur-Dives,Avion,47.948604,0.201702,49.02,-0.198333,122.72744809943227,78.73397934480339,,,airports,OurAirports
Gare de Étriché - Châteauneuf,Gare de La Baule-Escoublac,Aérodrome privé de Soucelles,La Baule-Escoublac Airport,Gare de Étriché - Châteauneuf,Gare de La Baule-Escoublac,Avion,47.580399,-0.412269,47.289398,-2.34639,149.02635201568273,95.6056522248216,,,airports,OurAirports
Gare de Batz-sur-Mer,Gare de Onzain - Chaumont-sur-Loire,La Baule-Escoublac Airport,Chouzy-sur-Cisse Airfield,Gare de Batz-sur-Mer,Gare de Onzain - Chaumont-sur-Loire,Avion,47.289398,-2.34639,47.506944,1.232778,270.4555516033589,108.99968206914752,,,airports,OurAirports
Gare de Brest,Gare de Guingamp,Brest Bretagne airport,Kerfot Ultralight Airfield,Gare de Brest,Gare de Guingamp,Avion,48.447899,-4.41854,48.723882,-3.027055,106.8505454107375,68.54838722413638,,,airports,OurAirports
Gare de Brest,Gare de Lorient,Brest Bretagne airport,Lorient South Brittany (Bretagne Sud) Airport,Gare de Brest,Gare de Lorient,Avion,48.447899,-4.41854,47.760601,-3.44,105.45016307629845,67.6499926473566,,,airports,OurAirports
Gare de Brest,Gare de Quédillac,Brest Bretagne airport,Queneleuc Airfield,Gare de Brest,Gare de Quédillac,Avion,48.447899,-4.41854,48.098333,-2.076389,177.63753712332235,113.96073490746774,,,airports,OurAirports
Gare de Bretoncelles,Gare de Morannes,Fontaine Simon Airfield,Solib'Ailes Airfield,Gare de Bretoncelles,Gare de Morannes,Avion,48.506027,0.991064,47.7775,-0.514167,137.9680061863285,88.51133399691656,,,airports,OurAirports
Gare de Bretoncelles,Gare de Étriché - Châteauneuf,Fontaine Simon Airfield,Aérodrome privé de Soucelles,Gare de Bretoncelles,Gare de Étriché - Châteauneuf,Avion,48.506027,0.991064,47.580399,-0.412269,146.547199433211,94.01518854906095,,,airports,OurAirports
Gare de Caen,Gare de Dol-de-Bretagne,Caen Carpiquet airport,Le Haut des Places Airfield,Gare de Caen,Gare de Dol-de-Bretagne,Avion,49.17678,-0.454883,48.474167,-1.591111,114.11361814716966,73.20790412655536,,,airports,OurAirports
Gare de Caen,Gare de Tours,Caen Carpiquet airport,Tours Val de Loire Airport,Gare de Caen,Gare de Tours,Avion,49.17678,-0.454883,47.432201,0.727606,212.78622175539462,85.75764254988611,,,airports,OurAirports
Gare de Chartres,Gare de Angers Maître École,Chartres-Métropole Airfield,Soulaire Airfield,Gare de Chartres,Gare de Angers Maître École,Avion,48.457502,1.519843,47.565556,-0.549722,183.12120217497912,117.47869912490316,,,airports,OurAirports
Gare de Clères,Gare de Paris Saint-Lazare,Pavilly Airfield,Paris-Le Bourget International Airport,Gare de Clères,Gare de Paris Saint-Lazare,Avion,49.601111,0.9875,48.962276,2.436539,126.85804689361444,81.38390391489077,,,airports,OurAirports
Gare de Condé-sur-Huisne,Gare de Sablé-sur-Sarthe,Champrond Le Petit Bois Landry Ultralight Airfield,Solib'Ailes Airfield,Gare de Condé-sur-Huisne,Gare de Sablé-sur-Sarthe,Avion,48.39361,1.05753,47.7775,-0.514167,135.358816362329,86.83744685193977,,,airports,OurAirports
Gare de Courville-sur-Eure,Gare de Le Vieux Briollay,Loulappe Airfield,Soulaire Airfield,Gare de Courville-sur-Eure,Gare de Le Vieux Briollay,Avion,48.438333,1.274444,47.565556,-0.549722,166.84055859708903,107.03409300758885,,,airports,OurAirports
Gare de Granville,Gare de Dreux,Granville Airport,Dreux Vernouillet Airfield,Gare de Granville,Gare de Dreux,Avion,48.883099,-1.56417,48.70543,1.361155,215.17909202208585,86.7220231911997,,,airports,OurAirports
Gare de La Guierche,Gare de Caen,Assé le Riboul Airfield,Caen Carpiquet airport,Gare de La Guierche,Gare de Caen,Avion,48.195278,0.099444,49.17678,-0.454883,116.47662229890472,74.72385449426494,,,airports,OurAirports
Gare de La Loupe,Gare de Étriché - Châteauneuf,Fontaine Simon Airfield,Aérodrome privé de Soucelles,Gare de La Loupe,Gare de Étriché - Châteauneuf,Avion,48.506027,0.991064,47.580399,-0.412269,146.547199433211,94.01518854906095,,,airports,OurAirports
Gare de La Suze,Gare de La Baule-Escoublac,Le Mans-Arnage Airport,La Baule-Escoublac Airport,Gare de La Suze,Gare de La Baule-Escoublac,Avion,47.948604,0.201702,47.289398,-2.34639,204.55488417657855,82.4402280106919,,,airports,OurAirports
Gare de La Suze,Gare de Nantes,Le Mans-Arnage Airport,Nantes Atlantique Airport,Gare de La Suze,Gare de Nantes,Avion,47.948604,0.201702,47.153198,-1.61073,162.24140453184822,104.08357373269232,,,airports,OurAirports
Gare de Laval,Gare de Saint-Nazaire,Laval-Entrammes Airport,Saint-Nazaire-Montoir Airport,Gare de Laval,Gare de Saint-Nazaire,Avion,48.032208,-0.743999,47.31142,-2.152634,132.46609139187126,84.98166192687809,,,airports,OurAirports
Gare de Le Mans,Gare de Mézidon - Canon,Le Mans-Arnage Airport,Rouvres Airfield,Gare de Le Mans,Gare de Mézidon - Canon,Avion,47.948604,0.201702,49.02,-0.198333,122.72744809943227,78.73397934480339,,,airports,OurAirports
Gare de Le Theil - La Rouge,Gare de Angers Saint-Laud,BELLEME St Germain de la Coudr Airfield,Soulaire Airfield,Gare de Le Theil - La Rouge,Gare de Angers Saint-Laud,Avion,48.300556,0.581111,47.565556,-0.549722,117.37365841361003,75.2993347476271,,,airports,OurAirports
Gare de Le Theil - La Rouge,Gare de Morannes,BELLEME St Germain de la Coudr Airfield,Solib'Ailes Airfield,Gare de Le Theil - La Rouge,Gare de Morannes,Avion,48.300556,0.581111,47.7775,-0.514167,100.06724179086339,64.19665910326812,,,airports,OurAirports
Gare de Lison,Gare de Évreux Normandie,Mosles Airfield,Évreux-Fauville (BA 105) Air Base,Gare de Lison,Gare de Évreux Normandie,Avion,49.30083,-0.81183,49.028702,1.21986,150.78403030386295,96.73326473676977,,,airports,OurAirports
Gare de Mer,Gare de Nantes,Beaugency Airfield,Nantes Atlantique Airport,Gare de Mer,Gare de Nantes,Avion,47.749467,1.578984,47.153198,-1.61073,248.81507454609104,100.27808214234616,,,airports,OurAirports
Gare de Montérolier - Buchy,Gare de Lille Flandres,Pavilly Airfield,Marcq-en-Baroeul Airfield,Gare de Montérolier - Buchy,Gare de Lille Flandres,Avion,49.601111,0.9875,50.687199,3.07556,191.62446245497142,77.22897666709895,,,airports,OurAirports
Gare de Morannes,Gare de Pornichet,Solib'Ailes Airfield,La Baule-Escoublac Airport,Gare de Morannes,Gare de Pornichet,Avion,47.7775,-0.514167,47.289398,-2.34639,147.86859167234084,94.8629081983585,,,airports,OurAirports
Gare de Nantes,Gare de Saumur,Nantes Atlantique Airport,Aérodrome de Saumur - Saint-Florent,Gare de Nantes,Gare de Saumur,Avion,47.153198,-1.61073,47.256802,-0.115142,113.56568973970899,72.85638875991556,,,airports,OurAirports
Gare de Nogent-le-Rotrou,Gare de Paris Montparnasse Hall 1 - 2,BELLEME St Germain de la Coudr Airfield,Vélizy-Villacoublay Air Base,Gare de Nogent-le-Rotrou,Gare de Paris Montparnasse Hall 1 - 2,Avion,48.300556,0.581111,48.774406,2.203102,130.5235113210441,83.73542841073575,,,airports,OurAirports
Gare de Paris Montparnasse Hall 1 - 2,Gare de Le Mans,Vélizy-Villacoublay Air Base,Le Mans-Arnage Airport,Gare de Paris Montparnasse Hall 1 - 2,Gare de Le Mans,Avion,48.774406,2.203102,47.948604,0.201702,174.04885523198755,111.65846911213804,,,airports,OurAirports
Gare de Pornichet,Gare de Le Mans,La Baule-Escoublac Airport,Le Mans-Arnage Airport,Gare de Pornichet,Gare de Le Mans,Avion,47.289398,-2.34639,47.948604,0.201702,204.55488417657855,82.4402280106919,,,airports,OurAirports
Gare de Saint-Patrice,Gare de Ancenis,Hommes Volants Ultralight Airfield,Ancenis Airfield,Gare de Saint-Patrice,Gare de Ancenis,Avion,47.418534,0.323495,47.4081,-1.1775,112.94829893483406,72.46031081947545,,,airports,OurAirports
Gare de Saint-Pierre-des-Corps,Gare de Orléans,Tours Val de Loire Airport,Mardié Airfield,Gare de Saint-Pierre-des-Corps,Gare de Orléans,Avion,47.432201,0.727606,47.903611,2.067778,113.21729014778877,72.63287815410749,,,airports,OurAirports
Gare de Tiercé,Gare de Savenay,Aérodrome privé de Soucelles,Campbon La Berthelière Airfield,Gare de Tiercé,Gare de Savenay,Avion,47.580399,-0.412269,47.420833,-2.011944,121.47022678465734,77.92742760301911,,,airports,OurAirports
Gare de Tours,Gare de Argentan,Tours Val de Loire Airport,Argentan Airfield,Gare de Tours,Gare de Argentan,Avion,47.432201,0.727606,48.709456,0.002856,151.88860361248982,97.44188740768026,,,airports,OurAirports
Gare de Tours,Gare de Le Pouliguen,Tours Val de Loire Airport,La Baule-Escoublac Airport,Gare de Tours,Gare de Le Pouliguen,Avion,47.432201,0.727606,47.289398,-2.34639,232.0655244716036,93.52763600767815,,,airports,OurAirports
Gare de Vivoin - Beaumont,Gare de Caen,Assé le Riboul Airfield,Caen Carpiquet airport,Gare de Vivoin - Beaumont,Gare de Caen,Avion,48.195278,0.099444,49.17678,-0.454883,116.47662229890472,74.72385449426494,,,airports,OurAirports
Gare de Angers Maître École,Gare de Savenay,Soulaire Airfield,Campbon La Berthelière Airfield,Gare de Angers Maître École,Gare de Savenay,Avion,47.565556,-0.549722,47.420833,-2.011944,111.0302148352589,71.22979233142547,,,airports,OurAirports
Gare de Angers Saint-Laud,Gare de La Baule-Escoublac,Soulaire Airfield,La Baule-Escoublac Airport,Gare de Angers Saint-Laud,Gare de La Baule-Escoublac,Avion,47.565556,-0.549722,47.289398,-2.34639,138.5969382144863,88.91481603847376,,,airports,OurAirports
Gare de Angers Saint-Laud,Gare de Orléans,Soulaire Airfield,Mardié Airfield,Gare de Angers Saint-Laud,Gare de Orléans,Avion,47.565556,-0.549722,47.903611,2.067778,199.31820687103752,80.32972904692946,,,airports,OurAirports
Gare de Audrieu,Gare de Pontchaillou,Caen Carpiquet airport,Rennes-Saint-Jacques Airport,Gare de Audrieu,Gare de Pontchaillou,Avion,49.17678,-0.454883,48.0695,-1.73479,154.94486891600232,99.40258921485902,,,airports,OurAirports
Gare de Batz-sur-Mer,Gare de Tours,La Baule-Escoublac Airport,Tours Val de Loire Airport,Gare de Batz-sur-Mer,Gare de Tours,Avion,47.289398,-2.34639,47.432201,0.727606,232.0655244716036,93.52763600767815,,,airports,OurAirports
Gare de Bernay,Gare de Lison,Bernay-Saint-Martin Airfield,Mosles Airfield,Gare de Bernay,Gare de Lison,Avion,49.102351,0.565882,49.30083,-0.81183,102.4998382272235,65.75725537199723,,,airports,OurAirports
Gare de Chartres,Gare de Voivres,Chartres-Métropole Airfield,Le Mans-Arnage Airport,Gare de Chartres,Gare de Voivres,Avion,48.457502,1.519843,47.948604,0.201702,112.89169088504315,72.42399476229339,,,airports,OurAirports
Gare de Cinq-Mars-la-Pile,Gare de Pornichet,Hommes Volants Ultralight Airfield,La Baule-Escoublac Airport,Gare de Cinq-Mars-la-Pile,Gare de Pornichet,Avion,47.418534,0.323495,47.289398,-2.34639,201.62679441536304,81.26014185180067,,,airports,OurAirports
Gare de Fougeré,Gare de Tours,La Roche-sur-Yon Les Ajoncs Airport,Tours Val de Loire Airport,Gare de Fougeré,Gare de Tours,Avion,46.7019,-1.37863,47.432201,0.727606,178.9961891180568,114.83235800194888,,,airports,OurAirports
Gare de La Baule les Pins,Gare de Saint-Pierre-des-Corps,La Baule-Escoublac Airport,Tours Val de Loire Airport,Gare de La Baule les Pins,Gare de Saint-Pierre-des-Corps,Avion,47.289398,-2.34639,47.432201,0.727606,232.0655244716036,93.52763600767815,,,airports,OurAirports
Gare de La Suze,Gare de Ancenis,Le Mans-Arnage Airport,Ancenis Airfield,Gare de La Suze,Gare de Ancenis,Avion,47.948604,0.201702,47.4081,-1.1775,119.47120359893898,76.64498384124045,,,airports,OurAirports
Gare de La Villette Saint-Prest,Gare de Le Mans,Chartres-Métropole Airfield,Le Mans-Arnage Airport,Gare de La Villette Saint-Prest,Gare de Le Mans,Avion,48.457502,1.519843,47.948604,0.201702,112.89169088504315,72.42399476229339,,,airports,OurAirports
Gare de Langeais,Gare de Savenay,Hommes Volants Ultralight Airfield,Campbon La Berthelière Airfield,Gare de Langeais,Gare de Savenay,Avion,47.418534,0.323495,47.420833,-2.011944,175.70513198639478,112.7210289696943,,,airports,OurAirports
Gare de Le Mans,Gare de Maintenon,Le Mans-Arnage Airport,Les Ailes d'Eure et Loir Airfield,Gare de Le Mans,Gare de Maintenon,Avion,47.948604,0.201702,48.59244,1.53759,122.0673885892981,78.31052792752028,,,airports,OurAirports
Gare de Le Molay-Littry,Gare de Pontchaillou,Mosles Airfield,Rennes-Saint-Jacques Airport,Gare de Le Molay-Littry,Gare de Pontchaillou,Avion,49.30083,-0.81183,48.0695,-1.73479,152.7620805551328,98.00225362261612,,,airports,OurAirports
Gare de Mer,Gare de Le Pouliguen,Beaugency Airfield,La Baule-Escoublac Airport,Gare de Mer,Gare de Le Pouliguen,Avion,47.749467,1.578984,47.289398,-2.34639,299.1453042035859,120.56229889667506,,,airports,OurAirports
Gare de Mer,Gare de Pornichet,Beaugency Airfield,La Baule-Escoublac Airport,Gare de Mer,Gare de Pornichet,Avion,47.749467,1.578984,47.289398,-2.34639,299.1453042035859,120.56229889667506,,,airports,OurAirports
Gare de Morannes,Gare de Le Pouliguen,Solib'Ailes Airfield,La Baule-Escoublac Airport,Gare de Morannes,Gare de Le Pouliguen,Avion,47.7775,-0.514167,47.289398,-2.34639,147.86859167234084,94.8629081983585,,,airports,OurAirports
Gare de Nantes,Gare de Blois - Chambord,Nantes Atlantique Airport,Chouzy-sur-Cisse Airfield,Gare de Nantes,Gare de Blois - Chambord,Avion,47.153198,-1.61073,47.506944,1.232778,217.86783828874903,87.80564852813012,,,airports,OurAirports
Gare de Noyal - Acigné,Gare de Le Mans,La Baillée sous Champ Fleu Airfield,Le Mans-Arnage Airport,Gare de Noyal - Acigné,Gare de Le Mans,Avion,48.1875,-1.496389,47.948604,0.201702,128.94089148472418,82.72012205968593,,,airports,OurAirports
Gare de Paris Montparnasse Hall 1 - 2,Gare de Champagné,Vélizy-Villacoublay Air Base,Le Mans-Arnage Airport,Gare de Paris Montparnasse Hall 1 - 2,Gare de Champagné,Avion,48.774406,2.203102,47.948604,0.201702,174.04885523198755,111.65846911213804,,,airports,OurAirports
Gare de Paris Montparnasse Hall 1 - 2,Gare de Montfort-le-Gesnois,Vélizy-Villacoublay Air Base,Le Mans-Arnage Airport,Gare de Paris Montparnasse Hall 1 - 2,Gare de Montfort-le-Gesnois,Avion,48.774406,2.203102,47.948604,0.201702,174.04885523198755,111.65846911213804,,,airports,OurAirports
Gare de Paris Saint-Lazare,Gare de Serquigny,Paris-Le Bourget International Airport,Bernay-Saint-Martin Airfield,Gare de Paris Saint-Lazare,Gare de Serquigny,Avion,48.962276,2.436539,49.102351,0.565882,137.25965323117435,88.05690063417974,,,airports,OurAirports
Gare de Pornichet,Gare de Blois - Chambord,La Baule-Escoublac Airport,Chouzy-sur-Cisse Airfield,Gare de Pornichet,Gare de Blois - Chambord,Avion,47.289398,-2.34639,47.506944,1.232778,270.4555516033589,108.99968206914752,,,airports,OurAirports
Gare de Quimper,Gare de Nantes,Quimper-Cornouaille Airport,Nantes Atlantique Airport,Gare de Quimper,Gare de Nantes,Avion,47.973031,-4.169655,47.153198,-1.61073,212.52879991746386,85.65389574814454,,,airports,OurAirports
Gare de Rennes,Gare de Quimperlé,Rennes-Saint-Jacques Airport,Mellac Ultralight Airfield,Gare de Rennes,Gare de Quimperlé,Avion,48.0695,-1.73479,47.912079,-3.565698,137.3675033939445,88.12609031113773,,,airports,OurAirports
Gare de Saint-Pierre-des-Corps,Gare de Le Pouliguen,Tours Val de Loire Airport,La Baule-Escoublac Airport,Gare de Saint-Pierre-des-Corps,Gare de Le Pouliguen,Avion,47.432201,0.727606,47.289398,-2.34639,232.0655244716036,93.52763600767815,,,airports,OurAirports
Gare de Saint-Pierre-sur-Dives,Gare de Neuville,Rouvres Airfield,Le Mans-Arnage Airport,Gare de Saint-Pierre-sur-Dives,Gare de Neuville,Avion,49.02,-0.198333,47.948604,0.201702,122.72744809943227,78.73397934480339,,,airports,OurAirports
Gare de Savenay,Gare de Mer,Campbon La Berthelière Airfield,Beaugency Airfield,Gare de Savenay,Gare de Mer,Avion,47.420833,-2.011944,47.749467,1.578984,271.7629294260688,109.52658479373505,,,airports,OurAirports
Gare de Surdon,Gare de Château-du-Loir,Argentan Airfield,Saint-Pierre-de-Chevillé Airfield,Gare de Surdon,Gare de Château-du-Loir,Avion,48.709456,0.002856,47.633333,0.452222,124.21217759339369,79.68648559438716,,,airports,OurAirports
Gare de Surdon,Gare de Versailles Chantiers,Argentan Airfield,Saint-Cyr-l'École Airport,Gare de Surdon,Gare de Versailles Chantiers,Avion,48.709456,0.002856,48.812459,2.067533,151.7687184905561,97.36497688065268,,,airports,OurAirports
Gare de Tiercé,Gare de Le Pouliguen,Aérodrome privé de Soucelles,La Baule-Escoublac Airport,Gare de Tiercé,Gare de Le Pouliguen,Avion,47.580399,-0.412269,47.289398,-2.34639,149.02635201568273,95.6056522248216,,,airports,OurAirports
Gare de Vannes,Gare de Quimper,Vannes-Meucon Airport,Quimper-Cornouaille Airport,Gare de Vannes,Gare de Quimper,Avion,47.723301,-2.71856,47.973031,-4.169655,111.78646637062347,71.71495431993702,,,airports,OurAirports
Gare de Écommoy,Gare de Caen,Le Mans-Arnage Airport,Caen Carpiquet airport,Gare de Écommoy,Gare de Caen,Avion,47.948604,0.201702,49.17678,-0.454883,144.8607753595523,92.93328812467955,,,airports,OurAirports
Gare de Écommoy,Gare de Mézidon - Canon,Le Mans-Arnage Airport,Rouvres Airfield,Gare de Écommoy,Gare de Mézidon - Canon,Avion,47.948604,0.201702,49.02,-0.198333,122.72744809943227,78.73397934480339,,,airports,OurAirports
Gare de Étriché - Châteauneuf,Gare de Pornichet,Aérodrome privé de Soucelles,La Baule-Escoublac Airport,Gare de Étriché - Châteauneuf,Gare de Pornichet,Avion,47.580399,-0.412269,47.289398,-2.34639,149.02635201568273,95.6056522248216,,,airports,OurAirports
Gare de Albert,Gare de Montérolier - Buchy,La Boisselle Airfield,Pavilly Airfield,Gare de Albert,Gare de Montérolier - Buchy,Avion,50.015803,2.688594,49.601111,0.9875,130.48423063519323,83.71022846763967,,,airports,OurAirports
Gare de Argentan,Gare de Granville,Argentan Airfield,Granville Airport,Gare de Argentan,Gare de Granville,Avion,48.709456,0.002856,48.883099,-1.56417,116.39252773821963,74.66990487250939,,,airports,OurAirports
Gare de Argentan,Gare de Paris Montparnasse Hall 1 - 2,Argentan Airfield,Vélizy-Villacoublay Air Base,Gare de Argentan,Gare de Paris Montparnasse Hall 1 - 2,Avion,48.709456,0.002856,48.774406,2.203102,161.4948634246227,103.60464132574845,,,airports,OurAirports
Gare de Auray,Gare de Nantes,Vannes-Meucon Airport,Nantes Atlantique Airport,Gare de Auray,Gare de Nantes,Avion,47.723301,-2.71856,47.153198,-1.61073,104.69258996271121,67.16398281988076,,,airports,OurAirports
Gare de Batz-sur-Mer,Gare de Blois - Chambord,La Baule-Escoublac Airport,Chouzy-sur-Cisse Airfield,Gare de Batz-sur-Mer,Gare de Blois - Chambord,Avion,47.289398,-2.34639,47.506944,1.232778,270.4555516033589,108.99968206914752,,,airports,OurAirports
Gare de Bretoncelles,Gare de Tiercé,Fontaine Simon Airfield,Aérodrome privé de Soucelles,Gare de Bretoncelles,Gare de Tiercé,Avion,48.506027,0.991064,47.580399,-0.412269,146.547199433211,94.01518854906095,,,airports,OurAirports
Gare de Bretteville - Norrey,Gare de Pontchaillou,Caen Carpiquet airport,Rennes-Saint-Jacques Airport,Gare de Bretteville - Norrey,Gare de Pontchaillou,Avion,49.17678,-0.454883,48.0695,-1.73479,154.94486891600232,99.40258921485902,,,airports,OurAirports
Gare de Bretteville - Norrey,Gare de Pontorson - Mont-Saint-Michel,Caen Carpiquet airport,Mont Saint Michel Airfield,Gare de Bretteville - Norrey,Gare de Pontorson - Mont-Saint-Michel,Avion,49.17678,-0.454883,48.604444,-1.551667,102.37016219930713,65.67406363403155,,,airports,OurAirports
Gare de Briouze,Gare de Paris Montparnasse Hall 1 - 2,Aérodrome de Flers Saint-Paul,Vélizy-Villacoublay Air Base,Gare de Briouze,Gare de Paris Montparnasse Hall 1 - 2,Avion,48.749964,-0.593927,48.774406,2.203102,205.0234859119462,82.62908507008417,,,airports,OurAirports
Gare de Caen,Gare de Paris Saint-Lazare,Caen Carpiquet airport,Paris-Le Bourget International Airport,Gare de Caen,Gare de Paris Saint-Lazare,Avion,49.17678,-0.454883,48.962276,2.436539,211.96874819850595,85.42818228452069,,,airports,OurAirports
Gare de Chartres,Gare de Sablé-sur-Sarthe,Chartres-Métropole Airfield,Solib'Ailes Airfield,Gare de Chartres,Gare de Sablé-sur-Sarthe,Avion,48.457502,1.519843,47.7775,-0.514167,168.85994906315037,108.32960309686531,,,airports,OurAirports
Gare de Cherbourg,Gare de Mantes-la-Jolie,Cherbourg Manche airport,Mantes-Chérence Airfield,Gare de Cherbourg,Gare de Mantes-la-Jolie,Avion,49.650101,-1.47028,49.078814,1.68829,237.36499671622465,95.66344274698707,,,airports,OurAirports
Gare de Condé-sur-Huisne,Gare de Angers Maître École,Champrond Le Petit Bois Landry Ultralight Airfield,Soulaire Airfield,Gare de Condé-sur-Huisne,Gare de Angers Maître École,Avion,48.39361,1.05753,47.565556,-0.549722,150.95791082170976,96.84481521152195,,,airports,OurAirports
Gare de Courville-sur-Eure,Gare de Angers Saint-Laud,Loulappe Airfield,Soulaire Airfield,Gare de Courville-sur-Eure,Gare de Angers Saint-Laud,Avion,48.438333,1.274444,47.565556,-0.549722,166.84055859708903,107.03409300758885,,,airports,OurAirports
Gare de Dol-de-Bretagne,Gare de Caen,Le Haut des Places Airfield,Caen Carpiquet airport,Gare de Dol-de-Bretagne,Gare de Caen,Avion,48.474167,-1.591111,49.17678,-0.454883,114.11361814716966,73.20790412655536,,,airports,OurAirports
Gare de Dreux,Gare de Granville,Dreux Vernouillet Airfield,Granville Airport,Gare de Dreux,Gare de Granville,Avion,48.70543,1.361155,48.883099,-1.56417,215.17909202208585,86.7220231911997,,,airports,OurAirports
Gare de La Loupe,Gare de Angers Maître École,Fontaine Simon Airfield,Soulaire Airfield,Gare de La Loupe,Gare de Angers Maître École,Avion,48.506027,0.991064,47.565556,-0.549722,155.1078613453794,99.50715459747447,,,airports,OurAirports
Gare de Langeais,Gare de Pornichet,Hommes Volants Ultralight Airfield,La Baule-Escoublac Airport,Gare de Langeais,Gare de Pornichet,Avion,47.418534,0.323495,47.289398,-2.34639,201.62679441536304,81.26014185180067,,,airports,OurAirports
Gare de Le Mans,Gare de Le Croisic,Le Mans-Arnage Airport,La Baule-Escoublac Airport,Gare de Le Mans,Gare de Le Croisic,Avion,47.948604,0.201702,47.289398,-2.34639,204.55488417657855,82.4402280106919,,,airports,OurAirports
Gare de Lille Flandres,Gare de Serqueux,Marcq-en-Baroeul Airfield,Saint-Thibault Airfield,Gare de Lille Flandres,Gare de Serqueux,Avion,50.687199,3.07556,49.693374,1.81118,142.52422226734225,91.4343070430306,,,airports,OurAirports
Gare de Maintenon,Gare de Saint-Mars-la-Brière,Les Ailes d'Eure et Loir Airfield,Le Mans-Arnage Airport,Gare de Maintenon,Gare de Saint-Mars-la-Brière,Avion,48.59244,1.53759,47.948604,0.201702,122.0673885892981,78.31052792752028,,,airports,OurAirports
Gare de Meung-sur-Loire,Gare de Le Croisic,Cravant Les Lilas Airfield,La Baule-Escoublac Airport,Gare de Meung-sur-Loire,Gare de Le Croisic,Avion,47.836706,1.617899,47.289398,-2.34639,303.5734755013084,122.34695171943295,,,airports,OurAirports
Gare de Nantes,Gare de La Rochelle,Nantes Atlantique Airport,La Rochelle Île de Ré Airport,Gare de Nantes,Gare de La Rochelle,Avion,47.153198,-1.61073,46.179199,-1.19528,112.84768795883267,72.39576533573056,,,airports,OurAirports
Gare de Nogent-le-Rotrou,Gare de Étriché - Châteauneuf,BELLEME St Germain de la Coudr Airfield,Aérodrome privé de Soucelles,Gare de Nogent-le-Rotrou,Gare de Étriché - Châteauneuf,Avion,48.300556,0.581111,47.580399,-0.412269,109.02999614130788,69.94658160902017,,,airports,OurAirports
Gare de Onzain - Chaumont-sur-Loire,Gare de Le Pouliguen,Chouzy-sur-Cisse Airfield,La Baule-Escoublac Airport,Gare de Onzain - Chaumont-sur-Loire,Gare de Le Pouliguen,Avion,47.506944,1.232778,47.289398,-2.34639,270.4555516033589,108.99968206914752,,,airports,OurAirports
Gare de Onzain - Chaumont-sur-Loire,Gare de Saint-Nazaire,Chouzy-sur-Cisse Airfield,Saint-Nazaire-Montoir Airport,Gare de Onzain - Chaumont-sur-Loire,Gare de Saint-Nazaire,Avion,47.506944,1.232778,47.31142,-2.152634,255.66465896990678,103.03861902197599,,,airports,OurAirports
Gare de Paris Montparnasse Hall 1 - 2,Gare de Saint-Mars-la-Brière,Vélizy-Villacoublay Air Base,Le Mans-Arnage Airport,Gare de Paris Montparnasse Hall 1 - 2,Gare de Saint-Mars-la-Brière,Avion,48.774406,2.203102,47.948604,0.201702,174.04885523198755,111.65846911213804,,,airports,OurAirports
Gare de Pontorson - Mont-Saint-Michel,Gare de Caen,Mont Saint Michel Airfield,Caen Carpiquet airport,Gare de Pontorson - Mont-Saint-Michel,Gare de Caen,Avion,48.604444,-1.551667,49.17678,-0.454883,102.37016219930713,65.67406363403155,,,airports,OurAirports
Gare de Pornichet,Gare de Amboise,La Baule-Escoublac Airport,Amboise Dierre Airfield,Gare de Pornichet,Gare de Amboise,Avion,47.289398,-2.34639,47.339771,0.945861,248.23800373562744,100.0455096013167,,,airports,OurAirports
Gare de Rouen Rive Droite,Gare de Amiens,Rouen Vallée de Seine Airport,Amiens Glisy Airfield,Gare de Rouen Rive Droite,Gare de Amiens,Avion,49.384887,1.179142,49.873004,2.387074,102.54119461978358,65.78378695403553,,,airports,OurAirports
Gare de Rouen Rive Droite,Gare de Lille Flandres,Rouen Vallée de Seine Airport,Marcq-en-Baroeul Airfield,Gare de Rouen Rive Droite,Gare de Lille Flandres,Avion,49.384887,1.179142,50.687199,3.07556,198.26771985971553,79.90635910841995,,,airports,OurAirports
Gare de Saumur,Gare de Beaugency,Aérodrome de Saumur - Saint-Florent,Beaugency Airfield,Gare de Saumur,Gare de Beaugency,Avion,47.256802,-0.115142,47.749467,1.578984,138.5452115489844,88.88163156119283,,,airports,OurAirports
Gare de Sées,Gare de Château-du-Loir,Argentan Airfield,Saint-Pierre-de-Chevillé Airfield,Gare de Sées,Gare de Château-du-Loir,Avion,48.709456,0.002856,47.633333,0.452222,124.21217759339369,79.68648559438716,,,airports,OurAirports
Gare de Tours,Gare de Saint-Nazaire,Tours Val de Loire Airport,Saint-Nazaire-Montoir Airport,Gare de Tours,Gare de Saint-Nazaire,Avion,47.432201,0.727606,47.31142,-2.152634,217.30060320697586,87.57704000741313,,,airports,OurAirports
Gare de Versailles Chantiers,Gare de Champagné,Saint-Cyr-l'École Airport,Le Mans-Arnage Airport,Gare de Versailles Chantiers,Gare de Champagné,Avion,48.812459,2.067533,47.948604,0.201702,167.96566528550565,107.7558885646408,,,airports,OurAirports
Gare de Versailles Chantiers,Gare de Flers,Saint-Cyr-l'École Airport,Aérodrome de Flers Saint-Paul,Gare de Versailles Chantiers,Gare de Flers,Avion,48.812459,2.067533,48.749964,-0.593927,195.11994289069582,78.63773405408598,,,airports,OurAirports
Gare de Vitré,Gare de Le Mans,Moulins le Haut Bois Airfield,Le Mans-Arnage Airport,Gare de Vitré,Gare de Le Mans,Avion,48.001667,-1.352222,47.948604,0.201702,115.82217641905231,74.30400441847063,,,airports,OurAirports
Gare de Évreux Normandie,Gare de Cherbourg,Évreux-Fauville (BA 105) Air Base,Cherbourg Manche airport,Gare de Évreux Normandie,Gare de Cherbourg,Avion,49.028702,1.21986,49.650101,-1.47028,206.77721574712803,83.33587771433479,,,airports,OurAirports
Gare de Angers Saint-Laud,Gare de Mer,Soulaire Airfield,Beaugency Airfield,Gare de Angers Saint-Laud,Gare de Mer,Avion,47.565556,-0.549722,47.749467,1.578984,160.7336212084854,103.11627763979298,,,airports,OurAirports
Gare de Beaugency,Gare de Angers Saint-Laud,Beaugency Airfield,Soulaire Airfield,Gare de Beaugency,Gare de Angers Saint-Laud,Avion,47.749467,1.578984,47.565556,-0.549722,160.7336212084854,103.11627763979298,,,airports,OurAirports
Gare de Caen,Gare de La Bonneville-sur-Iton,Caen Carpiquet airport,Évreux-Fauville (BA 105) Air Base,Gare de Caen,Gare de La Bonneville-sur-Iton,Avion,49.17678,-0.454883,49.028702,1.21986,123.02520634281758,78.92500174238026,,,airports,OurAirports
Gare de Champagné,Gare de Paris Montparnasse Hall 1 - 2,Le Mans-Arnage Airport,Vélizy-Villacoublay Air Base,Gare de Champagné,Gare de Paris Montparnasse Hall 1 - 2,Avion,47.948604,0.201702,48.774406,2.203102,174.04885523198755,111.65846911213804,,,airports,OurAirports
Gare de Cinq-Mars-la-Pile,Gare de La Baule-Escoublac,Hommes Volants Ultralight Airfield,La Baule-Escoublac Airport,Gare de Cinq-Mars-la-Pile,Gare de La Baule-Escoublac,Avion,47.418534,0.323495,47.289398,-2.34639,201.62679441536304,81.26014185180067,,,airports,OurAirports
Gare de Dieppe,Gare de Paris Saint-Lazare,Dieppe-Saint-Aubin Airport,Paris-Le Bourget International Airport,Gare de Dieppe,Gare de Paris Saint-Lazare,Avion,49.884662,1.08101,48.962276,2.436539,141.88240175055856,91.02255658219987,,,airports,OurAirports
Gare de Folligny,Gare de Versailles Chantiers,Granville Airport,Saint-Cyr-l'École Airport,Gare de Folligny,Gare de Versailles Chantiers,Avion,48.883099,-1.56417,48.812459,2.067533,265.83384865442105,107.1370316296732,,,airports,OurAirports
Gare de La Ferté-Bernard,Gare de Angers Maître École,BELLEME St Germain de la Coudr Airfield,Soulaire Airfield,Gare de La Ferté-Bernard,Gare de Angers Maître École,Avion,48.300556,0.581111,47.565556,-0.549722,117.37365841361003,75.2993347476271,,,airports,OurAirports
Gare de Le Croisic,Gare de Onzain - Chaumont-sur-Loire,La Baule-Escoublac Airport,Chouzy-sur-Cisse Airfield,Gare de Le Croisic,Gare de Onzain - Chaumont-sur-Loire,Avion,47.289398,-2.34639,47.506944,1.232778,270.4555516033589,108.99968206914752,,,airports,OurAirports
Gare de Le Croisic,Gare de Orléans,La Baule-Escoublac Airport,Mardié Airfield,Gare de Le Croisic,Gare de Orléans,Avion,47.289398,-2.34639,47.903611,2.067778,337.9140180492338,108.12201520054764,,,airports,OurAirports
Gare de Le Mans,Gare de Pornichet,Le Mans-Arnage Airport,La Baule-Escoublac Airport,Gare de Le Mans,Gare de Pornichet,Avion,47.948604,0.201702,47.289398,-2.34639,204.55488417657855,82.4402280106919,,,airports,OurAirports
Gare de Lille Flandres,Gare de Abancourt,Marcq-en-Baroeul Airfield,Saint-Thibault Airfield,Gare de Lille Flandres,Gare de Abancourt,Avion,50.687199,3.07556,49.693374,1.81118,142.52422226734225,91.4343070430306,,,airports,OurAirports
Gare de Mer,Gare de La Baule les Pins,Beaugency Airfield,La Baule-Escoublac Airport,Gare de Mer,Gare de La Baule les Pins,Avion,47.749467,1.578984,47.289398,-2.34639,299.1453042035859,120.56229889667506,,,airports,OurAirports
Gare de Meung-sur-Loire,Gare de La Baule les Pins,Cravant Les Lilas Airfield,La Baule-Escoublac Airport,Gare de Meung-sur-Loire,Gare de La Baule les Pins,Avion,47.836706,1.617899,47.289398,-2.34639,303.5734755013084,122.34695171943295,,,airports,OurAirports
Gare de Montérolier - Buchy,Gare de Arras,Pavilly Airfield,Arras-Roclincourt Airfield,Gare de Montérolier - Buchy,Gare de Arras,Avion,49.601111,0.9875,50.323898,2.80278,152.7017545850677,97.96355238866548,,,airports,OurAirports
Gare de Nantes,Gare de Cinq-Mars-la-Pile,Nantes Atlantique Airport,Hommes Volants Ultralight Airfield,Gare de Nantes,Gare de Cinq-Mars-la-Pile,Avion,47.153198,-1.61073,47.418534,0.323495,148.84399299584823,95.48866249250551,,,airports,OurAirports
Gare de Nantes,Gare de Rosporden,Nantes Atlantique Airport,Guiscriff Scaer Airfield,Gare de Nantes,Gare de Rosporden,Avion,47.153198,-1.61073,48.052502,-3.66472,183.60633700561488,117.78993020096833,,,airports,OurAirports
Gare de Orléans,Gare de Savenay,Mardié Airfield,Campbon La Berthelière Airfield,Gare de Orléans,Gare de Savenay,Avion,47.903611,2.067778,47.420833,-2.011944,310.1709055048442,125.00586468533683,,,airports,OurAirports
Gare de Paris Montparnasse Hall 1 - 2,Gare de Verneuil-sur-Avre,Vélizy-Villacoublay Air Base,Le Buternay Airfield,Gare de Paris Montparnasse Hall 1 - 2,Gare de Verneuil-sur-Avre,Avion,48.774406,2.203102,48.611944,0.841944,101.52597081010376,65.13248513280868,,,airports,OurAirports
Gare de Poix-de-Picardie,Gare de Lille Flandres,Poix de Picardie Airfield,Marcq-en-Baroeul Airfield,Gare de Poix-de-Picardie,Gare de Lille Flandres,Avion,49.780278,2.001944,50.687199,3.07556,126.49200613631355,81.14907588032318,,,airports,OurAirports
Gare de Quimper,Gare de Redon,Quimper-Cornouaille Airport,Redon Bains-sur-Oust Airfield,Gare de Quimper,Gare de Redon,Avion,47.973031,-4.169655,47.699402,-2.03667,162.08133496598063,103.98088346993595,,,airports,OurAirports
Gare de Quimperlé,Gare de Pontchâteau,Mellac Ultralight Airfield,Campbon La Berthelière Airfield,Gare de Quimperlé,Gare de Pontchâteau,Avion,47.912079,-3.565698,47.420833,-2.011944,128.53200806053414,82.45780894576437,,,airports,OurAirports
Gare de Rennes,Gare de Le Molay-Littry,Rennes-Saint-Jacques Airport,Mosles Airfield,Gare de Rennes,Gare de Le Molay-Littry,Avion,48.0695,-1.73479,49.30083,-0.81183,152.7620805551328,98.00225362261612,,,airports,OurAirports
Gare de Rosporden,Gare de Questembert,Guiscriff Scaer Airfield,Pleucadeuc private airfield,Gare de Rosporden,Gare de Questembert,Avion,48.052502,-3.66472,47.78777,-2.36109,101.50579357470131,65.11954072583198,,,airports,OurAirports
Gare de Saint-Brieuc,Gare de Brest,Saint-Brieuc-Armor Airport,Brest Bretagne airport,Gare de Saint-Brieuc,Gare de Brest,Avion,48.538628,-2.853518,48.447899,-4.41854,115.76449294965802,74.26699844174611,,,airports,OurAirports
Gare de Savenay,Gare de Beaugency,Campbon La Berthelière Airfield,Beaugency Airfield,Gare de Savenay,Gare de Beaugency,Avion,47.420833,-2.011944,47.749467,1.578984,271.7629294260688,109.52658479373505,,,airports,OurAirports
Gare de Tours,Gare de Ancenis,Tours Val de Loire Airport,Ancenis Airfield,Gare de Tours,Gare de Ancenis,Avion,47.432201,0.727606,47.4081,-1.1775,143.35475138436018,91.9671207155806,,,airports,OurAirports
Gare de Tours,Gare de Pornichet,Tours Val de Loire Airport,La Baule-Escoublac Airport,Gare de Tours,Gare de Pornichet,Avion,47.432201,0.727606,47.289398,-2.34639,232.0655244716036,93.52763600767815,,,airports,OurAirports
Gare de Amboise,Gare de La Baule-Escoublac,Amboise Dierre Airfield,La Baule-Escoublac Airport,Gare de Amboise,Gare de La Baule-Escoublac,Avion,47.339771,0.945861,47.289398,-2.34639,248.23800373562744,100.0455096013167,,,airports,OurAirports
Gare de Amboise,Gare de Le Pouliguen,Amboise Dierre Airfield,La Baule-Escoublac Airport,Gare de Amboise,Gare de Le Pouliguen,Avion,47.339771,0.945861,47.289398,-2.34639,248.23800373562744,100.0455096013167,,,airports,OurAirports
Gare de Blois - Chambord,Gare de Batz-sur-Mer,Chouzy-sur-Cisse Airfield,La Baule-Escoublac Airport,Gare de Blois - Chambord,Gare de Batz-sur-Mer,Avion,47.506944,1.232778,47.289398,-2.34639,270.4555516033589,108.99968206914752,,,airports,OurAirports
Gare de Chartres,Gare de Tiercé,Chartres-Métropole Airfield,Aérodrome privé de Soucelles,Gare de Chartres,Gare de Tiercé,Avion,48.457502,1.519843,47.580399,-0.412269,173.6658257796918,111.41274223153778,,,airports,OurAirports
Gare de Cinq-Mars-la-Pile,Gare de Le Croisic,Hommes Volants Ultralight Airfield,La Baule-Escoublac Airport,Gare de Cinq-Mars-la-Pile,Gare de Le Croisic,Avion,47.418534,0.323495,47.289398,-2.34639,201.62679441536304,81.26014185180067,,,airports,OurAirports
Gare de Cinq-Mars-la-Pile,Gare de Le Pouliguen,Hommes Volants Ultralight Airfield,La Baule-Escoublac Airport,Gare de Cinq-Mars-la-Pile,Gare de Le Pouliguen,Avion,47.418534,0.323495,47.289398,-2.34639,201.62679441536304,81.26014185180067,,,airports,OurAirports
Gare de Connerré - Beillé,Gare de Angers Saint-Laud,Champ-Romet Airfield,Soulaire Airfield,Gare de Connerré - Beillé,Gare de Angers Saint-Laud,Avion,48.298611,0.453056,47.565556,-0.549722,110.56751104596627,70.9329515582073,,,airports,OurAirports
Gare de Courville-sur-Eure,Gare de Angers Maître École,Loulappe Airfield,Soulaire Airfield,Gare de Courville-sur-Eure,Gare de Angers Maître École,Avion,48.438333,1.274444,47.565556,-0.549722,166.84055859708903,107.03409300758885,,,airports,OurAirports
Gare de Granville,Gare de Versailles Chantiers,Granville Airport,Saint-Cyr-l'École Airport,Gare de Granville,Gare de Versailles Chantiers,Avion,48.883099,-1.56417,48.812459,2.067533,265.83384865442105,107.1370316296732,,,airports,OurAirports
Gare de La Suze,Gare de La Baule les Pins,Le Mans-Arnage Airport,La Baule-Escoublac Airport,Gare de La Suze,Gare de La Baule les Pins,Avion,47.948604,0.201702,47.289398,-2.34639,204.55488417657855,82.4402280106919,,,airports,OurAirports
Gare de La Suze,Gare de Le Croisic,Le Mans-Arnage Airport,La Baule-Escoublac Airport,Gare de La Suze,Gare de Le Croisic,Avion,47.948604,0.201702,47.289398,-2.34639,204.55488417657855,82.4402280106919,,,airports,OurAirports
Gare de La Villette Saint-Prest,Gare de Champagné,Chartres-Métropole Airfield,Le Mans-Arnage Airport,Gare de La Villette Saint-Prest,Gare de Champagné,Avion,48.457502,1.519843,47.948604,0.201702,112.89169088504315,72.42399476229339,,,airports,OurAirports
Gare de Le Mans,Gare de Paris Montparnasse Hall 1 - 2,Le Mans-Arnage Airport,Vélizy-Villacoublay Air Base,Gare de Le Mans,Gare de Paris Montparnasse Hall 1 - 2,Avion,47.948604,0.201702,48.774406,2.203102,174.04885523198755,111.65846911213804,,,airports,OurAirports
Gare de Mer,Gare de Batz-sur-Mer,Beaugency Airfield,La Baule-Escoublac Airport,Gare de Mer,Gare de Batz-sur-Mer,Avion,47.749467,1.578984,47.289398,-2.34639,299.1453042035859,120.56229889667506,,,airports,OurAirports
Gare de Meung-sur-Loire,Gare de La Baule-Escoublac,Cravant Les Lilas Airfield,La Baule-Escoublac Airport,Gare de Meung-sur-Loire,Gare de La Baule-Escoublac,Avion,47.836706,1.617899,47.289398,-2.34639,303.5734755013084,122.34695171943295,,,airports,OurAirports
Gare de Montfort-le-Gesnois,Gare de Rambouillet,Le Mans-Arnage Airport,La Fontaine au Berger Airfield,Gare de Montfort-le-Gesnois,Gare de Rambouillet,Avion,47.948604,0.201702,48.582222,1.728889,133.19751668832168,85.45089700896287,,,airports,OurAirports
Gare de Montérolier - Buchy,Gare de Douai,Pavilly Airfield,Vitry-en-Artois Airfield,Gare de Montérolier - Buchy,Gare de Douai,Avion,49.601111,0.9875,50.337883,2.990714,165.03130926924248,105.87339585781304,,,airports,OurAirports
Gare de Morgny,Gare de Albert,Rouen Vallée de Seine Airport,La Boisselle Airfield,Gare de Morgny,Gare de Albert,Avion,49.384887,1.179142,50.015803,2.688594,129.25029768056874,82.91861702890458,,,airports,OurAirports
Gare de Nogent-le-Rotrou,Gare de Sablé-sur-Sarthe,BELLEME St Germain de la Coudr Airfield,Solib'Ailes Airfield,Gare de Nogent-le-Rotrou,Gare de Sablé-sur-Sarthe,Avion,48.300556,0.581111,47.7775,-0.514167,100.06724179086339,64.19665910326812,,,airports,OurAirports
Gare de Paris Saint-Lazare,Gare de Cherbourg,Paris-Le Bourget International Airport,Cherbourg Manche airport,Gare de Paris Saint-Lazare,Gare de Cherbourg,Avion,48.962276,2.436539,49.650101,-1.47028,293.35351385714944,118.2280768678421,,,airports,OurAirports
Gare de Paris Saint-Lazare,Gare de Pont-l'Évêque,Paris-Le Bourget International Airport,Deauville Normandie airport,Gare de Paris Saint-Lazare,Gare de Pont-l'Évêque,Avion,48.962276,2.436539,49.365237,0.154481,171.86476660757765,110.25729935505007,,,airports,OurAirports
Gare de Quimper,Gare de Savenay,Quimper-Cornouaille Airport,Campbon La Berthelière Airfield,Gare de Quimper,Gare de Savenay,Avion,47.973031,-4.169655,47.420833,-2.011944,172.75507222764418,110.82846175911217,,,airports,OurAirports
Gare de Quimperlé,Gare de Redon,Mellac Ultralight Airfield,Redon Bains-sur-Oust Airfield,Gare de Quimperlé,Gare de Redon,Avion,47.912079,-3.565698,47.699402,-2.03667,116.61431796062207,74.81219110969543,,,airports,OurAirports
Gare de Rennes,Gare de Landerneau,Rennes-Saint-Jacques Airport,Landivisiau Air Base,Gare de Rennes,Gare de Landerneau,Avion,48.0695,-1.73479,48.5303,-4.15164,185.96383602226268,119.30234883067666,,,airports,OurAirports
Gare de Saint-Pierre-sur-Dives,Gare de Tours,Rouvres Airfield,Tours Val de Loire Airport,Gare de Saint-Pierre-sur-Dives,Gare de Tours,Avion,49.02,-0.198333,47.432201,0.727606,189.4069027628083,76.33525013798106,,,airports,OurAirports
Gare de Sainte-Gauburge,Gare de Paris Montparnasse Hall 1 - 2,L'Aigle-Saint-Michel Airfield,Vélizy-Villacoublay Air Base,Gare de Sainte-Gauburge,Gare de Paris Montparnasse Hall 1 - 2,Avion,48.758502,0.656632,48.774406,2.203102,113.355569881831,72.72158947250028,,,airports,OurAirports
Gare de Saumur,Gare de Meung-sur-Loire,Aérodrome de Saumur - Saint-Florent,Cravant Les Lilas Airfield,Gare de Saumur,Gare de Meung-sur-Loire,Avion,47.256802,-0.115142,47.836706,1.617899,145.17516047187016,93.13497724412979,,,airports,OurAirports
Gare de Savenay,Gare de Sablé-sur-Sarthe,Campbon La Berthelière Airfield,Solib'Ailes Airfield,Gare de Savenay,Gare de Sablé-sur-Sarthe,Avion,47.420833,-2.011944,47.7775,-0.514167,119.09829714491785,76.40575122047694,,,airports,OurAirports
Gare de Tiercé,Gare de Batz-sur-Mer,Aérodrome privé de Soucelles,La Baule-Escoublac Airport,Gare de Tiercé,Gare de Batz-sur-Mer,Avion,47.580399,-0.412269,47.289398,-2.34639,149.02635201568273,95.6056522248216,,,airports,OurAirports
Gare de Villedieu-les-Poêles,Gare de Sainte-Gauburge,Avranches Le Val-Saint-Père Airfield,L'Aigle-Saint-Michel Airfield,Gare de Villedieu-les-Poêles,Gare de Sainte-Gauburge,Avion,48.662255,-1.403685,48.758502,0.656632,151.54676862403713,97.22258822614461,,,airports,OurAirports
Gare de Bournezeau,Gare de Langeais,La Roche-sur-Yon Les Ajoncs Airport,Hommes Volants Ultralight Airfield,Gare de Bournezeau,Gare de Langeais,Avion,46.7019,-1.37863,47.418534,0.323495,151.56648552088612,97.23523730973017,,,airports,OurAirports
Gare de Carentan,Gare de Bernay,Lessay Airfield,Bernay-Saint-Martin Airfield,Gare de Carentan,Gare de Bernay,Avion,49.202276,-1.507983,49.102351,0.565882,151.23008544964117,97.0194248189536,,,airports,OurAirports
Gare de Chantonnay,Gare de Tours,Mouchamps Airfield,Tours Val de Loire Airport,Gare de Chantonnay,Gare de Tours,Avion,46.808611,-1.030556,47.432201,0.727606,150.01078590710577,96.23720122933466,,,airports,OurAirports
Gare de Condé-sur-Huisne,Gare de Le Vieux Briollay,Champrond Le Petit Bois Landry Ultralight Airfield,Soulaire Airfield,Gare de Condé-sur-Huisne,Gare de Le Vieux Briollay,Avion,48.39361,1.05753,47.565556,-0.549722,150.95791082170976,96.84481521152195,,,airports,OurAirports
Gare de La Baule les Pins,Gare de Beaugency,La Baule-Escoublac Airport,Beaugency Airfield,Gare de La Baule les Pins,Gare de Beaugency,Avion,47.289398,-2.34639,47.749467,1.578984,299.1453042035859,120.56229889667506,,,airports,OurAirports
Gare de La Baule-Escoublac,Gare de Meung-sur-Loire,La Baule-Escoublac Airport,Cravant Les Lilas Airfield,Gare de La Baule-Escoublac,Gare de Meung-sur-Loire,Avion,47.289398,-2.34639,47.836706,1.617899,303.5734755013084,122.34695171943295,,,airports,OurAirports
Gare de La Membrolle-sur-Choisille,Gare de Alençon,Tours Val de Loire Airport,Alençon-Valframbert Airfield,Gare de La Membrolle-sur-Choisille,Gare de Alençon,Avion,47.432201,0.727606,48.446568,0.107996,121.8696170299552,78.1836505084145,,,airports,OurAirports
Gare de La Membrolle-sur-Choisille,Gare de La Hutte Coulombiers,Tours Val de Loire Airport,Piacé Airfield,Gare de La Membrolle-sur-Choisille,Gare de La Hutte Coulombiers,Avion,47.432201,0.727606,48.271111,0.103889,104.24700077285898,66.87812166483033,,,airports,OurAirports
Gare de La Roche-sur-Yon,Gare de Langeais,La Roche-sur-Yon Les Ajoncs Airport,Hommes Volants Ultralight Airfield,Gare de La Roche-sur-Yon,Gare de Langeais,Avion,46.7019,-1.37863,47.418534,0.323495,151.56648552088612,97.23523730973017,,,airports,OurAirports
Gare de Langeais,Gare de Nantes,Hommes Volants Ultralight Airfield,Nantes Atlantique Airport,Gare de Langeais,Gare de Nantes,Avion,47.418534,0.323495,47.153198,-1.61073,148.84399299584823,95.48866249250551,,,airports,OurAirports
Gare de Montfort-le-Gesnois,Gare de Versailles Chantiers,Le Mans-Arnage Airport,Saint-Cyr-l'École Airport,Gare de Montfort-le-Gesnois,Gare de Versailles Chantiers,Avion,47.948604,0.201702,48.812459,2.067533,167.96566528550565,107.7558885646408,,,airports,OurAirports
Gare de Morlaix,Gare de Montfort-sur-Meu,Morlaix-Ploujean Airport,Queneleuc Airfield,Gare de Morlaix,Gare de Montfort-sur-Meu,Avion,48.6031990051,-3.81577992439,48.098333,-2.076389,140.2554919359009,89.97883665054013,,,airports,OurAirports
Gare de Morlaix,Gare de Rennes,Morlaix-Ploujean Airport,Rennes-Saint-Jacques Airport,Gare de Morlaix,Gare de Rennes,Avion,48.6031990051,-3.81577992439,48.0695,-1.73479,164.8654736707109,105.7670064820734,,,airports,OurAirports
Gare de Nogent-le-Rotrou,Gare de Versailles Chantiers,BELLEME St Germain de la Coudr Airfield,Saint-Cyr-l'École Airport,Gare de Nogent-le-Rotrou,Gare de Versailles Chantiers,Avion,48.300556,0.581111,48.812459,2.067533,123.31680112880906,79.11207006501584,,,airports,OurAirports
Gare de Nonancourt,Gare de Granville,Saint-André-de-l'Eure Airfield,Granville Airport,Gare de Nonancourt,Gare de Granville,Avion,48.897669,1.250839,48.883099,-1.56417,205.80233461709017,82.9429786497773,,,airports,OurAirports
Gare de Orléans,Gare de Ancenis,Mardié Airfield,Ancenis Airfield,Gare de Orléans,Gare de Ancenis,Avion,47.903611,2.067778,47.4081,-1.1775,249.2136842522211,100.43873083667052,,,airports,OurAirports
Gare de Paris Montparnasse Hall 1 - 2,Gare de Flers,Vélizy-Villacoublay Air Base,Aérodrome de Flers Saint-Paul,Gare de Paris Montparnasse Hall 1 - 2,Gare de Flers,Avion,48.774406,2.203102,48.749964,-0.593927,205.0234859119462,82.62908507008417,,,airports,OurAirports
Gare de Paris Saint-Lazare,Gare de Montville,Paris-Le Bourget International Airport,Pavilly Airfield,Gare de Paris Saint-Lazare,Gare de Montville,Avion,48.962276,2.436539,49.601111,0.9875,126.85804689361444,81.38390391489077,,,airports,OurAirports
Gare de Pontchaillou,Gare de Saint-Lô,Rennes-Saint-Jacques Airport,Mosles Airfield,Gare de Pontchaillou,Gare de Saint-Lô,Avion,48.0695,-1.73479,49.30083,-0.81183,152.7620805551328,98.00225362261612,,,airports,OurAirports
Gare de Rennes,Gare de Bretteville - Norrey,Rennes-Saint-Jacques Airport,Caen Carpiquet airport,Gare de Rennes,Gare de Bretteville - Norrey,Avion,48.0695,-1.73479,49.17678,-0.454883,154.94486891600232,99.40258921485902,,,airports,OurAirports
Gare de Sablé-sur-Sarthe,Gare de Nantes,Solib'Ailes Airfield,Nantes Atlantique Airport,Gare de Sablé-sur-Sarthe,Gare de Nantes,Avion,47.7775,-0.514167,47.153198,-1.61073,107.76552686838446,69.13538004687385,,,airports,OurAirports
Gare de Saint-Pierre-des-Corps,Gare de Nantes,Tours Val de Loire Airport,Nantes Atlantique Airport,Gare de Saint-Pierre-des-Corps,Gare de Nantes,Avion,47.432201,0.727606,47.153198,-1.61073,179.0541250058952,114.86952591399326,,,airports,OurAirports
Gare de Tours,Gare de Orléans,Tours Val de Loire Airport,Mardié Airfield,Gare de Tours,Gare de Orléans,Avion,47.432201,0.727606,47.903611,2.067778,113.21729014778877,72.63287815410749,,,airports,OurAirports
Gare de Valognes,Gare de Évreux Normandie,Cherbourg Manche airport,Évreux-Fauville (BA 105) Air Base,Gare de Valognes,Gare de Évreux Normandie,Avion,49.650101,-1.47028,49.028702,1.21986,206.77721574712803,83.33587771433479,,,airports,OurAirports
Gare de Versailles Chantiers,Gare de Nogent-le-Rotrou,Saint-Cyr-l'École Airport,BELLEME St Germain de la Coudr Airfield,Gare de Versailles Chantiers,Gare de Nogent-le-Rotrou,Avion,48.812459,2.067533,48.300556,0.581111,123.31680112880906,79.11207006501584,,,airports,OurAirports
Gare de Versailles Chantiers,Gare de Sainte-Gauburge,Saint-Cyr-l'École Airport,L'Aigle-Saint-Michel Airfield,Gare de Versailles Chantiers,Gare de Sainte-Gauburge,Avion,48.812459,2.067533,48.758502,0.656632,103.54090705331666,66.425137681289,,,airports,OurAirports
Gare de Auray,Gare de Brest,Vannes-Meucon Airport,Brest Bretagne airport,Gare de Auray,Gare de Brest,Avion,47.723301,-2.71856,48.447899,-4.41854,149.78503049626028,96.09237118414309,,,airports,OurAirports
Gare de Batz-sur-Mer,Gare de Angers Saint-Laud,La Baule-Escoublac Airport,Soulaire Airfield,Gare de Batz-sur-Mer,Gare de Angers Saint-Laud,Avion,47.289398,-2.34639,47.565556,-0.549722,138.5969382144863,88.91481603847376,,,airports,OurAirports
Gare de Batz-sur-Mer,Gare de Beaugency,La Baule-Escoublac Airport,Beaugency Airfield,Gare de Batz-sur-Mer,Gare de Beaugency,Avion,47.289398,-2.34639,47.749467,1.578984,299.1453042035859,120.56229889667506,,,airports,OurAirports
Gare de Batz-sur-Mer,Gare de Saint-Pierre-des-Corps,La Baule-Escoublac Airport,Tours Val de Loire Airport,Gare de Batz-sur-Mer,Gare de Saint-Pierre-des-Corps,Avion,47.289398,-2.34639,47.432201,0.727606,232.0655244716036,93.52763600767815,,,airports,OurAirports
Gare de Bernay,Gare de Cherbourg,Bernay-Saint-Martin Airfield,Cherbourg Manche airport,Gare de Bernay,Gare de Cherbourg,Avion,49.102351,0.565882,49.650101,-1.47028,159.49389178136732,102.32094755985213,,,airports,OurAirports
Gare de Brest,Gare de Caulnes,Brest Bretagne airport,Dinan-Trélivan Airfield,Gare de Brest,Gare de Caulnes,Avion,48.447899,-4.41854,48.443351,-2.103142,170.7756565867612,109.55859692775192,,,airports,OurAirports
Gare de Brest,Gare de Plénée-Jugon,Brest Bretagne airport,Dinan-Trélivan Airfield,Gare de Brest,Gare de Plénée-Jugon,Avion,48.447899,-4.41854,48.443351,-2.103142,170.7756565867612,109.55859692775192,,,airports,OurAirports
Gare de Caen,Gare de La Hutte Coulombiers,Caen Carpiquet airport,Piacé Airfield,Gare de Caen,Gare de La Hutte Coulombiers,Avion,49.17678,-0.454883,48.271111,0.103889,108.72674314262704,69.75203413244392,,,airports,OurAirports
Gare de Chartres,Gare de Angers Saint-Laud,Chartres-Métropole Airfield,Soulaire Airfield,Gare de Chartres,Gare de Angers Saint-Laud,Avion,48.457502,1.519843,47.565556,-0.549722,183.12120217497912,117.47869912490316,,,airports,OurAirports
Gare de Cinq-Mars-la-Pile,Gare de Pouzauges,Hommes Volants Ultralight Airfield,Breuil Barret Airfield,Gare de Cinq-Mars-la-Pile,Gare de Pouzauges,Avion,47.418534,0.323495,46.660556,-0.663611,112.68764650026215,72.29309310479492,,,airports,OurAirports
Gare de Cinq-Mars-la-Pile,Gare de Saint-Nazaire,Hommes Volants Ultralight Airfield,Saint-Nazaire-Montoir Airport,Gare de Cinq-Mars-la-Pile,Gare de Saint-Nazaire,Avion,47.418534,0.323495,47.31142,-2.152634,186.86212586721922,119.8786333961404,,,airports,OurAirports
Gare de Flers,Gare de Dreux,Aérodrome de Flers Saint-Paul,Dreux Vernouillet Airfield,Gare de Flers,Gare de Dreux,Avion,48.749964,-0.593927,48.70543,1.361155,143.4837568519848,92.04988226550782,,,airports,OurAirports
Gare de Granville,Gare de Sainte-Gauburge,Granville Airport,L'Aigle-Saint-Michel Airfield,Gare de Granville,Gare de Sainte-Gauburge,Avion,48.883099,-1.56417,48.758502,0.656632,163.17388539632108,104.68179304108492,,,airports,OurAirports
Gare de Guingamp,Gare de Rennes,Kerfot Ultralight Airfield,Rennes-Saint-Jacques Airport,Gare de Guingamp,Gare de Rennes,Avion,48.723882,-3.027055,48.0695,-1.73479,119.98575605117155,76.97508735739173,,,airports,OurAirports
Gare de L'Aigle,Gare de Folligny,L'Aigle-Saint-Michel Airfield,Granville Airport,Gare de L'Aigle,Gare de Folligny,Avion,48.758502,0.656632,48.883099,-1.56417,163.17388539632108,104.68179304108492,,,airports,OurAirports
Gare de La Baule-Escoublac,Gare de Mer,La Baule-Escoublac Airport,Beaugency Airfield,Gare de La Baule-Escoublac,Gare de Mer,Avion,47.289398,-2.34639,47.749467,1.578984,299.1453042035859,120.56229889667506,,,airports,OurAirports
Gare de La Baule-Escoublac,Gare de Sablé-sur-Sarthe,La Baule-Escoublac Airport,Solib'Ailes Airfield,Gare de La Baule-Escoublac,Gare de Sablé-sur-Sarthe,Avion,47.289398,-2.34639,47.7775,-0.514167,147.86859167234084,94.8629081983585,,,airports,OurAirports
Gare de Landerneau,Gare de Quédillac,Landivisiau Air Base,Queneleuc Airfield,Gare de Landerneau,Gare de Quédillac,Avion,48.5303,-4.15164,48.098333,-2.076389,160.79888336434524,103.1581456107403,,,airports,OurAirports
Gare de Lille Flandres,Gare de Rouen Rive Droite,Marcq-en-Baroeul Airfield,Rouen Vallée de Seine Airport,Gare de Lille Flandres,Gare de Rouen Rive Droite,Avion,50.687199,3.07556,49.384887,1.179142,198.26771985971553,79.90635910841995,,,airports,OurAirports
Gare de Morannes,Gare de Nantes,Solib'Ailes Airfield,Nantes Atlantique Airport,Gare de Morannes,Gare de Nantes,Avion,47.7775,-0.514167,47.153198,-1.61073,107.76552686838446,69.13538004687385,,,airports,OurAirports
Gare de Mézidon - Canon,Gare de Château-du-Loir,Rouvres Airfield,Saint-Pierre-de-Chevillé Airfield,Gare de Mézidon - Canon,Gare de Château-du-Loir,Avion,49.02,-0.198333,47.633333,0.452222,161.51589691278033,103.61813504901735,,,airports,OurAirports
Gare de Nogent-le-Rotrou,Gare de Morannes,BELLEME St Germain de la Coudr Airfield,Solib'Ailes Airfield,Gare de Nogent-le-Rotrou,Gare de Morannes,Avion,48.300556,0.581111,47.7775,-0.514167,100.06724179086339,64.19665910326812,,,airports,OurAirports
Gare de Paris Montparnasse Vaugirard,Gare de Villedieu-les-Poêles,Vélizy-Villacoublay Air Base,Avranches Le Val-Saint-Père Airfield,Gare de Paris Montparnasse Vaugirard,Gare de Villedieu-les-Poêles,Avion,48.774406,2.203102,48.662255,-1.403685,264.870347317691,106.74871887826482,,,airports,OurAirports
Gare de Paris Montparnasse Vaugirard,Gare de Vire,Vélizy-Villacoublay Air Base,Aérodrome de Flers Saint-Paul,Gare de Paris Montparnasse Vaugirard,Gare de Vire,Avion,48.774406,2.203102,48.749964,-0.593927,205.0234859119462,82.62908507008417,,,airports,OurAirports
Gare de Plouaret Trégor,Gare de Caulnes,Lannion Airport,Dinan-Trélivan Airfield,Gare de Plouaret Trégor,Gare de Caulnes,Avion,48.754398,-3.47166,48.443351,-2.103142,106.41134680656668,68.2666258548212,,,airports,OurAirports
Gare de Pont-l'Évêque,Gare de Paris Saint-Lazare,Deauville Normandie airport,Paris-Le Bourget International Airport,Gare de Pont-l'Évêque,Gare de Paris Saint-Lazare,Avion,49.365237,0.154481,48.962276,2.436539,171.86476660757765,110.25729935505007,,,airports,OurAirports
Gare de Pontchâteau,Gare de Quimperlé,Campbon La Berthelière Airfield,Mellac Ultralight Airfield,Gare de Pontchâteau,Gare de Quimperlé,Avion,47.420833,-2.011944,47.912079,-3.565698,128.53200806053414,82.45780894576437,,,airports,OurAirports
Gare de Quimperlé,Gare de Nantes,Mellac Ultralight Airfield,Nantes Atlantique Airport,Gare de Quimperlé,Gare de Nantes,Avion,47.912079,-3.565698,47.153198,-1.61073,169.2912227731078,108.60628036749699,,,airports,OurAirports
Gare de Rambouillet,Gare de Saint-Mars-la-Brière,La Fontaine au Berger Airfield,Le Mans-Arnage Airport,Gare de Rambouillet,Gare de Saint-Mars-la-Brière,Avion,48.582222,1.728889,47.948604,0.201702,133.19751668832168,85.45089700896287,,,airports,OurAirports
Gare de Rennes,Gare de Landivisiau,Rennes-Saint-Jacques Airport,Landivisiau Air Base,Gare de Rennes,Gare de Landivisiau,Avion,48.0695,-1.73479,48.5303,-4.15164,185.96383602226268,119.30234883067666,,,airports,OurAirports
Gare de Rennes,Gare de Lison,Rennes-Saint-Jacques Airport,Mosles Airfield,Gare de Rennes,Gare de Lison,Avion,48.0695,-1.73479,49.30083,-0.81183,152.7620805551328,98.00225362261612,,,airports,OurAirports
Gare de Saint-Nazaire,Gare de Amboise,Saint-Nazaire-Montoir Airport,Amboise Dierre Airfield,Gare de Saint-Nazaire,Gare de Amboise,Avion,47.31142,-2.152634,47.339771,0.945861,233.543792757275,94.12341143989187,,,airports,OurAirports
Gare de Saint-Nazaire,Gare de Onzain - Chaumont-sur-Loire,Saint-Nazaire-Montoir Airport,Chouzy-sur-Cisse Airfield,Gare de Saint-Nazaire,Gare de Onzain - Chaumont-sur-Loire,Avion,47.31142,-2.152634,47.506944,1.232778,255.66465896990678,103.03861902197599,,,airports,OurAirports
Gare de Saint-Nazaire,Gare de Sablé-sur-Sarthe,Saint-Nazaire-Montoir Airport,Solib'Ailes Airfield,Gare de Saint-Nazaire,Gare de Sablé-sur-Sarthe,Avion,47.31142,-2.152634,47.7775,-0.514167,133.45143369848344,85.61379371172144,,,airports,OurAirports
Gare de Savenay,Gare de Orléans,Campbon La Berthelière Airfield,Mardié Airfield,Gare de Savenay,Gare de Orléans,Avion,47.420833,-2.011944,47.903611,2.067778,310.1709055048442,125.00586468533683,,,airports,OurAirports
Gare de Sceaux - Boëssé,Gare de Versailles Chantiers,BELLEME St Germain de la Coudr Airfield,Saint-Cyr-l'École Airport,Gare de Sceaux - Boëssé,Gare de Versailles Chantiers,Avion,48.300556,0.581111,48.812459,2.067533,123.31680112880906,79.11207006501584,,,airports,OurAirports
Gare de Tours,Gare de Cerizay,Tours Val de Loire Airport,Mauléon Airfield,Gare de Tours,Gare de Cerizay,Avion,47.432201,0.727606,46.902802,-0.697778,122.78257936661771,78.76934799394465,,,airports,OurAirports
Gare de Tours,Gare de La Baule-Escoublac,Tours Val de Loire Airport,La Baule-Escoublac Airport,Gare de Tours,Gare de La Baule-Escoublac,Avion,47.432201,0.727606,47.289398,-2.34639,232.0655244716036,93.52763600767815,,,airports,OurAirports
Gare de Épernon,Gare de Champagné,La Fontaine au Berger Airfield,Le Mans-Arnage Airport,Gare de Épernon,Gare de Champagné,Avion,48.582222,1.728889,47.948604,0.201702,133.19751668832168,85.45089700896287,,,airports,OurAirports
Gare de Évreux Normandie,Gare de Lison,Évreux-Fauville (BA 105) Air Base,Mosles Airfield,Gare de Évreux Normandie,Gare de Lison,Avion,49.028702,1.21986,49.30083,-0.81183,150.78403030386295,96.73326473676977,,,airports,OurAirports
Gare de Achiet,Gare de Morgny,La Boisselle Airfield,Rouen Vallée de Seine Airport,Gare de Achiet,Gare de Morgny,Avion,50.015803,2.688594,49.384887,1.179142,129.25029768056874,82.91861702890458,,,airports,OurAirports
Gare de Angers Saint-Laud,Gare de Amboise,Soulaire Airfield,Amboise Dierre Airfield,Gare de Angers Saint-Laud,Gare de Amboise,Avion,47.565556,-0.549722,47.339771,0.945861,115.21924849689309,73.91720492654906,,,airports,OurAirports
Gare de Angers Saint-Laud,Gare de La Baule les Pins,Soulaire Airfield,La Baule-Escoublac Airport,Gare de Angers Saint-Laud,Gare de La Baule les Pins,Avion,47.565556,-0.549722,47.289398,-2.34639,138.5969382144863,88.91481603847376,,,airports,OurAirports
Gare de Bournezeau,Gare de Tours,La Roche-sur-Yon Les Ajoncs Airport,Tours Val de Loire Airport,Gare de Bournezeau,Gare de Tours,Avion,46.7019,-1.37863,47.432201,0.727606,178.9961891180568,114.83235800194888,,,airports,OurAirports
Gare de Brest,Gare de Saint-Brieuc,Brest Bretagne airport,Saint-Brieuc-Armor Airport,Gare de Brest,Gare de Saint-Brieuc,Avion,48.447899,-4.41854,48.538628,-2.853518,115.76449294965802,74.26699844174611,,,airports,OurAirports
Gare de Caen,Gare de Vivoin - Beaumont,Caen Carpiquet airport,Assé le Riboul Airfield,Gare de Caen,Gare de Vivoin - Beaumont,Avion,49.17678,-0.454883,48.195278,0.099444,116.47662229890472,74.72385449426494,,,airports,OurAirports
Gare de Cinq-Mars-la-Pile,Gare de Savenay,Hommes Volants Ultralight Airfield,Campbon La Berthelière Airfield,Gare de Cinq-Mars-la-Pile,Gare de Savenay,Avion,47.418534,0.323495,47.420833,-2.011944,175.70513198639478,112.7210289696943,,,airports,OurAirports
