stop_id,stop_code,stop_name,stop_lat,stop_lon,stop_url,location_type,parent_station,wheelchair_boarding,platform_code
at:42:3654:0:18,,Villach Hauptbahnhof Bstg F1,46.6177326,13.8478894,,,,0,F1
at:44:41177:0:4,,Linz/Donau Industriezeile,48.3011709,14.3202236,,,,0,
at:44:46868:0:1,,Wels Eisenfeldstraße,48.165018,14.0393114,,,,0,
at:45:50809:0:3,,Salzburg Alpensiedlung P+R,47.7698673,13.0708467,,,,0,
at:45:52197:0:5,,Schwarzach-St.Veit Bahnhof,47.3184743,13.1550547,,,,0,
at:45:54001:0:2,,Saalfelden Bahnhof,47.4268359,12.8298287,,,,0,
at:45:54001:0:3,,Saalfelden Bahnhof,47.4268238,12.8297209,,,,0,
at:45:54104:0:7,,Zell am See Bahnhof,47.3205691,12.7967617,,,,0,
at:45:54104:0:8,,Zell am See Bahnhof,47.3205996,12.7967168,,,,0,
at:45:54253:0:1,,Maishofen-Saalbach Bahnhof,47.3588834,12.8103262,,,,0,
at:45:54253:0:3,,Maishofen-Saalbach Bahnhof,47.358853,12.8104071,,,,0,
at:46:3340:0:6,,Graz Fernbusbahnhof P+R Webling Bstg A,47.0363724,15.4100327,,,,0,A
at:47:1153:0:1,,Hochfilzen Bahnhof,47.4674961,12.6264411,,,,0,
at:47:1153:0:5,,Hochfilzen Bahnhof,47.4675629,12.6265309,,,,0,
at:47:1155:0:1,,Fieberbrunn Bahnhof,47.4910164,12.529441,,,,0,
at:47:1155:0:2,,Fieberbrunn Bahnhof,47.4909436,12.5293961,,,,0,
at:47:1157:0:1,,St. Johann i. T. Bahnhof,47.5196407,12.4306713,,,,0,
at:47:1157:0:2,,St. Johann i. T. Bahnhof,47.5195557,12.4306713,,,,0,
at:47:1160:0:3,,Kitzbühel Bahnhof,47.4539644,12.3910196,,,,0,
at:47:1160:0:4,,Kitzbühel Bahnhof,47.4539948,12.3911454,,,,0,
at:47:1161:0:1,,Kitzbühel Hahnenkamm Bahnhof,47.4433577,12.3899686,,,,0,
at:47:1161:0:2,,Kitzbühel Hahnenkamm Bahnhof,47.4432909,12.3899147,,,,0,
at:47:1163:0:1,,Kirchberg i. T. Bahnhof,47.4489529,12.3088956,,,,0,
at:47:1163:0:4,,Kirchberg i. T. Bahnhof,47.4489104,12.3088867,,,,0,
at:47:1168:0:3,,Hopfgarten i. Br. Bahnhof,47.4556348,12.1490314,,,,0,
at:47:1168:0:4,,Hopfgarten i. Br. Bahnhof,47.4552704,12.1490135,,,,0,
at:47:1170:0:13,,Wörgl Hauptbahnhof,47.4921333,12.0612211,,,,0,
at:47:1170:0:17,,Wörgl Hauptbahnhof,47.4919937,12.0613828,,,,0,
at:47:2184:0:13,,Kufstein Bahnhof,47.5830959,12.1655874,,,,0,
at:47:2184:0:18,,Kufstein Bahnhof,47.5830959,12.1656413,,,,0,
at:47:68442:0:1,,Innsbruck Südbahnstraße Ersatzhaltestelle,47.2584609,11.3997826,,,,0,
at:48:452:0:4,,Bregenz Bahnhof C,47.5021233,9.7395612,,,,0,C
at:48:466:5:6,,Bregenz Hafen Bahnhof,47.5061406,9.7483378,,,,0,
at:49:1349:0:35,,Wien Hauptbahnhof,48.1851041,16.377114,,,,0,
at:49:289:0:1,,Wien Erdberg,48.1904463,16.4154002,,,,0,
be:26:8812005:10:1,,Bruxelles-Nord,50.8614481,4.3599642,,,,0,
be:26:8821121:11:Flix,,Antwerpen-Berchem,51.2012555,4.4359437,,,,0,
be:26092:11716:0:1,,Namur (B) Flixbus,50.4664894,4.8710247,,,,0,
ch:230001:3297,,"Auw, Sinserstrasse",47.2109883,8.3659473,,,,0,
ch:23001:13920:0:1,,"Rheinfelden, Albrechtsplatz",47.5551974,7.794502,,,,0,
ch:23001:18880:90,,Klingnau,47.5815568,8.2502982,,,,0,
ch:23001:18924:30,,"Würenlos, Bahnhof",47.4467477,8.3588506,,,,0,
ch:23001:19169:90,,Rietheim,47.6007498,8.2773285,,,,0,
ch:23001:19182:90,,Rekingen,47.5699698,8.3271221,,,,0,
ch:23001:19304:90,,Mellikon,47.5684849,8.3525085,,,,0,
ch:23001:19464:90,,Koblenz Dorf,47.6093868,8.2401652,,,,0,
ch:23001:19518:90,,Hallwil,47.3286373,8.1759446,,,,0,
ch:23001:19760:90,,Birrwil,47.2878576,8.1990134,,,,0,
ch:23001:19993:30,,"Mägenwil, Bahnhof",47.4144366,8.2354041,,,,0,
ch:23001:20003:90,,Frick,47.5073482,8.0130891,,,,0,
ch:23001:20019:90,,Baden,47.4764222,8.3077095,,,,0,
ch:23001:20020:30,,"Kaiserstuhl AG, Bahnhof",47.566515,8.4183371,,,,0,
ch:23001:20020:90,,"Kaiserstuhl AG, Bahnhof",47.5664483,8.4191635,,,,0,
ch:23001:20186:90,,Rheinfelden,47.5512142,7.7921664,,,,0,
ch:23001:20189:90,,Möhlin,47.5618598,7.8338662,,,,0,
ch:23001:20198:90,,Brugg AG,47.4808604,8.2088409,,,,0,
ch:23001:20200:90,,Döttingen,47.5752728,8.2563618,,,,0,
ch:23001:20201:90,,Siggenthal-Würenlingen,47.5206902,8.2406593,,,,0,
ch:23001:20202:30,,"Bad Zurzach, Bahnhof",47.5882158,8.2953218,,,,0,
ch:23001:20202:90,,"Bad Zurzach, Bahnhof",47.5883127,8.2955913,,,,0,
ch:23001:20204:30,,"Koblenz, Bahnhof",47.6002834,8.2266725,,,,0,
ch:23001:20204:90,,"Koblenz, Bahnhof",47.6003379,8.2270498,,,,0,
ch:23001:20210:30,,"Dottikon-Dintikon, Bahnhof",47.3735346,8.2344609,,,,0,
ch:23001:20218:30,,"Muri AG, Bahnhof",47.2764983,8.3396896,,,,0,
ch:23001:20221:90,,Stein-Säckingen,47.5416095,7.9488416,,,,0,
ch:23001:20466:90,,"Seon, Post/Bahnhof",47.3461516,8.1588048,,,,0,
ch:23001:20467:90,,"Boniswil, Bahnhof",47.3150394,8.1845595,,,,0,
ch:23001:20510:30,,"Beinwil am See, Bahnhof",47.2676175,8.2021575,,,,0,
ch:23001:20510:90,,"Beinwil am See, Bahnhof",47.2672213,8.2022383,,,,0,
ch:23001:20513:30,,"Rümikon, Bahnhof",47.5655997,8.3747777,,,,0,
ch:23001:20513:90,,"Rümikon, Bahnhof",47.5653815,8.3736638,,,,0,
ch:23001:21561:0:2,,"Rheinfelden, Altersheim",47.5546033,7.798778,,,,0,
ch:23001:26017,,"Baden, Bahnhof West",47.4764526,8.306937,,,,0,
ch:23001:26505:0:1,,"Rheinfelden, Waldfriedhof",47.5547731,7.8047608,,,,0,
ch:23001:27264:30,,"Mellingen Heitersberg, Bahnhof",47.4283431,8.2762415,,,,0,
ch:23001:27714:30,,"Brugg AG, Bahnhof/Campus",47.4806661,8.2098201,,,,0,
ch:23001:27715,,"Eiken, Poststrasse",47.5324398,7.9882327,,,,0,
ch:23001:27716,,"Rupperswil, Bahnhof",47.4030801,8.1269056,,,,0,
ch:23001:31688:0:1,,"Rheinfelden, Stadtpark",47.556028,7.7984726,,,,0,
ch:23001:31836,,"Neuenhof, Landhaus",47.4497913,8.3269874,,,,0,
ch:23001:31866:30,,"Wettingen, Bahnhof",47.4591698,8.3150847,,,,0,
ch:23001:3418:0:1,,"Rheinfelden, Regionalspital",47.556416,7.8065574,,,,0,
ch:23001:3418:0:2,,"Rheinfelden, Regionalspital",47.5563614,7.8064047,,,,0,
ch:23001:3425:30,,"Möhlin, Bahnhof",47.5615749,7.8332104,,,,0,
ch:23001:3445:1,,"Laufenburg AG, Bahnhof",47.5594835,8.0602596,,,,0,
ch:23001:3454:30,,"Mumpf, Bahnhof",47.5475278,7.9101601,,,,0,
ch:23001:3476:30,,"Döttingen AG, Bahnhof",47.5756485,8.2558139,,,,0,
ch:23001:3477,,"Siggenthal-W., Bahnhof",47.5198894,8.2406772,,,,0,
ch:23001:3483,,"Birr, Bahnhof",47.4374399,8.2167641,,,,0,
ch:23001:3510,,"Ehrendingen, Tiefenwaag",47.5056794,8.3461484,,,,0,
ch:23001:3531,,"Benzenschwil, Bahnhof",47.2480344,8.3638632,,,,0,
ch:23001:3540,,"Küngoldingen, Post",47.3037834,7.943829,,,,0,
ch:23001:3552,,"Brittnau-Wikon, Bahnhof",47.2625395,7.9569174,,,,0,
ch:23001:3557:30,,"Stein-Säckingen, Bahnhof",47.5414215,7.9499375,,,,0,
ch:23001:3713,,"Oberentfelden, Bahnhof",47.356997,8.0486354,,,,0,
ch:23001:3735,,"Boswil-Bünzen, Bahnhof",47.3053733,8.3152913,,,,0,
ch:23001:4979,,"Sins, Bahnhof",47.188161,8.3974872,,,,0,
ch:23001:4983,,"Oberrüti, Dorf",47.1651589,8.3944149,,,,0,
ch:23001:518:90,,Lenzburg,47.3911982,8.1703931,,,,0,
ch:23001:5283:30,,"Rheinfelden, Augarten Zentrum",47.547649,7.7674448,,,,0,
ch:23001:5373:30,,"Lenzburg, Bahnhof",47.3908273,8.1712375,,,,0,
ch:23001:5388,,"Rekingen AG, Dorf",47.5700243,8.3217412,,,,0,
ch:23001:540:1,,"Frick, Bahnhof",47.5068081,8.0128375,,,,0,
ch:23001:6058,,"Koblenz, Landstrasse/Dorf",47.6094776,8.2387638,,,,0,
ch:23001:6059,,"Rietheim, Hauptstrasse",47.6006892,8.2784963,,,,0,
ch:23001:6167:30,,"Othmarsingen, Bahnhof",47.406874,8.2151651,,,,0,
ch:23001:64434,,"Schinznach Bad, Steinbruch",47.4491838,8.1685874,,,,0,
ch:23001:6454,,"Kölliken, Bahnhof",47.3374469,8.0258541,,,,0,
ch:23001:6455,,"Oberentfelden, Ref. Kirche",47.3575203,8.0482581,,,,0,
ch:23001:6456:30,,Suhr,47.3715818,8.081891,,,,0,
ch:23001:64882:0:1,,"Rheinfelden, HPS",47.5464181,7.7958405,,,,0,
ch:23001:64882:0:2,,"Rheinfelden, HPS",47.5464848,7.7958854,,,,0,
ch:23001:64883:0:1,,"Rheinfelden, Lichsweg",47.5502199,7.7964424,,,,0,
ch:23001:64884:0:1,,"Rheinfelden, Rosengässchen",47.5526451,7.7992271,,,,0,
ch:23001:64885:0:2,,"Rheinfelden, Sonnenbergstrasse",47.5498015,7.7991463,,,,0,
ch:23001:66251:0:1,,"Rheinfelden, Habich-Dietschy-S",47.5519054,7.7876838,,,,0,
ch:23001:66251:0:2,,"Rheinfelden, Habich-Dietschy-S",47.552063,7.7877916,,,,0,
ch:23001:663:30,,"Wohlen AG, Bahnhof",47.349274,8.2691718,,,,0,
ch:23001:67102,,"Zofingen, Bahnhofplatz",47.2881684,7.9436493,,,,0,
ch:23001:67320,,"Wildegg, Bahnhof/Talstrasse",47.4159016,8.1622543,,,,0,
ch:23001:684:30,,"Aarau, Bahnhof",47.3918611,8.051007,,,,0,
ch:23001:69267,,"Hunzenschwil, Bahnhof",47.3881209,8.1253875,,,,0,
ch:23001:69269,,"Safenwil, Striegel Passhöhe",47.3169822,7.9689099,,,,0,
ch:23001:69807,,Seon Nord,47.3531569,8.1602511,,,,0,
ch:23001:73048:30,,"Wettingen, Bahnhofplatz",47.4600626,8.3157584,,,,0,
ch:23001:75374,,"Holderbank AG, Hauptstr./Bhf.",47.4287016,8.1673927,,,,0,
ch:23001:78019,,"Kölliken, Oberdorf",47.3247465,8.0192246,,,,0,
ch:23001:78473,,"Mühlau, Dorf",47.2300118,8.3893125,,,,0,
ch:23001:78939,,"Lupfig, Bahnhof",47.4448644,8.2147069,,,,0,
ch:23001:78994,,"Mellikon, Bahnhof",47.5681333,8.3523827,,,,0,
ch:23001:78998,,"Rekingen AG, Bahnhof",47.5695395,8.3276342,,,,0,
ch:23001:8139:0:1,,"Rheinfelden, Untere Marktgasse",47.5547488,7.7908459,,,,0,
ch:23001:8139:0:2,,"Rheinfelden, Untere Marktgasse",47.5548822,7.790747,,,,0,
ch:23001:817:90,,Turgi,47.491757,8.2534603,,,,0,
ch:23001:818:90,,Wettingen,47.4596375,8.31601,,,,0,
ch:23001:819:1,,Killwangen-Spreitenbach,47.433156,8.3542512,,,,0,
ch:23001:8373:0:1,,"Rheinfelden, Post",47.5527057,7.7947625,,,,0,
ch:23001:8373:0:2,,"Rheinfelden, Post",47.5528754,7.7948793,,,,0,
ch:23001:8450:30,,"Rheinfelden, Bahnhof",47.5513476,7.7918879,,,,0,
ch:23001:8450:30:1,,"Rheinfelden, Bahnhof",47.5513597,7.7921394,,,,0,
ch:23001:8450:30:2,,"Rheinfelden, Bahnhof",47.5513112,7.7919957,,,,0,
ch:23001:846,,"Schneisingen, Murzlen",47.51216,8.3643303,,,,0,
ch:23001:950:30,,"Turgi, Bahnhof",47.4919391,8.2536848,,,,0,
ch:23001:99010:0:2,,"Rheinfelden, Dianapark",47.5526147,7.8005836,,,,0,
ch:23001:99011:0:2,,"Rheinfelden, Kohlplatz",47.5533301,7.8041858,,,,0,
ch:23001:99408,,"Klingnau, Dorfstrasse",47.5816114,8.2480704,,,,0,
ch:23001:99424,,"Hendschiken, Bahnhof",47.3889845,8.2075653,,,,0,
ch:23001:99425,,"Safenwil, Bahnhof",47.3216774,7.9838669,,,,0,
ch:23001:99426,,"Oberrüti, Bahnhof",47.1659162,8.4034071,,,,0,
ch:23002:20460:90,,Herisau,47.3901644,9.2768121,,,,0,
ch:23004:1002:1:2,,"Allschwil, Friedhof",47.5548458,7.5370538,,,,0,
ch:23004:1005:1:1,,"Allschwil, Grabenring",47.5546943,7.5390211,,,,0,
ch:23004:1005:1:2,,"Allschwil, Grabenring",47.5545972,7.5398476,,,,0,
ch:23004:1006:1:1,,"Allschwil, Hagmattstrasse",47.5559492,7.5448692,,,,0,
ch:23004:1006:1:2,,"Allschwil, Hagmattstrasse",47.5555976,7.5441775,,,,0,
ch:23004:1007:1:1,,"Allschwil, Im Brühl",47.5573193,7.5471509,,,,0,
ch:23004:1007:1:2,,"Allschwil, Im Brühl",47.5574466,7.5472767,,,,0,
ch:23004:1009:1:1,,"Allschwil, Kreuzstrasse",47.5597987,7.5512562,,,,0,
ch:23004:1009:1:2,,"Allschwil, Kreuzstrasse",47.5591804,7.5501872,,,,0,
ch:23004:1010:1:1,,"Allschwil, Wänglismatten",47.5616961,7.5544183,,,,0,
ch:23004:1010:1:2,,"Allschwil, Wänglismatten",47.5615749,7.5541937,,,,0,
ch:23004:19076:90,,Sommerau,47.4390197,7.8514821,,,,0,
ch:23004:19136:90,,Rümlingen,47.4253773,7.8505389,,,,0,
ch:23004:19640:90,,Diepflingen,47.4495604,7.83772,,,,0,
ch:23004:19722:90,,Buckten,47.4089897,7.8477991,,,,0,
ch:23004:3361:1,,"Zwingen, Bahnhof",47.433551,7.5305231,,,,0,
ch:23004:3371:1,,"Laufen, Bahnhof",47.4190077,7.5022082,,,,0,
ch:23004:3420:30,,"Gelterkinden, Bahnhof",47.4660387,7.8485986,,,,0,
ch:23004:3423:30,,"Tecknau, Bahnhof",47.4461706,7.8875405,,,,0,
ch:23004:5255:90,,Sissach,47.4627531,7.8120281,,,,0,
ch:23004:541:1,,"Grellingen, Bahnhof",47.4415047,7.5919409,,,,0,
ch:23004:562:1,,"Aesch BL, Bahnhof",47.4675933,7.6026847,,,,0,
ch:23004:61226,,"Duggingen, Hofackerbühne/Bhf.",47.4521725,7.6044814,,,,0,
ch:23004:6127:1,,"Liestal, Bahnhof",47.4843208,7.7316559,,,,0,
ch:23004:6128:1,,"Lausen, Bahnhof Nord",47.4704291,7.7597552,,,,0,
ch:23004:6148:1,,"Sissach, Bahnhof",47.4626377,7.8128546,,,,0,
ch:23004:6199:1,,"Münchenstein, Bahnhof",47.5133795,7.6179022,,,,0,
ch:23004:6287:1,,"Muttenz, Bahnhof",47.5334163,7.6476005,,,,0,
ch:23004:62872:30,,"Pratteln, Bahnhof Nord",47.5231714,7.6908813,,,,0,
ch:23004:630:1,,"Frenkendorf-Füllinsdorf, Bahnhof",47.5018259,7.7191693,,,,0,
ch:23004:649:90,,Läufelfingen,47.3921348,7.8562342,,,,0,
ch:23004:69557,,"Pratteln, Längipark",47.5332586,7.7060898,,,,0,
ch:23004:77146,,"Itingen, Landstrasse/Bahnhof",47.4669192,7.7867945,,,,0,
ch:23005:1:4:1,,Aeschenplatz A,47.5511051,7.5946718,,,,0,A
ch:23005:1:4:2,,Aeschenplatz B,47.5507049,7.593998,,,,0,B
ch:23005:1:4:4,,Aeschenplatz,47.5512081,7.5949862,,,,0,
ch:23005:102:1:3,,Universitätsspital D,47.5611323,7.586533,,0,ch:23005:102_Parent,0,D
ch:23005:102:1:4,,Universitätsspital A,47.5618113,7.5852934,,0,ch:23005:102_Parent,0,A
ch:23005:102:1:41,,Universitätsspital,47.5618355,7.5859042,,0,ch:23005:102_Parent,0,
ch:23005:102:1:43,,Universitätsspital,47.5618901,7.5847723,,0,ch:23005:102_Parent,0,
ch:23005:102_Parent,,Universitätsspital,47.5615082,7.5860479,,1,,,
ch:23005:103:1:2,,Rankstrasse,47.5607929,7.6154498,,,,0,
ch:23005:103:2:1,,Rankstrasse,47.5610657,7.6170578,,,,0,
ch:23005:105:1:1,,Rheingasse,47.5611263,7.5920128,,0,ch:23005:105_Parent,0,
ch:23005:105:1:2,,Rheingasse,47.560902,7.5912582,,0,ch:23005:105_Parent,0,
ch:23005:105:1:3,,Rheingasse,47.5610899,7.5919229,,0,ch:23005:105_Parent,0,
ch:23005:105:1:4,,Rheingasse,47.5609687,7.591357,,0,ch:23005:105_Parent,0,
ch:23005:105_Parent,,Rheingasse,47.561005,7.5916265,,1,,,
ch:23005:106:1:1,,Riehenring,47.5669696,7.5976721,,,,0,
ch:23005:106:1:2,,Riehenring,47.5663756,7.5976452,,,,0,
ch:23005:108:1:1,,Rosengartenweg,47.5587985,7.6039783,,,,0,
ch:23005:108:1:2,,Rosengartenweg,47.5587985,7.6034214,,,,0,
ch:23005:11:1:1,,Bernerring,47.5490133,7.5696447,,,,0,
ch:23005:11:1:2,,Bernerring,47.5491224,7.5698064,,,,0,
ch:23005:111:1:2,,Novartis Campus,47.5707456,7.5816372,,,,0,
ch:23005:112:1:1,,Sportzentrum Rankhof,47.5610778,7.6215494,,,,0,
ch:23005:112:1:2,,Sportzentrum Rankhof,47.5609444,7.6208217,,,,0,
ch:23005:114:1:2,,Schifflände C,47.5593683,7.5872158,,0,ch:23005:114_Parent,0,C
ch:23005:114:4:10,,Schifflände E,47.5598351,7.588168,,0,ch:23005:114_Parent,0,E
ch:23005:114:4:11,,Schifflände F,47.5596593,7.5883836,,0,ch:23005:114_Parent,0,F
ch:23005:114:4:3,,Schifflände F,47.5596593,7.5883836,,0,ch:23005:114_Parent,0,F
ch:23005:114_Parent,,Schifflände,47.5594411,7.5877547,,1,,,
ch:23005:116:1:1,,Schützenhaus A,47.5532938,7.5770917,,0,ch:23005:116_Parent,0,A
ch:23005:116:1:2,,Schützenhaus B,47.5536636,7.5768582,,0,ch:23005:116_Parent,0,B
ch:23005:116:2:3,,Schützenhaus E,47.5530452,7.576975,,0,ch:23005:116_Parent,0,E
ch:23005:116:2:4,,Schützenhaus F,47.5527906,7.5765258,,0,ch:23005:116_Parent,0,F
ch:23005:116_Parent,,Schützenhaus,47.5532028,7.5772265,,1,,,
ch:23005:119:1:1,,Tinguely Museum B,47.5597381,7.6122967,,,,0,B
ch:23005:119:2:2,,Tinguely Museum C,47.5597927,7.6117577,,,,0,C
ch:23005:123:1:3,,Strassburgerallee,47.5636358,7.5713874,,,,0,
ch:23005:123:1:4,,Strassburgerallee,47.5630963,7.570534,,,,0,
ch:23005:125:1:1,,Surinam,47.5695516,7.6084699,,,,0,
ch:23005:127:1:1,,Theater G,47.5533423,7.5898658,,,,0,G
ch:23005:129:1:3,,Thomaskirche A,47.5643693,7.5622606,,,,0,A
ch:23005:129:1:4,,Thomaskirche B,47.5643329,7.562548,,,,0,B
ch:23005:13:1:2,,Birmannsgasse,47.557677,7.5751424,,,,0,
ch:23005:132:1:4,,Voltaplatz A,47.5708244,7.5770378,,,,0,A
ch:23005:137:1:1,,Wettsteinplatz,47.5592592,7.5983099,,0,ch:23005:137_Parent,0,
ch:23005:137:1:2,,Wettsteinplatz,47.5589622,7.5981033,,0,ch:23005:137_Parent,0,
ch:23005:137:1:3,,Wettsteinplatz,47.5591986,7.5985705,,0,ch:23005:137_Parent,0,
ch:23005:137:1:4,,Wettsteinplatz,47.5593501,7.5983638,,0,ch:23005:137_Parent,0,
ch:23005:137:1:41,,Wettsteinplatz,47.5590106,7.5993969,,0,ch:23005:137_Parent,0,
ch:23005:137:1:42,,Wettsteinplatz,47.5589379,7.6004749,,0,ch:23005:137_Parent,0,
ch:23005:137_Parent,,Wettsteinplatz,47.5591622,7.5983818,,1,,,
ch:23005:139:1:1,,Wiesenplatz,47.5767938,7.5914289,,,,0,
ch:23005:139:1:2,,Wiesenplatz,47.5764181,7.5912312,,,,0,
ch:23005:139:1:3,,Wiesenplatz,47.5771756,7.5916624,,,,0,
ch:23005:14:1:1,,Bläsiring,47.569097,7.5904048,,,,0,
ch:23005:14:1:2,,Bläsiring,47.5688,7.5903688,,,,0,
ch:23005:141:1:2,,MParc,47.5388199,7.6066283,,,,0,
ch:23005:141:1:3,,MParc,47.5392566,7.606269,,,,0,
ch:23005:145:1:1,,Zoo Bachletten,47.5507655,7.5806581,,,,0,
ch:23005:145:1:2,,Zoo Bachletten,47.5510081,7.5802538,,,,0,
ch:23005:15:1:1,,Blotzheimerstrasse,47.5616355,7.5691956,,,,0,
ch:23005:15:1:2,,Blotzheimerstrasse,47.5616173,7.5685398,,,,0,
ch:23005:16:1:1,,Brausebad E,47.5551186,7.57587,,,,0,E
ch:23005:16:1:2,,Brausebad D,47.5554642,7.5758072,,,,0,D
ch:23005:18:1:1,,Brombacherstrasse,47.5707092,7.5943843,,,,0,
ch:23005:18:1:2,,Brombacherstrasse,47.5706547,7.5948874,,,,0,
ch:23005:22:1:1,,Bundesplatz,47.5512809,7.5745495,,,,0,
ch:23005:22:1:2,,Bundesplatz,47.5513779,7.5747112,,,,0,
ch:23005:24:2:4,,Burgfelderplatz D,47.5625023,7.5738129,,,,0,D
ch:23005:26:1:1,,Ciba,47.5736062,7.5903329,,,,0,
ch:23005:26:1:2,,Ciba,47.5732304,7.5901802,,,,0,
ch:23005:27:1:1,,Claraplatz,47.5620901,7.5928931,,0,ch:23005:27_Parent,0,
ch:23005:27:1:2,,Claraplatz,47.5617385,7.5932345,,0,ch:23005:27_Parent,0,
ch:23005:27:2:6,,Claraplatz,47.5613869,7.5936657,,0,ch:23005:27_Parent,0,
ch:23005:27:3:11,,Claraplatz,47.5617446,7.5940969,,0,ch:23005:27_Parent,0,
ch:23005:27:3:3,,Claraplatz,47.561884,7.5942765,,0,ch:23005:27_Parent,0,
ch:23005:27:3:5,,Claraplatz,47.5618113,7.5942316,,0,ch:23005:27_Parent,0,
ch:23005:27_Parent,,Claraplatz,47.561684,7.5934321,,1,,,
ch:23005:28:1:1,,Clarastrasse,47.5626235,7.596693,,,,0,
ch:23005:28:1:2,,Clarastrasse,47.5627266,7.5968816,,,,0,
ch:23005:30:1:2,,Denkmal,47.548025,7.5981213,,,,0,
ch:23005:300,,Basel SBB,47.54747,7.5894,,0,ch:23005:300_Parent,0,
ch:23005:300:4:71,,Basel SBB 1,47.5470184,7.5909797,,0,ch:23005:300_Parent,0,1
ch:23005:300:5:73,,Basel SBB,47.546879,7.5908988,,0,ch:23005:300_Parent,0,
ch:23005:300:5:74,,Basel SBB,47.5468183,7.5907551,,0,ch:23005:300_Parent,0,
ch:23005:300:83:98,,Basel SBB,47.5456966,7.5902161,,0,ch:23005:300_Parent,0,
ch:23005:300:9:82,,Basel SBB,47.5465515,7.5895154,,0,ch:23005:300_Parent,0,
ch:23005:300_Parent,,Basel SBB,47.5473944,7.5893537,,1,,,
ch:23005:33:1:1,,Dreirosenbrücke D,47.5704971,7.5902431,,0,ch:23005:33_Parent,0,D
ch:23005:33:1:2,,Dreirosenbrücke C,47.5710971,7.5900814,,0,ch:23005:33_Parent,0,C
ch:23005:33:1:4,,Dreirosenbrücke A,47.570685,7.5897221,,0,ch:23005:33_Parent,0,A
ch:23005:33:1:83,,Dreirosenbrücke E,47.5707456,7.5907012,,0,ch:23005:33_Parent,0,E
ch:23005:33_Parent,,Dreirosenbrücke,47.5707456,7.5900904,,1,,,
ch:23005:34:1,,Dreispitz,47.5371825,7.6086945,,,,0,
ch:23005:37:1:1,,Feldbergstrasse,47.5660665,7.5911144,,,,0,
ch:23005:37:1:2,,Feldbergstrasse,47.5664726,7.5909168,,,,0,
ch:23005:4:1:1,,Allmendstrasse,47.5623932,7.6264003,,,,0,
ch:23005:4:1:2,,Allmendstrasse,47.5624235,7.6260679,,,,0,
ch:23005:402:1:2,,Weil am Rhein Grenze,47.5889792,7.5930099,,,,0,
ch:23005:403:1:1,,Basel Bachgraben C,47.5636722,7.5574725,,,,0,C
ch:23005:403:1:2,,Basel Bachgraben B,47.563551,7.5572749,,,,0,B
ch:23005:403:1:3,,Basel Bachgraben A,47.563751,7.5566191,,,,0,A
ch:23005:409:1:1,,Otterbach Grenze,47.5804176,7.604122,,,,0,
ch:23005:409:1:2,,Otterbach Grenze,47.5804176,7.604122,,,,0,
ch:23005:42:1:2,,Bahnhof St.Johann C,47.570588,7.5728697,,,,0,C
ch:23005:442:1:1,,Belforterstrasse,47.5651936,7.5592422,,,,0,
ch:23005:442:1:2,,Belforterstrasse,47.5651633,7.5596914,,,,0,
ch:23005:45:1:1,,Gewerbeschule,47.5645511,7.603098,,,,0,
ch:23005:47:1:2,,Grosspeterstrasse,47.5454783,7.5987411,,,,0,
ch:23005:472:1:1,,Ensisheimerstrasse,47.5630721,7.5661682,,,,0,
ch:23005:472:1:2,,Ensisheimerstrasse,47.56326,7.5660514,,,,0,
ch:23005:477:1:1,,Peter Merian,47.5454298,7.5959294,,,,0,
ch:23005:477:1:2,,Peter Merian,47.5452418,7.5964325,,,,0,
ch:23005:480:1:1,,Musical Theater,47.5691455,7.5976452,,,,0,
ch:23005:480:1:2,,Musical Theater,47.5688909,7.5975284,,,,0,
ch:23005:5:1:1,,Allschwilerplatz,47.5571495,7.5708305,,,,0,
ch:23005:5:1:2,,Allschwilerplatz,47.5573435,7.5705251,,,,0,
ch:23005:52:1:2,,Hegenheimerstrasse,47.5604473,7.5743788,,,,0,
ch:23005:56:1:1,,Heuwaage,47.5513294,7.5881859,,,,0,
ch:23005:58:1:1,,Hoffmann-La Roche,47.5590531,7.6079938,,,,0,
ch:23005:58:1:2,,Hoffmann-La Roche,47.5592349,7.6085058,,,,0,
ch:23005:6:1:1,,Badischer Bahnhof G,47.5662483,7.6066553,,0,ch:23005:6_Parent,0,G
ch:23005:6:2:4,,Badischer Bahnhof F,47.5663392,7.607356,,0,ch:23005:6_Parent,0,F
ch:23005:6:3:5,,Badischer Bahnhof A,47.5667817,7.6067721,,0,ch:23005:6_Parent,0,A
ch:23005:6:4:50,,Badischer Bahnhof,47.566515,7.6071404,,0,ch:23005:6_Parent,0,
ch:23005:6:4:72,,Badischer Bahnhof,47.5674484,7.6075446,,0,ch:23005:6_Parent,0,
ch:23005:6:4:73,,Badischer Bahnhof,47.5675212,7.6077512,,0,ch:23005:6_Parent,0,
ch:23005:6:5,,Badischer Bahnhof,47.566515,7.6071404,,0,ch:23005:6_Parent,0,
ch:23005:6:5:7,,Badischer Bahnhof B,47.5671635,7.6069068,,0,ch:23005:6_Parent,0,B
ch:23005:6:6:74,,Badischer Bahnhof,47.5675515,7.6078051,,0,ch:23005:6_Parent,0,
ch:23005:6:6:75,,Badischer Bahnhof,47.5676303,7.6080028,,0,ch:23005:6_Parent,0,
ch:23005:6:7:76,,Badischer Bahnhof,47.5676909,7.6081106,,0,ch:23005:6_Parent,0,
ch:23005:6:7:77,,Badischer Bahnhof,47.5677212,7.6082453,,0,ch:23005:6_Parent,0,
ch:23005:6:8:78,,Badischer Bahnhof,47.5677575,7.6082902,,0,ch:23005:6_Parent,0,
ch:23005:6:8:79,,Badischer Bahnhof,47.5678242,7.6084789,,0,ch:23005:6_Parent,0,
ch:23005:6:9:80,,Badischer Bahnhof,47.5678606,7.6085328,,0,ch:23005:6_Parent,0,
ch:23005:6:9:81,,Badischer Bahnhof,47.5679272,7.6086855,,0,ch:23005:6_Parent,0,
ch:23005:6_Parent,,Badischer Bahnhof,47.566515,7.6071404,,1,,,
ch:23005:62:1:2,,Inselstrasse,47.5768423,7.5893358,,,,0,
ch:23005:69:1:2,,Kannenfeldplatz D,47.5657331,7.5734805,,,,0,D
ch:23005:69:1:3,,Kannenfeldplatz C,47.5653633,7.573777,,,,0,C
ch:23005:69:1:6,,Kannenfeldplatz F,47.5655391,7.5730583,,,,0,F
ch:23005:7,,Bahnhof SBB,47.5481098,7.5901443,,0,ch:23005:7_Parent,0,
ch:23005:7:1:31,,Bahnhof SBB D,47.5482129,7.5899826,,0,ch:23005:7_Parent,0,D
ch:23005:7:1:32,,Bahnhof SBB E,47.5481887,7.5900544,,0,ch:23005:7_Parent,0,E
ch:23005:7:1:33,,Bahnhof SBB F,47.5485282,7.5904138,,0,ch:23005:7_Parent,0,F
ch:23005:7:2:34,,Bahnhof SBB G,47.548122,7.590288,,0,ch:23005:7_Parent,0,G
ch:23005:7:2:35,,Bahnhof SBB H,47.5484312,7.5906114,,0,ch:23005:7_Parent,0,H
ch:23005:7:2:36,,Bahnhof SBB J,47.548407,7.5906833,,0,ch:23005:7_Parent,0,J
ch:23005:7_Parent,,Bahnhof SBB,47.5481098,7.5901443,,1,,,
ch:23005:70:1:1,,Kinderspital UKBB D,47.5630175,7.5831733,,,,0,D
ch:23005:70:1:2,,Kinderspital UKBB C,47.5631691,7.5830835,,,,0,C
ch:23005:7056:1:1,,Kleinhüningeranlage,47.5839563,7.5939172,,,,0,
ch:23005:7056:1:2,,Kleinhüningeranlage,47.5835443,7.5937375,,,,0,
ch:23005:72:1:1,,Kaserne,47.5638298,7.5915456,,,,0,
ch:23005:72:1:2,,Kaserne,47.5635085,7.5916804,,,,0,
ch:23005:73:1:1,,Kirschgarten,47.5515598,7.5910605,,,,0,
ch:23005:73:1:2,,Kirschgarten,47.5510929,7.5910156,,,,0,
ch:23005:74:1:1,,Kleinhüningen B,47.5812539,7.5921475,,,,0,B
ch:23005:74:1:3,,Kleinhüningen C,47.5812175,7.5921116,,,,0,C
ch:23005:74:1:5,,Kleinhüningen A,47.5803934,7.5928123,,,,0,A
ch:23005:76:1:1,,Kunstmuseum,47.5544881,7.5942675,,,,0,
ch:23005:76:1:2,,Kunstmuseum,47.5543487,7.5937375,,,,0,
ch:23005:78:1:1,,Im langen Loh,47.5461453,7.5595656,,,,0,
ch:23005:78:1:2,,Im langen Loh,47.5461999,7.5598621,,,,0,
ch:23005:79:1:1,,Laupenring,47.5482129,7.5680816,,,,0,
ch:23005:79:1:2,,Laupenring,47.5480007,7.5676055,,,,0,
ch:23005:8:1:1,,Bankverein C,47.5534575,7.5919319,,0,ch:23005:8_Parent,0,C
ch:23005:8:1:2,,Bankverein D,47.5539667,7.5923362,,0,ch:23005:8_Parent,0,D
ch:23005:8:2:3,,Bankverein A,47.5535545,7.5923272,,0,ch:23005:8_Parent,0,A
ch:23005:8:2:4,,Bankverein B,47.5528512,7.5929829,,0,ch:23005:8_Parent,0,B
ch:23005:8_Parent,,Bankverein,47.5537606,7.5920307,,1,,,
ch:23005:801:1:3,,Bahnübergang C,47.5811387,7.6491815,,0,ch:23005:801_Parent,0,C
ch:23005:801:1:4,,Bahnübergang D,47.5813266,7.649478,,0,ch:23005:801_Parent,0,D
ch:23005:801:1:5,,Bahnübergang E,47.5809024,7.6496307,,0,ch:23005:801_Parent,0,E
ch:23005:801:1:6,,Bahnübergang,47.5806661,7.6492354,,0,ch:23005:801_Parent,0,
ch:23005:801_Parent,,Bahnübergang,47.5809933,7.6489749,,1,,,
ch:23005:805:1:3,,"Riehen, Dorf",47.584538,7.6497385,,,,0,
ch:23005:805:1:4,,"Riehen, Dorf",47.5842532,7.6493163,,,,0,
ch:23005:807:1:1,,Friedhof am Hörnli C,47.5665392,7.6365961,,0,ch:23005:807_Parent,0,C
ch:23005:807:1:2,,Friedhof am Hörnli E,47.5659149,7.6363177,,0,ch:23005:807_Parent,0,E
ch:23005:807:1:3,,Friedhof am Hörnli B,47.5670423,7.6358326,,0,ch:23005:807_Parent,0,B
ch:23005:807:1:6,,Friedhof am Hörnli A,47.5668665,7.6360841,,0,ch:23005:807_Parent,0,A
ch:23005:807_Parent,,Friedhof am Hörnli,47.5661513,7.6363177,,1,,,
ch:23005:811:2:5,,Habermatten,47.572685,7.6297959,,,,0,
ch:23005:812:1:1,,Hinter Gärten D,47.586998,7.6554967,,0,ch:23005:812_Parent,0,D
ch:23005:812:1:2,,Hinter Gärten C,47.5870949,7.6556404,,0,ch:23005:812_Parent,0,C
ch:23005:812:1:3,,Hinter Gärten A,47.5874827,7.655344,,0,ch:23005:812_Parent,0,A
ch:23005:812:1:4,,Hinter Gärten B,47.5871919,7.6560087,,0,ch:23005:812_Parent,0,B
ch:23005:812_Parent,,Hinter Gärten,47.5873191,7.6556853,,1,,,
ch:23005:813:1:1,,Hörnli Grenze,47.5624659,7.6335868,,,,0,
ch:23005:813:1:2,,Hörnli Grenze,47.5625508,7.6337395,,,,0,
ch:23005:816:1:1,,Lachenweg,47.5750606,7.6464507,,,,0,
ch:23005:816:1:2,,Lachenweg,47.5751334,7.6464147,,,,0,
ch:23005:817:1:1,,Lörracherstrasse,47.5924991,7.6536552,,,,0,
ch:23005:817:1:2,,Lörracherstrasse,47.5921478,7.6532689,,,,0,
ch:23005:821:1:1,,Morystrasse,47.5740183,7.643082,,,,0,
ch:23005:821:1:2,,Morystrasse,47.5739395,7.6433694,,,,0,
ch:23005:822:1:1,,Mühlestieg,47.5785573,7.6479598,,,,0,
ch:23005:822:1:2,,Mühlestieg,47.5779028,7.6475466,,,,0,
ch:23005:824:1:1,,Otto Wenk-Platz C,47.5687697,7.6374046,,,,0,C
ch:23005:824:1:4,,Otto Wenk-Platz D,47.5685758,7.6372699,,,,0,D
ch:23005:826:1:2,,"Riehen, Bahnhof",47.5844108,7.6523346,,0,ch:23005:826_Parent,0,
ch:23005:826:1:3,,"Riehen, Bahnhof",47.5836534,7.6517867,,0,ch:23005:826_Parent,0,
ch:23005:826:1:5,,"Riehen, Bahnhof",47.5825748,7.6517956,,0,ch:23005:826_Parent,0,
ch:23005:826:1:7,,"Riehen, Bahnhof",47.5826899,7.6518945,,0,ch:23005:826_Parent,0,
ch:23005:826:2:50,,"Riehen, Bahnhof",47.5837624,7.6518675,,0,ch:23005:826_Parent,0,
ch:23005:826_Parent,,"Riehen, Bahnhof",47.5837624,7.6518675,,1,,,
ch:23005:827:1:1,,Bahnhof Niederholz,47.5704062,7.6328681,,,,0,
ch:23005:827:1:2,,Bahnhof Niederholz,47.5703456,7.6328322,,,,0,
ch:23005:827:50:50,,Bahnhof Niederholz,47.5703759,7.6328412,,,,0,
ch:23005:834:1:1,,Wasserstelzen,47.572685,7.6393809,,,,0,
ch:23005:834:1:2,,Wasserstelzen,47.5726486,7.6393719,,,,0,
ch:23005:835:1:3,,Weilstrasse E,47.5893063,7.6518226,,0,ch:23005:835_Parent,0,E
ch:23005:835:1:4,,Weilstrasse C,47.5899183,7.6514902,,0,ch:23005:835_Parent,0,C
ch:23005:835:1:7,,Weilstrasse D,47.5892034,7.6519663,,0,ch:23005:835_Parent,0,D
ch:23005:835:2:5,,Weilstrasse A,47.5898032,7.6513465,,0,ch:23005:835_Parent,0,A
ch:23005:835:2:6,,Weilstrasse B,47.5899304,7.651059,,0,ch:23005:835_Parent,0,B
ch:23005:835_Parent,,Weilstrasse,47.58927,7.6519034,,1,,,
ch:23005:842:1:1,,Bluttrainweg,47.5702607,7.6378807,,,,0,
ch:23005:842:1:2,,Bluttrainweg,47.5706122,7.6380963,,,,0,
ch:23005:843:1:2,,Webergässchen,47.585562,7.6514543,,,,0,
ch:23005:844:1:1,,Schmiedgasse,47.5840351,7.653188,,,,0,
ch:23005:844:1:2,,Schmiedgasse,47.5839018,7.653188,,,,0,
ch:23005:86:1:1,,Markthalle P,47.5489405,7.5856796,,,,0,P
ch:23005:86:1:2,,Markthalle R,47.5488799,7.5864612,,,,0,R
ch:23005:86:1:9,,Markthalle S,47.5487889,7.5869642,,,,0,S
ch:23005:860:1:1,,In der Au,47.5850288,7.6683426,,,,0,
ch:23005:860:1:2,,In der Au,47.5849682,7.6687469,,,,0,
ch:23005:861:1:1,,Hohlweg,47.5870586,7.6604015,,,,0,
ch:23005:861:1:2,,Hohlweg,47.5870101,7.6603566,,,,0,
ch:23005:862:1:1,,"Riehen, Im Schlipf",47.5923234,7.6444384,,,,0,
ch:23005:862:1:2,,"Riehen, Im Schlipf",47.5925113,7.6447978,,,,0,
ch:23005:864:1:1,,Hinterengeli,47.5865617,7.6631863,,,,0,
ch:23005:864:1:2,,Hinterengeli,47.5864769,7.6634648,,,,0,
ch:23005:865:1:1,,Inzlinger Zoll,47.5853015,7.6709926,,,,0,
ch:23005:865:1:2,,Inzlinger Zoll,47.5853621,7.6713699,,,,0,
ch:23005:87:1:1,,Marktplatz,47.5582226,7.5875481,,,,0,
ch:23005:87:1:2,,Marktplatz,47.5578406,7.5877907,,,,0,
ch:23005:9:1:1,,Barfüsserplatz D,47.5548276,7.5893178,,,,0,D
ch:23005:9:1:2,,Barfüsserplatz C,47.5544578,7.5889405,,,,0,C
ch:23005:90:1:1,,Metzerstrasse,47.5641814,7.5780619,,,,0,
ch:23005:90:1:2,,Metzerstrasse,47.5640541,7.5784482,,,,0,
ch:23005:91:1:3,,Morgartenring D,47.5571495,7.5660245,,,,0,D
ch:23005:91:1:4,,Morgartenring,47.5571677,7.5654855,,,,0,
ch:23005:94:1:1,,Münchensteinerstrasse,47.5432468,7.5996215,,,,0,
ch:23005:94:1:2,,Münchensteinerstrasse,47.5429618,7.6001066,,,,0,
ch:23005:96:1:1,,Messeplatz B,47.5641874,7.5990196,,0,ch:23005:96_Parent,0,B
ch:23005:96:1:2,,Messeplatz A,47.5637995,7.5992083,,0,ch:23005:96_Parent,0,A
ch:23005:96:1:3,,Messeplatz E,47.5631206,7.5996844,,0,ch:23005:96_Parent,0,E
ch:23005:96:1:4,,Messeplatz F,47.5629327,7.5997293,,0,ch:23005:96_Parent,0,F
ch:23005:96:1:5,,Messeplatz D,47.5636964,7.6006635,,0,ch:23005:96_Parent,0,D
ch:23005:96_Parent,,Messeplatz,47.563557,7.5995766,,1,,,
ch:23005:98:1:1,,Neubad,47.5469517,7.5651441,,,,0,
ch:23005:98:1:2,,Neubad,47.5468608,7.5646321,,,,0,
ch:23005:99:1:1,,Neuweilerstrasse,47.5456966,7.5572929,,,,0,
ch:23006:1059:30,,"Aarberg, Bahnhof",47.04449,7.2780336,,,,0,
ch:23006:1060:30,,"Zollikofen, Bahnhof",47.0007592,7.4621523,,,,0,
ch:23006:1061:30,,"Lyss, Bahnhof",47.0769785,7.3057736,,,,0,
ch:23006:1853:30,,"Gümligen, Bahnhof",46.9336452,7.5053882,,,,0,
ch:23006:1879,,"Thun, Bahnhof",46.7551346,7.6298947,,,,0,
ch:23006:18993:30,,"Uttigen, Bahnhof",46.7942447,7.5827062,,,,0,
ch:23006:19272:30,,"Münchenwiler-Courgevaux, Bahnhof",46.9122513,7.1144234,,,,0,
ch:23006:19346:30,,"Ligerz, Bahnhof",47.0839155,7.134905,,,,0,
ch:23006:19775:30,,"Bern, Bümpliz Bahnhof Süd",46.937534,7.3955602,,,,0,
ch:23006:20148:30,,"Büren an der Aare, Bahnhof",47.1380834,7.3707218,,,,0,
ch:23006:20399:30,,"Langnau i. E., Bahnhof",46.9388528,7.7849978,,,,0,
ch:23006:20400:30,,Trubschachen,46.9215964,7.8461911,,,,0,
ch:23006:20407:30,,"St-Imier, gare",47.1515923,7.0001847,,,,0,
ch:23006:20413:30,,"Wangen an der Aare, Bahnhof",47.2321162,7.6559998,,,,0,
ch:23006:20417:30,,"Ostermundigen, Bahnhof",46.9558521,7.4820141,,,,0,
ch:23006:20559:30,,"Pieterlen, Bahnhof",47.1722431,7.3403767,,,,0,
ch:23006:23611,,"Interlaken, Rugenparkstrasse",46.6818337,7.8517606,,,,0,
ch:23006:24170,,"Frinvillier, gare",47.1691164,7.2588636,,,,0,
ch:23006:25247,,"Neuenegg, Bahnhof",46.893728,7.299683,,,,0,
ch:23006:26016:30,,"Bern, Europaplatz Bahnhof",46.9432503,7.406313,,,,0,
ch:23006:26647,,"Konolfingen, Bahnhof",46.8808598,7.6213158,,,,0,
ch:23006:26650,,"Tägertschi, Dorf",46.8755729,7.5853562,,,,0,
ch:23006:27263:30,,"Bern, Wankdorf Bahnhof",46.9665997,7.4643891,,,,0,
ch:23006:2802,,"Laupen BE, Bahnhof",46.9016279,7.2409691,,,,0,
ch:23006:28186,,"Busswil BE, Bahnhof",47.0990771,7.3194459,,,,0,
ch:23006:28187,,"Dotzigen, alte Käserei",47.1202556,7.3418948,,,,0,
ch:23006:28546,,"Reuchenette-Péry, gare",47.1898398,7.2474639,,,,0,
ch:23006:28547,,"La Heutte, Boccalino",47.1901084,7.2268476,,,,0,
ch:23006:28554,,"Niederwangen, Bahnhof",46.9257868,7.3770818,,,,0,
ch:23006:28826,,"Bowil, Bahnhof",46.9002468,7.6975648,,,,0,
ch:23006:28868,,"Twann, Bahnhof",47.0936527,7.1561322,,,,0,
ch:23006:30074,,"Lyss, Beundengasse",47.0724268,7.30289,,,,0,
ch:23006:3168:30,,"Ins, Bahnhof",46.9997912,7.1002929,,,,0,
ch:23006:3206,,"Münsingen, Bahnhof",46.8726559,7.5597183,,,,0,
ch:23006:3207,,"Wichtrach, Dorfplatz",46.8505189,7.575376,,,,0,
ch:23006:3208,,"Wichtrach, Bahnhof",46.8414133,7.5690069,,,,0,
ch:23006:3249,,"Grosshöchstetten, Bahnhof",46.9048255,7.6353205,,,,0,
ch:23006:32569:0:1,,"Bern, Car-Terminal Neufeld",46.9637061,7.4341069,,,,0,
ch:23006:3291,,"La Neuveville, poste",47.063004,7.0950737,,,,0,
ch:23006:4729,,"Spiez, Bahnhof",46.6861846,7.680398,,,,0,
ch:23006:4738:30,,"Interlaken Ost, Bahnhof",46.6903194,7.8690712,,,,0,
ch:23006:4744:30,,"Biel/Bienne, Bahnhof/Gare",47.1334696,7.2433137,,,,0,
ch:23006:4829:30,,"Bern, Bahnhof",46.9481074,7.4402065,,,,0,
ch:23006:4840,,"Signau, Bahnhof",46.92013,7.7259875,,,,0,
ch:23006:4926,,"Bern, Wankdorfplatz",46.9649077,7.4681441,,,,0,
ch:23006:61669,,"Thörishaus Station, Bahnhof",46.9052858,7.3576782,,,,0,
ch:23006:65887,,"Sonceboz-Sombeval, gare",47.1953642,7.1694902,,,,0,
ch:23006:65927,,"Tüscherz, Bahnhof",47.1144727,7.1961072,,,,0,
ch:23006:65958,,"Worb SBB, Rubigenstr./Bahnhof",46.915657,7.5643357,,,,0,
ch:23006:65979,,"Biel/Bienne, Carterminal",47.1314835,7.243179,,,,0,
ch:23006:67676,,"Bargen BE, Gemeindeverwaltung",47.0386131,7.2625287,,,,0,
ch:23006:67822,,"Kallnach, Mitteldorf",47.0198089,7.2353277,,,,0,
ch:23006:72989,,"Renan, village",47.1263619,6.9274301,,,,0,
ch:23006:73030,,"Sonvilier, collège",47.13889,6.964306,,,,0,
ch:23006:7626,,"Zäziwil, Kronenplatz",46.9018427,7.6616142,,,,0,
ch:23006:77631,,"Thörishaus, Sensemattstrasse",46.8951705,7.3511295,,,,0,
ch:23006:77979,,"Emmenmatt, Schüpbachstrasse",46.9488678,7.7497839,,,,0,
ch:23006:78424,,"Niederbipp, Bahnhof",47.2701777,7.6944207,,,,0,
ch:23006:8140,,"Rubigen, Hauptstrasse",46.8987799,7.5437373,,,,0,
ch:23006:8414,,"Oberwangen b. Bern, Friedhof",46.9154361,7.3638676,,,,0,
ch:23006:99331,,"Bern, Wankdorfbrücke",46.9661031,7.4689885,,,,0,
ch:23006:99389,,"Kiesen, Bahnhof",46.8194539,7.5756095,,,,0,
ch:23006:99441,,"Lengnau BE, Bahnhof",47.1801813,7.3676675,,,,0,
ch:23007:583:30,,"Delémont, gare",47.3621694,7.3491622,,,,0,
ch:23008:1185,,"Düdingen, Bahnhof",46.8504943,7.1896843,,,,0,
ch:23008:1242:30,,"Fribourg, gare routière",46.803555,7.1503381,,,,0,
ch:23008:19282:30,,"Muntelier-Löwenberg, Station",46.938497,7.1325604,,,,0,
ch:23008:19684:30,,"Chénens, Gare",46.748832,7.0007776,,,,0,
ch:23008:20030:30,,"Kerzers, Bahnhof",46.9749179,7.1929542,,,,0,
ch:23008:20124:30,,"Sugiez, gare",46.9645828,7.1187623,,,,0,
ch:23008:26685,,"Villars-sur-Glâne, gare",46.7896258,7.1181874,,,,0,
ch:23008:26690,,"Fribourg/Freiburg, gare/Tivoli",46.8041699,7.1516945,,,,0,
ch:23008:2763,,"Romont FR, gare",46.6932832,6.9121767,,,,0,
ch:23008:2772,,"Villaz-St-Pierre, gare",46.7210832,6.9610181,,,,0,
ch:23008:2803,,"Flamatt, Bahnhof",46.8885099,7.319931,,,,0,
ch:23008:2804,,"Flamatt, Post",46.8899034,7.312484,,,,0,
ch:23008:28509,,"Belfaux CFF, gare",46.8171671,7.1054942,,,,0,
ch:23008:28517:30,,"Fribourg, Poya",46.8153413,7.1558088,,,,0,
ch:23008:28527,,"Grolley, gare",46.8319435,7.0655012,,,,0,
ch:23008:30790,,"Wünnewil, Felsenegg",46.8727603,7.2841691,,,,0,
ch:23008:3791,,"Léchelles, route de Payerne",46.827838,7.014396,,,,0,
ch:23008:5082,,"Estavayer-le-Lac, gare rout.",46.8453211,6.8441743,,,,0,
ch:23008:5085,,"Cugy FR, gare",46.8159069,6.8894134,,,,0,
ch:23008:5102,,"Vauderens, gare",46.6214778,6.8506242,,,,0,
ch:23008:5104,,"Châtel-St-Denis, gare",46.527851,6.8954321,,,,0,
ch:23008:5106,,"Bulle, gare routière",46.6200278,7.0525654,,,,0,
ch:23008:5131,,"Domdidier, gare",46.8685228,7.0116831,,,,0,
ch:23008:5143,,"Schmitten FR, Bahnhof",46.8627187,7.2524855,,,,0,
ch:23008:5148:30,,"Murten, Bahnhof",46.9254371,7.1149534,,,,0,
ch:23008:6083,,"Cousset, gare",46.8183474,6.9772148,,,,0,
ch:23008:6229,,"Courtepin, gare",46.8682342,7.1225622,,,,0,
ch:23008:64109,,"Galmiz, Käserei",46.9480645,7.1559256,,,,0,
ch:23008:66762,,"Avry-Matran, gare",46.7861875,7.0775566,,,,0,
ch:23008:66841,,"Cottens FR, centre commercial",46.7532513,7.0331439,,,,0,
ch:23008:66845,,"Cressier FR, gare",46.9004371,7.1499338,,,,0,
ch:23008:66925,,"Léchelles, village",46.8299338,7.0176389,,,,0,
ch:23008:66972,,"Pensier, Buffet de la Gare",46.8437851,7.1390822,,,,0,
ch:23008:67125,,"Belfaux-Village, gare",46.8214026,7.107722,,,,0,
ch:23008:67147,,"Neyruz FR, village",46.7681621,7.0652227,,,,0,
ch:23008:67514,,"Givisiez, gare",46.8159499,7.1298295,,,,0,
ch:23008:75372,,"Dompierre FR, Rue Centrale",46.8520794,6.9907524,,,,0,
ch:23008:77138,,"Cheyres, Route d'Yverdon",46.8156057,6.787796,,,,0,
ch:23008:7744,,"Fribourg/Freiburg, Pl. Gare",46.8029709,7.1515867,,,,0,
ch:23008:78404,,"Fräschels, Dorf",46.9974263,7.2078842,,,,0,
ch:23008:78405,,"Kerzers, Papiliorama",46.9860415,7.2016229,,,,0,
ch:23008:9257,,"Fribourg, Poya/Guisan",46.8136015,7.1575965,,,,0,
ch:23009:28211,,"Lancy-Pont-Rouge, gare",46.1881013,6.1246327,,,,0,
ch:23009:31525,,"Russin, village",46.188518,6.0136728,,,,0,
ch:23009:33058,,"ZIMEYSA, gare",46.2216051,6.0653439,,,,0,
ch:23009:61135,,"Bellevue GE, mairie",46.2543059,6.1542951,,,,0,
ch:23009:6137,,"Genève, gare Cornavin",46.2097328,6.1424373,,,,0,
ch:23009:6147,,"La Plaine, gare",46.1784921,5.9997669,,,,0,
ch:23009:61768,,"Genthod, village",46.2647712,6.1554359,,,,0,
ch:23009:61770:0:1,,"Genève, gare routière",46.2082906,6.1466594,,,,0,
ch:23009:61778,,"Genève-Aéroport, Terminal",46.2308215,6.1098914,,,,0,
ch:23009:61882,,"Genève-Sécheron, gare",46.2234324,6.1446292,,,,0,
ch:23009:6306,,"Satigny, gare",46.2144075,6.0374243,,,,0,
ch:23009:63278,,"Vernier, gare/Renfile",46.2192495,6.0958237,,,,0,
ch:23009:63297,,"Pont-Céard, gare",46.2876886,6.1630177,,,,0,
ch:23009:63301,,"Versoix, gare",46.279736,6.1652635,,,,0,
ch:23009:66043,,"Creux-de-Genthod, gare",46.2636906,6.1616433,,,,0,
ch:23009:67087,,"Les Tuileries, gare",46.2503428,6.1466145,,,,0,
ch:23009:67454,,"Chambésy, gare",46.2432297,6.1472433,,,,0,
ch:23009:71278,,"Meyrin, gare nord",46.222382,6.0770579,,,,0,
ch:23010:19971:30,,"Ennenda, Bahnhof",47.0328642,9.0773232,,,,0,
ch:23010:20551:30,,"Bilten, Bahnhof",47.1522704,9.0295867,,,,0,
ch:23010:28872,,"Nieder- und Oberurnen, Bahnhof",47.1224134,9.0620698,,,,0,
ch:23010:3651,,"Linthal, Bahnhof",46.9253512,8.9980738,,,,0,
ch:23010:3892,,"Näfels-Mollis, Bahnhof",47.098649,9.0696785,,,,0,
ch:23010:3894,,"Mühlehorn, Bahnhof",47.1177188,9.1731734,,,,0,
ch:23010:3895,,"Glarus, Bahnhof",47.0397518,9.0714841,,,,0,
ch:23010:5063,,"Schwanden GL, Bahnhof",46.9968075,9.0776286,,,,0,
ch:23010:5908,,"Netstal, Post",47.0644481,9.0557097,,,,0,
ch:23010:5909,,"Netstal, Bahnhof",47.0651763,9.059276,,,,0,
ch:23010:64777,,"Hätzingen, Feuerwehr",46.9607326,9.035318,,,,0,
ch:23010:64779,,"Luchsingen, Dorfplatz",46.9672863,9.0370876,,,,0,
ch:23010:64783,,"Mitlödi, Hauptstrasse",47.0113874,9.0804853,,,,0,
ch:23010:64921,,"Ziegelbrücke, Bahnhof Süd",47.1365801,9.0591413,,,,0,
ch:23010:6694,,"Leuggelbach, Abzw. Haslen",46.9759537,9.0441664,,,,0,
ch:23010:744,,"Hätzingen, Rössliplatz",46.961266,9.0365666,,,,0,
ch:23010:745,,"Betschwanden, Schulhaus",46.9462002,9.0272421,,,,0,
ch:23010:765,,"Nidfurn, Abzw. Bahnhof",46.9872059,9.0572099,,,,0,
ch:23010:768,,"Diesbach GL, Feldstrasse",46.9509528,9.0314462,,,,0,
ch:23010:769,,"Rüti GL, Dorfmitte",46.9361969,9.0147645,,,,0,
ch:23010:770,,"Linthal, Braunwaldbahn",46.9284187,9.0020983,,,,0,
ch:23010:99410,,"Luchsingen-Hätzingen, Bahnhof",46.9651345,9.0387765,,,,0,
ch:23010:99415,,"Rüti GL, Bahnhof",46.9346695,9.0135877,,,,0,
ch:23011:20327:30,,"Landquart, Bahnhof",46.9677828,9.5549125,,,,0,
ch:23011:20327:90,,"Landquart, Bahnhof",46.9674395,9.5540411,,,,0,
ch:23011:2295:90,,Chur,46.8530869,9.5289422,,,,0,
ch:23011:4053,,"Maienfeld, Bahnhof",47.0040551,9.5290051,,,,0,
ch:23011:5946:30,,"Chur, Bahnhofplatz",46.8533265,9.5298675,,,,0,
ch:23012:18884:90,,Emmenbrücke Gersag,47.0783122,8.2768165,,,,0,
ch:23012:18959:30,,"Waldibrücke, Bahnhof",47.1085058,8.3201871,,,,0,
ch:23012:18959:90,,"Waldibrücke, Bahnhof",47.1079005,8.319711,,,,0,
ch:23012:19090:30,,Sempach-Neuenkirch,47.1162456,8.1952854,,,,0,
ch:23012:19286:90,,Mosen,47.2442901,8.2241572,,,,0,
ch:23012:19566:90,,"Gelfingen, Bahnhof",47.2135573,8.264824,,,,0,
ch:23012:19605:1,,"Escholzmatt, Bahnhof",46.9151599,7.9361394,,,,0,
ch:23012:19607:90,,Eschenbach LU,47.1323941,8.3227922,,,,0,
ch:23012:19608:90,,"Ermensee, Bahnhof",47.2296884,8.2423122,,,,0,
ch:23012:19618:90,,Emmenbrücke,47.0706035,8.2825657,,,,0,
ch:23012:20014:30,,"Reiden, Bahnhof",47.2414969,7.9690896,,,,0,
ch:23012:20041:2,,"Luzern, Bahnhof",47.0507518,8.3102428,,,,0,
ch:23012:20041:90,,Luzern,47.0501764,8.3101799,,,,0,
ch:23012:20223:30,,"Nebikon, Bahnhof",47.1930324,7.9770127,,,,0,
ch:23012:20226:30,,"Malters, Bahnhof",47.03846,8.1820532,,,,0,
ch:23012:20228:30,,Wolhusen,47.0557399,8.0793758,,,,0,
ch:23012:20230:1,,"Schüpfheim, Bahnhof",46.9500882,8.0146432,,,,0,
ch:23012:20236:30,,"Dagmersellen, Bahnhof",47.2177919,7.9792765,,,,0,
ch:23012:20419:1,,"Entlebuch, Bahnhof",46.9936705,8.0626132,,,,0,
ch:23012:20420:30,,"Hitzkirch, Bahnhof",47.222502,8.2523464,,,,0,
ch:23012:20420:90,,"Hitzkirch, Bahnhof",47.2226729,8.252005,,,,0,
ch:23012:20421:30,,"Hochdorf, Bahnhof",47.1668873,8.288818,,,,0,
ch:23012:20421:90,,"Hochdorf, Bahnhof",47.1669728,8.2887012,,,,0,
ch:23012:20532:30,,"Baldegg, Bahnhof",47.1857006,8.2805355,,,,0,
ch:23012:20532:90,,"Baldegg, Bahnhof",47.1856884,8.2802301,,,,0,
ch:23012:26172:30,,"Emmenbrücke Kapf, Bahnhof",47.0914632,8.2736095,,,,0,
ch:23012:27711:90,,Baldegg Kloster,47.1806148,8.2805984,,,,0,
ch:23012:28221:30,,"Hochdorf, Schönau",47.1650795,8.2982593,,,,0,
ch:23012:28221:90,,"Hochdorf, Schönau",47.1645664,8.2987354,,,,0,
ch:23012:28243:30,,"Meggen, Kapelle",47.0468834,8.3753437,,,,0,
ch:23012:28303:30,,"Eschenbach LU, Luzernstrasse",47.131404,8.3214987,,,,0,
ch:23012:28595:31,,Luzern Verkehrshaus,47.0540691,8.335162,,,,0,
ch:23012:28750,,"Wauwil, Zentrum",47.1853221,8.0203924,,,,0,
ch:23012:28838:30,,"Luzern, Säntihof",47.0558072,8.2569637,,,,0,
ch:23012:28846:30,,"Werthenstein, Dorf",47.056101,8.1018516,,,,0,
ch:23012:28847:30,,"Schachen LU, Dorf",47.0365438,8.1435783,,,,0,
ch:23012:30498,,"Baldegg, Kantonsschule",47.1801629,8.2778226,,,,0,
ch:23012:31328:30,,"Rothenburg Station, Bhf. West",47.088295,8.248825,,,,0,
ch:23012:32296:30,,"Emmenbrücke, Bahnhof",47.0707565,8.2820357,,,,0,
ch:23012:33192:30,,"Emmenbrücke Gersag, Bahnhof",47.0788322,8.2772836,,,,0,
ch:23012:3577,,"Hasle LU, Post",46.9795944,8.0508453,,,,0,
ch:23012:3605,,"St. Erhard, Dorf",47.1829105,8.0746057,,,,0,
ch:23012:4957,,"Hitzkirch, Dorf",47.2248203,8.2628027,,,,0,
ch:23012:4972:30,,"Ballwil, Bahnhof",47.1536755,8.3170161,,,,0,
ch:23012:4972:90,,"Ballwil, Bahnhof",47.1537671,8.3168993,,,,0,
ch:23012:5008:30,,"Emmenbrücke, Sonnenplatz",47.0773211,8.2756756,,,,0,
ch:23012:5027:30,,"Oberkirch LU, Dorf",47.1551171,8.115515,,,,0,
ch:23012:5029:30,,"Nottwil, Abzw. Bahnhof",47.1361035,8.1350713,,,,0,
ch:23012:6238,,"Sursee, Schnydermatt",47.1705943,8.0997316,,,,0,
ch:23012:62600:30,,"Meggen, Kreuz",47.051425,8.383195,,,,0,
ch:23012:65925,,"Mosen, Bahnhof",47.2440767,8.2244447,,,,0,
ch:23012:66870,,"Hasle LU, Dorf",46.9798947,8.0531899,,,,0,
ch:23012:72911,,"Gelfingen, Kreisel",47.2141797,8.2654348,,,,0,
ch:23012:77189,,"Ermensee, Kapelle",47.2276327,8.2433183,,,,0,
ch:23012:99301:0:1,,"Luzern, Inseliquai/Bahnhof (Carparkplatz)",47.0497786,8.3135665,,,,0,
ch:23013:19065:30,,"St-Blaise, gare Lac",47.012784,6.9859733,,,,0,
ch:23013:19316:30,,"Marin-Epagnier, gare",47.0090476,7.0095811,,,,0,
ch:23013:20175:30,,"Le Landeron, gare",47.0565539,7.066669,,,,0,
ch:23013:3280:30,,"Neuchâtel, gare sud",46.9962193,6.9354611,,,,0,
ch:23013:65956,,"La Chaux-de-F,gare/Av.L-Robert",47.0990832,6.8239712,,,,0,
ch:23016:1598:30,,"Bazenheid, Bahnhof",47.4098287,9.0687443,,,,0,
ch:23016:1609:30,,"Rorschach, Bahnhofplatz",47.478098,9.5058465,,,,0,
ch:23016:1701,,"Dietfurt, Neudietfurt",47.3457134,9.0818327,,,,0,
ch:23016:19482:90,,Jona,47.2309756,8.8346164,,,,0,
ch:23016:19546:30,,"Goldach, Bahnhof",47.4737688,9.4660601,,,,0,
ch:23016:19990:30,,"Rorschach Stadt, Bahnhof",47.4755054,9.4904763,,,,0,
ch:23016:20288:30,,"Schmerikon, Bahnhof",47.2258391,8.9435012,,,,0,
ch:23016:20294:30,,"Gossau SG, Bahnhof",47.412005,9.2534738,,,,0,
ch:23016:20298:30,,"Bütschwil, Bahnhof",47.3595163,9.0749426,,,,0,
ch:23016:20299:30,,"Lichtensteig, Bahnhof",47.3198505,9.0831802,,,,0,
ch:23016:20300:30,,"Wattwil, Bahnhof",47.2994643,9.0868094,,,,0,
ch:23016:20306:30,,"Rheineck, Bahnhof",47.4680305,9.5896234,,,,0,
ch:23016:20307:90,,St. Gallen,47.4231772,9.3698955,,,,0,
ch:23016:20309:30,,"St. Margrethen, Bahnhof",47.4532173,9.6371533,,,,0,
ch:23016:20320:30,,"Uznach, Bahnhof",47.2245336,8.9804039,,,,0,
ch:23016:20329:30,,"Sargans, Bahnhof",47.0456775,9.4449228,,,,0,
ch:23016:20329:90,,"Sargans, Bahnhof",47.0448266,9.4462613,,,,0,
ch:23016:20377:30,,"Rapperswil SG, Bahnhof",47.2249729,8.817198,,,,0,
ch:23016:20377:90,,"Rapperswil SG, Bahnhof",47.2248874,8.8167489,,,,0,
ch:23016:20605:30,,"Altstätten, Bahnhof",47.3740456,9.5563678,,,,0,
ch:23016:24053,,"Mörschwil, Altes Gemeindehaus",47.4669799,9.4210905,,,,0,
ch:23016:28799,,"Bronschhofen, Würe",47.4795551,9.0346802,,,,0,
ch:23016:30576,,"Mels, Oberheiligkreuz",47.0555134,9.4184854,,,,0,
ch:23016:3803:30,,"Wil SG, Bahnhof",47.462741,9.0414894,,,,0,
ch:23016:3804,,"Bronschhofen, Gemeindehaus",47.4756329,9.0364049,,,,0,
ch:23016:3887,,"Schänis, Rathausplatz",47.1595702,9.045936,,,,0,
ch:23016:3889,,"Benken SG, Starrberg",47.2030304,9.0084943,,,,0,
ch:23016:3935:30,,"St Gallen, Bahnhof",47.4234932,9.3704884,,,,0,
ch:23016:3944:30,,"Heerbrugg, Bahnhof",47.4109472,9.6279994,,,,0,
ch:23016:4154,,"Flums, Bahnhof",47.0964047,9.3479047,,,,0,
ch:23016:4293,,"Bad Ragaz, Bahnhof",47.0101318,9.505065,,,,0,
ch:23016:5321,,"Walenstadt, Bahnhof",47.1199745,9.3120619,,,,0,
ch:23016:6051,,"Staad SG, Bahnhof",47.4814129,9.537072,,,,0,
ch:23016:62057,,"Jona, Geberit",47.2248996,8.84333,,,,0,
ch:23016:6271,,"Arnegg, Restaurant Ilge",47.4422763,9.2553333,,,,0,
ch:23016:6279,,"Bazenheid, Bhf/Wilerstrasse",47.4109776,9.0695887,,,,0,
ch:23016:6281,,"St. Gallen, Fürstenlandbrücke",47.4079075,9.3282226,,,,0,
ch:23016:6296,,"Lütisburg Station, Wilerstr.",47.3855847,9.0730921,,,,0,
ch:23016:64186,,"Murg, Bahnhof",47.1129994,9.2153583,,,,0,
ch:23016:64284,,"Unterterzen, Bahnhof",47.1139103,9.2555849,,,,0,
ch:23016:66688:0:1,,St. Gallen Fernbushaltestelle,47.4222716,9.3666166,,,,0,
ch:23016:6984:20,,"Rorschach, Hafen (See)",47.4788994,9.4934318,,,,0,
ch:23016:70909,,"Kempraten, Zürcherstrasse",47.23799,8.8131107,,,,0,
ch:23016:7660,,"St. Gallen St. Fiden, Bhf. Ost",47.4353861,9.3952909,,,,0,
ch:23016:7715,,"St. Gallen Winkeln, Bhf. Nord",47.4043752,9.3029261,,,,0,
ch:23016:914,,"Gommiswald, Dorf",47.2312196,9.0233524,,,,0,
ch:23016:986,,"Kaltbrunn, Dorf",47.2137099,9.0241519,,,,0,
ch:23016:99403,,"Au SG, Bahnhof",47.4361213,9.6411777,,,,0,
ch:23016:99413,,"Rebstein-Marbach, Bahnhof",47.392895,9.5869015,,,,0,
ch:23017:12914:90,,Beringen Bad. Bf.,47.69491,8.5743205,,,,0,
ch:23017:27057:90,,2912,47.7171197,8.6643946,,,,0,
ch:23017:28218:20,,Stein am Rhein (Schifflände),47.659914,8.856652,,,,0,
ch:23017:31253:0:1,,"Stein am Rhein, Rathaus",47.6590609,8.8599309,,,,0,
ch:23017:31254:0:1,,"Stein am Rhein, Untertor",47.661469,8.857227,,,,0,
ch:23017:31254:0:2,,"Stein am Rhein, Untertor",47.661469,8.857227,,,,0,
ch:23017:31255:0:1,,"Stein am Rhein, Strandbad",47.6641915,8.8502201,,,,0,
ch:23017:31255:0:2,,"Stein am Rhein, Strandbad",47.6641915,8.8502201,,,,0,
ch:23017:31257,,"Ramsen, Zoll",47.7115409,8.8229742,,,,0,
ch:23017:31988:0:1,,"Stein am Rhein, Schule",47.65943,8.8613412,,,,0,
ch:23017:3722,,"Stein am Rhein, Bahnhof",47.6558601,8.8557178,,,,0,
ch:23017:3722:0:1,,"Stein am Rhein, Bahnhof",47.6558601,8.8557178,,,,0,
ch:23017:3722:10:1,,Stein am Rhein,47.6561082,8.8550171,,,,0,
ch:23017:43060:0:1,,Stein am Rhein Altenheim,47.6589883,8.8661652,,,,0,
ch:23017:43060:0:2,,Stein am Rhein Altenheim,47.6587947,8.8666593,,,,0,
ch:23017:43061:0:1,,Stein am Rhein Schule,47.6594058,8.861494,,,,0,
ch:23017:43062:0:1,,Stein am Rhein Grenzstein,47.6602831,8.8748339,,,,0,
ch:23017:43062:0:2,,Stein am Rhein Grenzstein,47.6601198,8.8743668,,,,0,
ch:23017:50002:1:11,,"Schaffhausen, Bahnhof Bstg 11",47.6978183,8.6325853,,,,0,11
ch:23017:50002:2:A1,,"Schaffhausen, Bahnhof Bstg A1",47.6987493,8.6334746,,,,0,A1
ch:23017:50002:2:RBZ,,"Schaffhausen, Bahnhof",47.6978606,8.6327469,,,,0,
ch:23017:50007:0:1,,"Schaffhausen, Bachstrasse Bstg 1",47.6960528,8.6381279,,,,0,1
ch:23017:50020:1:1,,"Schaffhausen, Bleiche Bstg 1",47.6995051,8.6319564,,,,0,1
ch:23017:50076,,"Neuhausen, Kreuzstrasse",47.683717,8.6125528,,,,0,
ch:23017:50076:1:1,,"Neuhausen, Kreuzstrasse Bstg 1",47.683717,8.6125528,,,,0,1
ch:23017:50080:0:1,,"Schaffhausen, Lindli Bstg 1",47.6922859,8.6521595,,,,0,1
ch:23017:50083:1:1,,"Schaffhausen, Mühlentor Bstg 1",47.6935133,8.632163,,,,0,1
ch:23017:50086:0:2,,"Neuhausen, Bahnhof SBB Bstg 2",47.682441,8.6246891,,,,0,2
ch:23017:50091:90,,Neuhausen,47.6831304,8.6249316,,,,0,
ch:23017:50103,,"Schaffhausen, Rhybadi",47.6943538,8.6378494,,,,0,
ch:23017:50106:0:1,,"Schaffhausen, Rosentalgässchen Bstg 1",47.6940817,8.6475153,,,,0,1
ch:23017:50110:1,,"Schaffhausen, Schifflände (Bus)",47.6955812,8.640697,,,,0,
ch:23017:50134:0:2,,"Neuhausen, Industrieplatz Bstg 2",47.6796105,8.6184997,,,,0,2
ch:23017:51001,,Neuhausen Rheinfall,47.679804,8.6169456,,,,0,
ch:23017:53520,,"Beringen, Beringerfeld",47.6957868,8.5920263,,,,0,
ch:23017:53520:90,,"Beringen, Beringerfeld",47.6957868,8.5920263,,,,0,
ch:23017:55510,,"Schaffhausen, Rheinbühl",47.6897885,8.6549443,,,,0,
ch:23017:55511:0:1,,"Schaffhausen, Rheinhalde Mitte Bstg 1",47.6880591,8.6592203,,,,0,1
ch:23017:55512,,"Schaffhausen,Rheinhalde Grenze",47.6864384,8.66364,,,,0,
ch:23017:55521,,"Dörflingen, Unterberg",47.7058589,8.7145925,,,,0,
ch:23017:55522,,"Dörflingen, Post",47.7070256,8.718554,,,,0,
ch:23017:55523,,"Dörflingen, Kirche",47.7060342,8.7229288,,,,0,
ch:23017:55524,,"Dörflingen, Laag",47.6951459,8.7177186,,,,0,
ch:23017:55532,,"Ramsen, Dorf",47.7071888,8.8111703,,,,0,
ch:23017:55534,,"Buch SH, Brücke",47.7180141,8.7848587,,,,0,
ch:23017:55535,,"Buch SH, Dorf",47.7170592,8.7822356,,,,0,
ch:23017:55536:0:1,,"Dörflingen, Neuhus Bstg 1",47.710326,8.7222281,,,,0,1
ch:23017:55542,,"Ramsen, Petersburg",47.7078356,8.8210518,,,,0,
ch:23017:55542:0:1,,"Ramsen, Petersburg",47.7078356,8.8210518,,,,0,
ch:23017:55542:0:2,,"Ramsen, Petersburg",47.7078356,8.8210518,,,,0,
ch:23017:55545,,"Ramsen, Sonne",47.7073943,8.8123741,,,,0,
ch:23017:55545:0:1,,"Ramsen, Sonne",47.7073943,8.8123741,,,,0,
ch:23017:55545:0:2,,"Ramsen, Sonne",47.7073943,8.8123741,,,,0,
ch:23017:55720:90,,Schaffhausen,47.6982838,8.6327559,,,,0,
ch:23017:55720:91:1,,Schaffhausen,47.6982838,8.6327559,,,,0,
ch:23017:55721:90,,Neuhausen Bad. Bahnhof,47.6823684,8.6126067,,,,0,
ch:23017:55724:90,,Neunkirch,47.6891536,8.4953856,,,,0,
ch:23017:55725,,Wilchingen-Hallau,47.6794895,8.4640074,,,,0,
ch:23017:55725:90,,Wilchingen-Hallau,47.6794895,8.4640074,,,,0,
ch:23017:55726:90,,Trasadingen,47.6650627,8.4365279,,,,0,
ch:23017:55901:90,,Thayngen,47.7455238,8.7032288,,,,0,
ch:23017:64712,,"Ramsen, Brücke",47.707358,8.8080442,,,,0,
ch:23017:6985:90,,Schaffhausen Schifflände,47.695291,8.6410114,,,,0,
ch:23017:801,,"Hemishofen, Dorf",47.6780743,8.8312207,,,,0,
ch:23017:855,,Herblingen,47.7172103,8.6642868,,,,0,
ch:23017:857,,Neuhausen Bad Bf,47.6821265,8.6128762,,,,0,
ch:23017:863,,Beringen Bad Bf,47.6949887,8.5744463,,,,0,
ch:23017:874,,Neunkirch,47.6891596,8.4948106,,,,0,
ch:23017:881,,Trasadingen,47.6656011,8.4373993,,,,0,
ch:23018:1328,,"Brunnen, Bahnhof",46.9996074,8.6101274,,,,0,
ch:23018:1329,,"Brunnen, See/Schiffstation",46.994467,8.6057436,,,,0,
ch:23018:20285:30,,"Siebnen-Wangen, Bahnhof",47.1825503,8.9005258,,,,0,
ch:23018:20286:30,,"Pfäffikon SZ, Bahnhof",47.2028168,8.7791993,,,,0,
ch:23018:20321:30,,"Lachen SZ, Bahnhof",47.1901389,8.8523401,,,,0,
ch:23018:20322:30,,"Reichenburg, Bahnhof",47.1724935,8.9826677,,,,0,
ch:23018:20425:30,,"Küssnacht am Rigi, Bahnhof",47.0831631,8.4332491,,,,0,
ch:23018:20740,,"Schübelbach, Gutenbrunnen",47.1753147,8.9394857,,,,0,
ch:23018:22250,,"Altendorf, Bahnhof",47.192892,8.8231628,,,,0,
ch:23018:28444,,"Merlischachen, Dorf",47.0648275,8.407171,,,,0,
ch:23018:30218,,"Immensee, Post",47.0932246,8.4586175,,,,0,
ch:23018:3867,,"Biberbrugg, Bahnhof",47.1565465,8.7227581,,,,0,
ch:23018:5041:1,,"Arth-Goldau, Bahnhof",47.0494236,8.5488533,,,,0,
ch:23018:99406,,"Hurden, Seedammstrasse",47.2134841,8.7996629,,,,0,
ch:23019:18955:1,,Wangen bei Olten,47.3416412,7.8685591,,,,0,
ch:23019:19014:90,,Trimbach,47.3660513,7.9042851,,,,0,
ch:23019:19784:30,,"Bellach, Bahnhof",47.2093529,7.5081999,,,,0,
ch:23019:19972:30,,"Egerkingen, Bahnhof",47.3150638,7.7990834,,,,0,
ch:23019:20192:90,,Olten,47.3519336,7.9076987,,,,0,
ch:23019:20194:30,,"Oensingen, Bahnhof",47.2853288,7.7100694,,,,0,
ch:23019:20445:30,,"Hägendorf, Bahnhof",47.3304213,7.8435949,,,,0,
ch:23019:27721,,"Schönenwerd SO, Bahnhof",47.3713506,8.000315,,,,0,
ch:23019:30104,,"Däniken, Post",47.3560355,7.9794651,,,,0,
ch:23019:30569,,"Oberbuchsiten, Bahnhof",47.3053611,7.771604,,,,0,
ch:23019:31889,,"Dulliken, Bahnhof",47.3531143,7.9465059,,,,0,
ch:23019:3435:30,,"Solothurn, Hauptbahnhof",47.2045256,7.542273,,,,0,
ch:23019:45,,"Langendorf, Ladendorf",47.218457,7.5150631,,,,0,
ch:23019:5160:30,,"Grenchen Süd, Bahnhof",47.1894185,7.3984438,,,,0,
ch:23019:5167:30,,"Grenchen Nord, Bahnhof",47.1912377,7.389802,,,,0,
ch:23019:5171:30,,"Selzach, Bahnhof",47.2008454,7.4568253,,,,0,
ch:23019:5187,,"Olten, Hammer BOGG",47.3501382,7.898464,,,,0,
ch:23019:61,,"Solothurn, Amthausplatz",47.2081202,7.5340624,,,,0,
ch:23019:6183:1,,"Olten, Bahnhof",47.3519336,7.9069172,,,,0,
ch:23019:6338:30,,"Bettlach, Bahnhof",47.1950834,7.4280972,,,,0,
ch:23019:64439:30,,"Solothurn, Allmend",47.2093895,7.5212974,,,,0,
ch:23019:65121,,"Langendorf, Bellacherstrasse",47.2159797,7.5136976,,,,0,
ch:23019:6533,,"Luterbach, Bahnhof Nordseite",47.2183471,7.585482,,,,0,
ch:23019:66061,,"Deitingen, Bahnhof",47.2181031,7.619079,,,,0,
ch:23019:66072,,"Lommiswil, Dorfstrasse/Im Holz",47.2282061,7.4718541,,,,0,
ch:23019:66074,,"Luterbach-Attisholz, Bahnhof",47.2170902,7.5837842,,,,0,
ch:23019:66075,,"Oberdorf SO, Bahnhof",47.2360078,7.4928477,,,,0,
ch:23019:8614,,"Lommiswil, Friedhof",47.2240822,7.4730309,,,,0,
ch:23020:1547,,"Rivera-Bironico, Posta/FFS",46.1240957,8.9247803,,,,0,
ch:23020:23178,,"Quartino, Bivio",46.1508183,8.8842123,,,,0,
ch:23020:23207,,"Ranzo, Bivio per S. Abbondio",46.1160259,8.7736747,,,,0,
ch:23020:23297,,"Mezzovico, Bivio per Vira",46.0960021,8.9244299,,,,0,
ch:23020:23575,,"Gordola, Nord",46.1803643,8.8670006,,,,0,
ch:23020:23576,,"Riazzino, Stazione",46.1759294,8.8867007,,,,0,
ch:23020:23674,,"Balerna, Bellavista (FFS)",45.8466328,9.0063922,,,,0,
ch:23020:23922,,"Minusio, Via Verbano",46.174903,8.816668,,,,0,
ch:23020:26435,,"Bellinzona, Stazione",46.1948236,9.0282213,,,,0,
ch:23020:32463,,"Giubiasco, Stazione",46.1736838,9.0037062,,,,0,
ch:23020:4316,,"Tenero, Stazione",46.1775156,8.8516484,,,,0,
ch:23020:4326,,"Biasca, Stazione",46.3517518,8.9740259,,,,0,
ch:23020:4327,,"Castione, Stazione",46.2244516,9.0417589,,,,0,
ch:23020:4415,,"Taverne-Torricella, Stazione",46.0566121,8.9305474,,,,0,
ch:23020:4474,,"Gerra (Gambarogno), Paese",46.122894,8.7858648,,,,0,
ch:23020:4475,,"S. Nazzaro, Paese",46.1335961,8.8050079,,,,0,
ch:23020:4482,,"Mendrisio, Stazione",45.8697745,8.9795326,,,,0,
ch:23020:4525,,"Maroggia-Melano, Stazione",45.9323007,8.9738822,,,,0,
ch:23020:5423,,"Capolago, Stazione",45.9040095,8.9793529,,,,0,
ch:23020:5428,,"Locarno, Stazione",46.1725952,8.8010284,,,,0,
ch:23020:5859,,"Melide, Stazione",45.9554941,8.9480556,,,,0,
ch:23020:5878,,"Cadenazzo, Stazione",46.1524115,8.9416596,,,,0,
ch:23020:61779,,"Magadino-Vira, P.le Stazione",46.1454537,8.8502381,,,,0,
ch:23020:6184,,"Chiasso, Stazione",45.8324327,9.0317337,,,,0,
ch:23020:72996,,"S. Antonino, Stazione",46.1584039,8.9695253,,,,0,
ch:23020:7956,,"Mendrisio, S. Martino",45.8773987,8.9826048,,,,0,
ch:23020:99376:0:1,,"Lugano, Via Giacomo e Filippo Ciani (Flixbus)",46.0234132,8.963839,,,,0,
ch:23020:99437,,"Riazzino, Via Cantonale",46.1762155,8.884374,,,,0,
ch:23021:1772,,"Scherzingen, Bahnhof",47.6330312,9.2266411,,,,0,
ch:23021:18890:1,,"Kreuzlingen, Bahnhof Hafen",47.6487135,9.1821296,,,,0,
ch:23021:18890:2,,"Kreuzlingen, Bahnhof Hafen",47.6491613,9.1819859,,,,0,
ch:23021:19005:30,,"Tägerwilen Dorf, Bahnhof",47.6541598,9.139783,,,,0,
ch:23021:19005:90,,"Tägerwilen Dorf, Bahnhof",47.653718,9.1395585,,,,0,
ch:23021:19083:90,,Siegershausen,47.610919,9.1682596,,,,0,
ch:23021:19243:30,,"Oberaach, Bahnhof",47.5534999,9.2699938,,,,0,
ch:23021:19383:90,,"Lengwil, Bahnhof",47.6255969,9.1902863,,,,0,
ch:23021:19474:90,,Kehlhof,47.5722547,9.1697508,,,,0,
ch:23021:19486:30,,"Islikon, Bahnhof",47.5476187,8.8461597,,,,0,
ch:23021:19778:90,,Berg (TG),47.58249,9.173919,,,,0,
ch:23021:19810:30,,"Altnau, Bahnhof",47.6211891,9.266167,,,,0,
ch:23021:19810:90,,"Altnau, Bahnhof",47.6213707,9.2659155,,,,0,
ch:23021:19874:30,,"Kreuzlingen, Bahnhof Bernrain",47.6420259,9.1633279,,,,0,
ch:23021:19874:90,,"Kreuzlingen, Bahnhof Bernrain",47.6421167,9.1632021,,,,0,
ch:23021:20037:30,,"Bischofszell, Stadt Bahnhof",47.4924854,9.2420383,,,,0,
ch:23021:20254:30,,"Weinfelden, Bahnhof",47.5667756,9.1055303,,,,0,
ch:23021:20254:90,,"Weinfelden, Bahnhof",47.5662241,9.1063657,,,,0,
ch:23021:20258:30,,"Steckborn, Bahnhof",47.6646876,8.980934,,,,0,
ch:23021:20260:30,,"Müllheim-Wigoltingen, Bahnhof",47.5883067,9.0158245,,,,0,
ch:23021:20261:30,,"Ermatingen, Bahnhof",47.6698721,9.0855607,,,,0,
ch:23021:20263:30,,"Frauenfeld, Bahnhof",47.5573254,8.8959354,,,,0,
ch:23021:20263:90,,"Frauenfeld, Bahnhof",47.5581619,8.8965642,,,,0,
ch:23021:20264:30,,"Kreuzlingen, Bahnhof",47.6522658,9.1697508,,,,0,
ch:23021:20264:90,,"Kreuzlingen, Bahnhof",47.6525502,9.1690771,,,,0,
ch:23021:20265:30,,"Märstetten, Bahnhof",47.5833322,9.0613242,,,,0,
ch:23021:20536:30,,"Amriswil, Bahnhof",47.5502684,9.3021984,,,,0,
ch:23021:20536:90,,"Amriswil, Bahnhof",47.5504503,9.3022254,,,,0,
ch:23021:20539:30,,"Romanshorn, Bahnhof",47.5647754,9.3790044,,,,0,
ch:23021:20539:90,,"Romanshorn, Bahnhof",47.5655209,9.3793727,,,,0,
ch:23021:20540:20,,Romanshorn (See),47.5655634,9.3799746,,,,0,
ch:23021:20541,,Romanshorn Autoquai,47.5646602,9.3810975,,,,0,
ch:23021:24225,,"Altnau, Längiacker",47.6183251,9.2652867,,,,0,
ch:23021:24226,,"Altnau, Rössli",47.6092293,9.2604268,,,,0,
ch:23021:24227,,"Altnau, Unterhof",47.6155698,9.2609748,,,,0,
ch:23021:24298,,"Basadingen, Grüt",47.6729995,8.7504532,,,,0,
ch:23021:24948,,"Kreuzlingen, Blaues-Haus-Platz",47.6431638,9.1834771,,,,0,
ch:23021:24949,,"Kreuzlingen, Breite",47.6415841,9.1900079,,,,0,
ch:23021:24951,,"Kreuzlingen, Löwenstrasse",47.647721,9.1734339,,,,0,
ch:23021:24954,,"Kreuzlingen, Zihlstrasse",47.6399438,9.2008595,,,,0,
ch:23021:27457,,"Altnau, Schmitteweg",47.6119061,9.255513,,,,0,
ch:23021:27471,,"Kreuzlingen, Fliegaufstrasse",47.6475818,9.1658522,,,,0,
ch:23021:27476,,"Kreuzlingen, Hauptzoll",47.654892,9.1733351,,,,0,
ch:23021:27477,,"Kreuzlingen, Helvetiaplatz",47.6529011,9.1736405,,,,0,
ch:23021:27478,,"Kreuzlingen, Sonnenweg",47.6494579,9.1747095,,,,0,
ch:23021:27479,,"Scherzingen, Rohrenzelg",47.628624,9.2314382,,,,0,
ch:23021:27480,,"Landschlacht, Blindenzentrum",47.6241499,9.2387415,,,,0,
ch:23021:27496,,"Kreuzlingen, Seepark",47.6412028,9.1960894,,,,0,
ch:23021:27497,,"Scherzingen, Kirche",47.6319173,9.2237126,,,,0,
ch:23021:27524,,"Münsterlingen, Nonnenpförtli",47.6316812,9.2334234,,,,0,
ch:23021:28017,,"Kreuzlingen, Weiherstrasse",47.6507892,9.1651066,,,,0,
ch:23021:31559,,"Sitterdorf, Bahnhof",47.5050241,9.2489823,,,,0,
ch:23021:3714,,"Bürglen TG, Bahnhof",47.5493346,9.149916,,,,0,
ch:23021:3723,,"Schlattingen, Hauptstrasse",47.6658794,8.7689136,,,,0,
ch:23021:3724,,"Diessenhofen, Bahnhof",47.6854769,8.752708,,,,0,
ch:23021:3736,,"Kreuzlingen, Bahnhof",47.6522658,9.1697508,,,,0,
ch:23021:3743,,"Kreuzlingen, Rebstockplatz",47.6480236,9.1628069,,,,0,
ch:23021:3744,,"Kreuzlingen, Kolosseumplatz",47.6469766,9.1688615,,,,0,
ch:23021:3745,,"Kreuzlingen, Bärenplatz",47.6473216,9.1756707,,,,0,
ch:23021:3746,,"Kreuzlingen, Seminar",47.6450642,9.1790035,,,,0,
ch:23021:3747,,"Kreuzlingen, Kurzrickenbach",47.640077,9.1942569,,,,0,
ch:23021:3748,,"Bottighofen, Post",47.6397623,9.2076867,,,,0,
ch:23021:3749,,"Münsterlingen, Spitaleingang",47.6310456,9.2363969,,,,0,
ch:23021:3750,,"Scherzingen, Bäckerstübli",47.6303252,9.2266142,,,,0,
ch:23021:3752:30,,"Sulgen, Bahnhof",47.5388927,9.1840161,,,,0,
ch:23021:3753,,"Landschlacht, Schulstrasse",47.6267835,9.2473832,,,,0,
ch:23021:3754,,"Altnau, Zentrum",47.6121241,9.2584774,,,,0,
ch:23021:3755,,"Altnau, Kirche",47.6077334,9.2575522,,,,0,
ch:23021:3770,,"Schlatt TG, Bahnhof",47.6793323,8.6875621,,,,0,
ch:23021:3805,,"Tobel-Affeltrangen, Bahnhof",47.5214849,9.0334045,,,,0,
ch:23021:60184:90,,Berlingen (See),47.6753403,9.0176661,,,,0,
ch:23021:60292:90,,Bottighofen (See),47.6447374,9.2118998,,,,0,
ch:23021:6276,,"Hauptwil, Dorfplatz",47.4792697,9.2510035,,,,0,
ch:23021:63979,,"Etzwilen, Hauptstrasse",47.6577116,8.8183209,,,,0,
ch:23021:64441,,"Mammern, Bahnhofstrasse",47.6449734,8.9136322,,,,0,
ch:23021:65186,,Güttingen (See),47.612869,9.296018,,,,0,
ch:23021:66867,,"Güttingen, Bahnhof",47.6082603,9.2930356,,,,0,
ch:23021:67023,,"Tägerwilen-Gottlieben, Bahnhof",47.6593816,9.1329289,,,,0,
ch:23021:67059,,"Bischofszell Nord, Bahnhof",47.5007154,9.2357052,,,,0,
ch:23021:67063,,"Kradolf, Bahnhof",47.5243057,9.2015153,,,,0,
ch:23021:67068,,"Sitterdorf, Langäckerstrasse",47.501213,9.2436283,,,,0,
ch:23021:6728,,"Triboltingen, Dorf",47.6612754,9.1096535,,,,0,
ch:23021:6982:90,,Horn (See),47.4966369,9.462952,,,,0,
ch:23021:6995:90,,Mannenbach (See),47.6744935,9.0484334,,,,0,
ch:23021:6997:90,,Ermatingen (See),47.6752315,9.085444,,,,0,
ch:23021:6998:90,,Gottlieben (Schifflände),47.6646634,9.1346806,,,,0,
ch:23021:7000:90,,Kreuzlingen Hafen (See),47.6525865,9.1826417,,,,0,
ch:23021:70901,,"Bettwiesen, Bahnhof",47.4987005,9.0210347,,,,0,
ch:23021:74910,,"Mettendorf TG, Hauptstrasse",47.577515,8.9699565,,,,0,
ch:23021:7602:90,,Altnau (See),47.6231327,9.2690865,,,,0,
ch:23021:7603:90,,Uttwil (See),47.5864345,9.3453535,,,,0,
ch:23021:77633,,"St. Katharinental, Bahnhof",47.6873576,8.7315886,,,,0,
ch:23021:78229,,"Mannenbach-Salenstein, Bahnhof",47.6734531,9.0525476,,,,0,
ch:23021:8425,,"Bussnang, Gemeindehaus",47.5574163,9.083827,,,,0,
ch:23021:8426,,"Weinfelden, BBZ",47.5659998,9.105701,,,,0,
ch:23021:88621,,"Berlingen, Seestrasse/Werft",47.6742758,9.0218342,,,,0,
ch:23021:90006:90,,Diessenhofen (Schifflände),47.6904174,8.7488632,,,,0,
ch:23021:99004:90,,Steckborn (See),47.6686441,8.981437,,,,0,
ch:23021:99005:90,,Mammern (See),47.6482899,8.9167314,,,,0,
ch:23021:99030:90,,Arbon (See),47.5126454,9.4403234,,,,0,
ch:23021:99382,,"Eschenz, Bahnhof",47.6454818,8.8760467,,,,0,
ch:23021:99383,,"Uttwil, Bahnhof",47.5857922,9.3399187,,,,0,
ch:23021:99384,,"Kesswil, Bahnhof",47.5952495,9.3176046,,,,0,
ch:23021:99385,,"Landschlacht, Seestrasse",47.6277946,9.247006,,,,0,
ch:23021:99386,,"Münsterlingen Spital, Bahnhof",47.6319294,9.2359028,,,,0,
ch:23021:99387,,"Bottighofen, Hauptstrasse",47.6389754,9.2121603,,,,0,
ch:23021:99388,,"Felben-Wellhausen, Bahnhofstr.",47.578224,8.9438964,,,,0,
ch:23021:99404,,"Berg TG, Hauptstrasse",47.5812236,9.1677386,,,,0,
ch:23021:99407,,"Kehlhof, Bahnhof",47.5727274,9.1683046,,,,0,
ch:23021:99411,,"Märwil, Hauptstrasse/Bhf",47.5334284,9.0701097,,,,0,
ch:23021:99412,,"Oppikon, Bahnhof",47.5511536,9.0624381,,,,0,
ch:23021:99416,,"Tägerschen, Wilerstrasse",47.5089198,9.0301616,,,,0,
ch:23021:99419,,"Siegershausen, Hauptstrasse",47.6103255,9.169688,,,,0,
ch:23021:99500,,"Erlen, Bahnhof",47.5512566,9.2261561,,,,0,
ch:23021:99592,,"Hüttlingen, Hauptstrasse",47.578127,8.9783378,,,,0,
ch:230212:99409,,"Lengwil, Bahnhofstrasse",47.624834,9.1913014,,,,0,
ch:23022:1346:30,,"Erstfeld, Bahnhof",46.8204006,8.6506683,,,,0,
ch:23022:1346:30:1,,"Erstfeld, Bahnhof Kante A",46.8203822,8.6507582,,,,0,Kante A
ch:23022:20239:31,,"Flüelen, Bahnhof",46.9017199,8.6241591,,,,0,
ch:23022:77892,,"Altdorf UR, Bahnhof West",46.8759106,8.6308246,,,,0,
ch:23022:78239,,"Sisikon, Hauptstrasse",46.9498183,8.622039,,,,0,
ch:23023:1025,,"Lonay-Préverenges, gare nord",46.5236605,6.519038,,,,0,
ch:23023:1190:30,,"Yverdon-les-Bains, gare",46.7811865,6.6402387,,,,0,
ch:23023:1195,,"Payerne, gare",46.8199826,6.9401413,,,,0,
ch:23023:19178,,"Renens VD, gare",46.5376213,6.5785155,,,,0,
ch:23023:20028:30,,"Yvonand, gare",46.8007387,6.7470035,,,,0,
ch:23023:20049:30,,"Cossonay-Penthalaz, Gare",46.6058105,6.5234128,,,,0,
ch:23023:20055:30,,"Grandson, gare",46.8066233,6.6421162,,,,0,
ch:23023:20479:30,,"Vevey, gare",46.4627878,6.8420542,,,,0,
ch:23023:23471,,"Etoy, gare",46.4751311,6.4260983,,,,0,
ch:23023:2580,,"Nyon, gare",46.384375,6.2363292,,,,0,
ch:23023:2603,,"Morges, gare",46.5103514,6.4943613,,,,0,
ch:23023:2628,,"Eclépens, gare",46.6570039,6.5522308,,,,0,
ch:23023:2630,,"La Sarraz, gare",46.658829,6.5170258,,,,0,
ch:23023:2660,,"Chavornay, gare",46.7101263,6.5679513,,,,0,
ch:23023:2751,,"Palézieux, gare",46.5421382,6.8376076,,,,0,
ch:23023:2781:30,,"Avenches, gare",46.884642,7.0412467,,,,0,
ch:23023:28044,,"Tannay, village",46.3093058,6.1753246,,,,0,
ch:23023:28065,,"Morges, St-Jean nord",46.5186166,6.507351,,,,0,
ch:23023:28068,,"Echandens, poste",46.5301624,6.5410108,,,,0,
ch:23023:2808,,"Puidoux, gare",46.4937243,6.7653741,,,,0,
ch:23023:2813,,"Villeneuve VD, gare",46.3984273,6.9267744,,,,0,
ch:23023:2821,,"Aigle, gare",46.3161559,6.9646114,,,,0,
ch:23023:2833,,"Bex, place de la gare",46.2512808,7.0010022,,,,0,
ch:23023:32341,,"Corseaux, Cerisiers",46.4704478,6.8265583,,,,0,
ch:23023:3776,,"Renens VD, gare/Epenex",46.5372753,6.5777968,,,,0,
ch:23023:401,,"Chexbres, poste",46.4819852,6.7764593,,,,0,
ch:23023:5100,,"Oron-le-Châtel, gare",46.5724677,6.8366733,,,,0,
ch:23023:5474,,"Allaman, gare",46.4758734,6.3996519,,,,0,
ch:23023:62376:0:1,,"Lausanne, Parc Vélodrome",46.5360209,6.6237546,,,,0,
ch:23023:6413,,"Coppet, gare",46.3171983,6.1881616,,,,0,
ch:23023:64586,,"Avenches, Le Paon",46.8766291,7.0335391,,,,0,
ch:23023:65859,,"Ependes VD, gare",46.746259,6.6078185,,,,0,
ch:23023:65860,,"Essert-Pittet, gare",46.7276538,6.5808511,,,,0,
ch:23023:66079,,"Tannay, gare",46.3083129,6.1834724,,,,0,
ch:23023:66618,,"Mies, gare",46.2993579,6.1692161,,,,0,
ch:23023:66840,,"Corcelles-Sud, gare",46.8291902,6.9567871,,,,0,
ch:23023:71279,,"St-Prex, gare sud",46.4814965,6.4570812,,,,0,
ch:23023:77139,,"Corcelles-Nord, gare",46.835256,6.9610181,,,,0,
ch:23023:77142,,"Faoug, gare",46.9081581,7.0749694,,,,0,
ch:23023:77150,,"Yvonand, Grand'Rue",46.7997056,6.745144,,,,0,
ch:23023:88670,,"Lausanne, gare",46.5176028,6.6296566,,,,0,
ch:23023:99440,,"Bavois, gare",46.6869302,6.5615463,,,,0,
ch:23024:2841,,"St-Maurice VS, gare",46.2162225,7.0024125,,,,0,
ch:23024:318:30,,"Martigny, gare",46.105389,7.0798383,,,,0,
ch:23025:27718,,"Zug, Dammstrasse/Bahnhof",47.1737637,8.5137112,,,,0,
ch:23025:27719,,"Rotkreuz, Bahnhof Nord",47.1425928,8.4305452,,,,0,
ch:23025:40546,,"Steinhausen, Bahnhof",47.1957732,8.4785242,,,,0,
ch:23025:620,,"Baar, Bahnhof",47.1954924,8.5239161,,,,0,
ch:23025:65888,,"Zug, Bahnhof/Damm",47.1737148,8.5145826,,,,0,
ch:23025:99111:90,,"Steinhausen, Rigiblick",47.1919397,8.48077,,,,0,
ch:23025:nvbw_bus_12111:0:1,,Zug (CH) Chollermüli,47.1807491,8.4853783,,,,0,
ch:23026:1591:30,,"Andelfingen, Bahnhof",47.5938683,8.6777975,,,,0,
ch:23026:1811,,"Marthalen, Bahnhof",47.6315904,8.656193,,,,0,
ch:23026:1827,,"Winterthur, Hauptbahnhof",47.4997322,8.7237014,,,,0,
ch:23026:1827:30,,"Winterthur, Hauptbahnhof",47.4997322,8.7237014,,,,0,
ch:23026:18894:90,,Zürich Stadelhofen FB,47.3663495,8.5481256,,,,0,
ch:23026:18899,,Zürich Oerlikon,47.4115308,8.5441371,,,,0,
ch:23026:18899:90,,Zürich Oerlikon,47.4116463,8.5439754,,,,0,
ch:23026:18899:91,,Zürich Oerlikon,47.4118773,8.5439575,,,,0,
ch:23026:18927:30,,"Winterthur, Wülflingen Bahnhof",47.5066321,8.6809236,,,,0,
ch:23026:18930:30,,"Winterthur, Seen Bahnhof",47.4875807,8.7664432,,,,0,
ch:23026:19042:2,,Stettbach,47.3972733,8.5961316,,,,0,
ch:23026:19042:90,,Stettbach,47.3972125,8.5961406,,,,0,
ch:23026:19187:30,,"Regensdorf-Watt, Bahnhof",47.4367107,8.4728378,,,,0,
ch:23026:19248:1,,Niederweningen Dorf,47.5076334,8.3790897,,,,0,
ch:23026:19252:90,,Niederglatt,47.4874715,8.5033177,,,,0,
ch:23026:19510:30,,"Henggart, Bahnhof",47.5638783,8.6850019,,,,0,
ch:23026:19551:90,,Glattbrugg,47.4308286,8.5588515,,,,0,
ch:23026:19827:90,,Aathal,47.3359615,8.7656257,,,,0,
ch:23026:19904:90,,Zürich Hardbrücke,47.3851955,8.5171248,,,,0,
ch:23026:19914:30,,"Uetikon am See, Bahnhof",47.2592169,8.6788305,,,,0,
ch:23026:19931:30,,Saland,47.3941234,8.8543164,,,,0,
ch:23026:19935:30,,"Rikon, Bahnhof",47.4450042,8.7976507,,,,0,
ch:23026:20021:30,,"Bassersdorf, Bahnhof",47.4387159,8.6261353,,,,0,
ch:23026:20022:30,,"Bülach, Bahnhof",47.5226497,8.5377052,,,,0,
ch:23026:20022:90,,"Bülach, Bahnhof",47.5239478,8.536205,,,,0,
ch:23026:20038:90,,Winterthur,47.500333,8.7238182,,,,0,
ch:23026:20208:30,,"Niederweningen, Bahnhof",47.511262,8.3697831,,,,0,
ch:23026:20244:30,,"Mettmenstetten, Bahnhof",47.2436376,8.4576563,,,,0,
ch:23026:20247:1:1,,Zürich Flughafen,47.4503866,8.5623999,,,,0,
ch:23026:20247:90,,Zürich Flughafen,47.4503866,8.5623999,,,,0,
ch:23026:20248:30,,"Embrach-Rorbas, Bahnhof",47.5205082,8.5871215,,,,0,
ch:23026:20249:30,,"Oberglatt, Bahnhof",47.4704474,8.5107108,,,,0,
ch:23026:20249:90,,"Oberglatt, Bahnhof",47.4702045,8.510621,,,,0,
ch:23026:20250:90,,Rümlang,47.4540677,8.5327645,,,,0,
ch:23026:20252:30,,"Dielsdorf, Bahnhof",47.4829306,8.4589229,,,,0,
ch:23026:20253:30,,"Bauma, Bahnhof",47.3684607,8.8787865,,,,0,
ch:23026:20269:30,,"Pfäffikon ZH, Bahnhof",47.3666719,8.7856761,,,,0,
ch:23026:20270:90,,"Uster, Bahnhof",47.3503695,8.7187067,,,,0,
ch:23026:20271:30,,"Fehraltorf, Bahnhof",47.3852867,8.7502915,,,,0,
ch:23026:20272:30,,"Turbenthal, Bahnhof",47.4370875,8.8439858,,,,0,
ch:23026:20273:30,,"Kollbrunn, Bahnhof",47.4581433,8.7741058,,,,0,
ch:23026:20274:30,,"Horgen Oberdorf, Bahnhof",47.2593023,8.5893224,,,,0,
ch:23026:20278:30,,"Wila, Bahnhof",47.4177798,8.8483875,,,,0,
ch:23026:20279:30,,"Rafz, Bahnhof",47.6044385,8.5442539,,,,0,
ch:23026:20279:90,,"Rafz, Bahnhof",47.6037965,8.5434544,,,,0,
ch:23026:20281:30,,"Birmensdorf ZH, Bahnhof",47.3569422,8.4388007,,,,0,
ch:23026:20282:30,,"Bonstetten-Wettswil, Bahnhof",47.3262992,8.468499,,,,0,
ch:23026:20371:30,,"Kemptthal, Bahnhof",47.4530229,8.7055464,,,,0,
ch:23026:20372:30,,"Zweidlen, Bahnhof",47.5705698,8.4684092,,,,0,
ch:23026:20372:90,,"Zweidlen, Bahnhof",47.5704486,8.4679151,,,,0,
ch:23026:20373:30,,"Glattfelden, Bahnhof",47.5488556,8.5242484,,,,0,
ch:23026:20373:90,,"Glattfelden, Bahnhof",47.5485585,8.5240508,,,,0,
ch:23026:20374:30,,"Feldbach, Bahnhof",47.2391245,8.7830351,,,,0,
ch:23026:20378:90,,"Bubikon, Bahnhof",47.2708421,8.8227137,,,,0,
ch:23026:20379:90,,"Rüti ZH, Bahnhof",47.260485,8.8540829,,,,0,
ch:23026:20381:30,,"Wetzikon ZH, Bahnhof",47.3185534,8.791623,,,,0,
ch:23026:20381:90,,"Wetzikon ZH, Bahnhof",47.3180297,8.7922877,,,,0,
ch:23026:20383:90,,"Schwerzenbach ZH, Bahnhof",47.3843865,8.6586723,,,,0,
ch:23026:20386:30,,"Hüntwangen-Wil, Bahnhof",47.5812357,8.5133519,,,,0,
ch:23026:20386:90,,"Hüntwangen-Wil, Bahnhof",47.581266,8.5128488,,,,0,
ch:23026:20387:30,,"Seuzach, Bahnhof",47.53563,8.7388649,,,,0,
ch:23026:20526:30,,"Elgg, Bahnhof",47.4984577,8.8633894,,,,0,
ch:23026:20529:30,,"Winterthur, Oberwinterthur Bahnhof",47.5212119,8.758035,,,,0,
ch:23026:20561:90,,Dübendorf,47.4000826,8.6234224,,,,0,
ch:23026:26023,,"Zürich, Bahnhofplatz/HB",47.3772394,8.5393401,,,,0,
ch:23026:27897,,"Rämismühle-Zell, Bahnhof",47.4414986,8.8188779,,,,0,
ch:23026:30227,,"Kloten Balsberg, Bahnhof",47.441614,8.5686072,,,,0,
ch:23026:31361,,"Hedingen, Güpf",47.2997263,8.448233,,,,0,
ch:23026:32773,,"Winterthur, Reutlingen",47.5278907,8.751621,,,,0,
ch:23026:32778,,"Winterthur, Zinzikon",47.5167225,8.7573253,,,,0,
ch:23026:3677,,"Ossingen, Bahnhof",47.6145041,8.7241685,,,,0,
ch:23026:3681,,"Stammheim, Bahnhof",47.6352164,8.788946,,,,0,
ch:23026:3707,,"Steinmaur, Bahnhof",47.4895111,8.4481072,,,,0,
ch:23026:3716,,"Rickenbach-Attikon, Bahnhof",47.5354359,8.7894401,,,,0,
ch:23026:3764,,"Dachsen, Bahnhof",47.6669381,8.6142596,,,,0,
ch:23026:4627,,"Illnau, Bahnhof",47.4085337,8.7229737,,,,0,
ch:23026:4689,,"Pfungen, Bahnhof",47.5161219,8.6467607,,,,0,
ch:23026:4703,,"Wiesendangen, Bahnhof",47.5258465,8.7752737,,,,0,
ch:23026:4717,,"Dinhard, Bahnhof/Welsikon",47.5536515,8.7524564,,,,0,
ch:23026:4718,,"Thalheim-Altikon, Bahnhof",47.5696001,8.7576397,,,,0,
ch:23026:6052,,"Hettlingen, Bahnhof",47.5456238,8.695099,,,,0,
ch:23026:61245,,"Kempten, Bahnhof",47.3326192,8.8055828,,,,0,
ch:23026:61321,,"Buchs-Dällikon, Bahnhof",47.4533388,8.4373274,,,,0,
ch:23026:61554,,"Dietlikon, Bahnhof/Bad",47.4219616,8.6208083,,,,0,
ch:23026:61929,,"Glattbrugg, Post",47.4305369,8.5611153,,,,0,
ch:23026:6265,,"Schöfflisdorf-Oberwen, Bahnhof",47.49813,8.4117794,,,,0,
ch:23026:62770,,"Oberrieden Dorf, Bahnhof",47.2768274,8.577267,,,,0,
ch:23026:62808,,"Otelfingen, Bahnhof",47.4551185,8.3882794,,,,0,
ch:23026:62997:0:1,,"Zürich, Bus Station",47.3807614,8.5380466,,,,0,
ch:23026:63071,,"Schlieren, Spital Limmattal",47.3943119,8.4286677,,,,0,
ch:23026:63076,,"Schlieren, Zentrum/Bahnhof",47.3978206,8.4484306,,,,0,
ch:23026:63215,,"Urdorf Weihermatt, Bahnhof",47.3800923,8.4299702,,,,0,
ch:23026:63558,,"Zürich Affoltern, Bahnhof",47.4211836,8.507414,,,,0,
ch:23026:63567,,"Zürich Hardbrücke, Bahnhof",47.3852015,8.5171068,,,,0,
ch:23026:63568,,"Zürich Oerlikon, Bahnhof Nord",47.4124062,8.5439305,,,,0,
ch:23026:63956,,"Zürich, Zehntenhausplatz",47.4192204,8.5064618,,,,0,
ch:23026:6449,,"Dübendorf, Bahnhof",47.3997299,8.623638,,,,0,
ch:23026:6451,,"Wallisellen, Bahnhof",47.4127223,8.5925384,,,,0,
ch:23026:65957,,"Urdorf, Bahnhof-/Bergstrasse",47.3899211,8.4319645,,,,0,
ch:23026:66078,,"Sennhof-Kyburg, Bahnhof",47.4656743,8.7589063,,,,0,
ch:23026:66698:0:1,,Winterthur Lagerhausstrasse,47.4976505,8.723387,,,,0,
ch:23026:67819,,"Räterschen, Bahnhof",47.4985184,8.7948569,,,,0,
ch:23026:67820,,"Schottikon, Bahnhof",47.4999021,8.8122214,,,,0,
ch:23026:67821,,"Winterthur Grüze, Bahnhof",47.4983545,8.7508934,,,,0,
ch:23026:688,,Zürich HB,47.3781761,8.5402115,,,,0,
ch:23026:688:90,,Zürich HB,47.3783647,8.5393491,,,,0,
ch:23026:688:91,,Zürich HB,47.3778233,8.5389808,,,,0,
ch:23026:690:90,,"Zürich, Stadelhofen Bahnhof",47.3666111,8.548485,,,,0,
ch:23026:700:30,,"Männedorf, Bahnhof",47.253065,8.6931587,,,,0,
ch:23026:701:30,,"Stäfa, Bahnhof",47.2404114,8.7219227,,,,0,
ch:23026:702:30,,"Uerikon, Bahnhof",47.2359529,8.75269,,,,0,
ch:23026:704:90,,Nänikon-Greifensee,47.3693611,8.6864123,,,,0,
ch:23026:70902,,"Eglisau, Bahnhof",47.5729638,8.5164241,,,,0,
ch:23026:70908,,"Feuerthalen, Bahnhofplatz",47.6920017,8.6461498,,,,0,
ch:23026:70910,,"Langwiesen, Hauptstrasse/Bhf",47.6839771,8.6628046,,,,0,
ch:23026:70913,,"Otelfingen, Industrie/Golfpark",47.4572141,8.4027872,,,,0,
ch:23026:737:30,,"Thalwil, Bahnhof",47.2958881,8.5648882,,,,0,
ch:23026:762:30,,"Effretikon, Bahnhof",47.4251403,8.6861518,,,,0,
ch:23026:764:30,,"Kloten, Bahnhof",47.4489651,8.5838876,,,,0,
ch:23026:796:90,,Eglisau,47.5723759,8.5165588,,,,0,
ch:23026:8091,,"Knonau, Bahnhof",47.2203911,8.4658939,,,,0,
ch:23026:90723,,"Niederhasli, Bahnhof",47.478274,8.4885404,,,,0,
ch:23026:99417,,"Winterthur Hegi, St. Gallerstr",47.5015043,8.7698119,,,,0,
ch:23026:99447,,"Schloss Laufen, Lauferstrasse",47.6746266,8.615131,,,,0,
ch:23026:99503,,"Winterthur Töss, Bahnhof",47.4895414,8.7098583,,,,0,
cz:55100:5457076:11:1,,Praha Hlavni nádrazi #bus,50.0832512,14.4348127,,,,0,
cz:55100:NVBW_11342:0:1,,Praha Na Knížecí,50.0690748,14.4046652,,,,0,
cz:55100:NVBW_11790:0:1,,Praha Václav Havel Airport,50.1073052,14.2691274,,,,0,
cz:55100:NVBW_92016:1:Flix,,Praha Černý Most (M),50.1088953,14.5774382,,,,0,
cz:55100:NVBW_92047:1:1,,Praha Hradcanska (M),50.0974004,14.4032998,,,,0,
cz:55100:NVBW_99711:0:1,,Praha Florenc/Busbahnhof,50.0894416,14.4404451,,,,0,
cz:55202:NVBW_3:10:1,,Beroun (CZ),49.9572119,14.0763669,,,,0,
cz:55315:nvbw_bus_9008:0:1,,Harrachov Sklárna,50.7807489,15.4197345,,,,0,
cz:55323:nvbw_bus_10372:0:1,,Plzen Autobusové nádrazí,49.7463647,13.3630866,,,,0,
cz:55521:nvbw_bus_9946:0:1,,Hradec Králové Terminál HD,50.2169334,15.812999,,,,0,
cz:55523_nvbw_bus_10018:0:Flix,,Náchod autobusové nádraží,50.4174433,16.1703129,,,,0,
cz:55642:11918:0:1,,Brno Autobusove nadrazi Grand,49.1934101,16.6142603,,,,0,
cz:55806:11353:0:1,,Ostrava (CZ) ÚAN,49.8303898,18.2803297,,,,0,
de:01003:104755::1,,Lübeck ZOB/Hauptbahnhof,53.8661799,10.6691828,,,,0,
de:01055:74912::1,,Puttgarden Bahnhof,54.5004965,11.225716,,,,0,
de:02000:10002:1:99,,Hauptbahnhof/ZOB,53.5521285,10.0099541,,,,0,
de:02000:10950:11:1,,Hamburg Hbf,53.5527529,10.0079239,,0,de:02000:10950_Parent,0,
de:02000:10950:3:11,,Hamburg Hbf,53.5527529,10.0079239,,0,de:02000:10950_Parent,0,
de:02000:10950:3:11A-C,,Hamburg Hbf,53.5527529,10.0079239,,0,de:02000:10950_Parent,0,
de:02000:10950:3:11D-F,,Hamburg Hbf,53.5527529,10.0079239,,0,de:02000:10950_Parent,0,
de:02000:10950:3:12,,Hamburg Hbf,53.5527529,10.0079239,,0,de:02000:10950_Parent,0,
de:02000:10950:4:14,,Hamburg Hbf,53.5527529,10.0079239,,0,de:02000:10950_Parent,0,
de:02000:10950_Parent,,Hamburg Hbf,53.5527529,10.0079239,,1,,,
de:02000:80953:1:5,,Altona,53.5519791,9.9343519,,0,de:02000:80953_Parent,0,
de:02000:80953:1:6,,Altona,53.5519791,9.9343519,,0,de:02000:80953_Parent,0,
de:02000:80953:3:9,,Altona,53.5519791,9.9343519,,0,de:02000:80953_Parent,0,
de:02000:80953:4:11,,Altona,53.5519791,9.9343519,,0,de:02000:80953_Parent,0,
de:02000:80953_Parent,,Altona,53.5519791,9.9343519,,1,,,
de:03152:5382:32:K,,Göttingen Bahnhof,51.5367865,9.9262671,,,,0,
de:03241:42:1:48,,Hannover Hauptbahnhof/ZOB,52.3788203,9.7411243,,,,0,
de:03404:71609::Fern,,Osnabrück Hauptbahnhof/ZOB,52.2739087,8.057897,,,,0,
de:04011:13926::2,,Bremen Hauptbahnhof Fernbusterminal,53.0837043,8.809194,,,,0,
de:05111:18469:0:1,,"D-Worringer Platz,W57",51.2236692,6.7953329,,,,0,
de:05111:18488:2:1,,D-Flughafen Bf Bstg 1,51.290654,6.7899609,,,,0,1
de:05112:16032:0:1,,Duisburg Hbf,51.4304529,6.7745279,,,,0,
de:05113:9289:10:Flix,,Essen Hauptbahnhof,51.449732,7.0122131,,,,0,
de:05114:21300:1:1,,Krefeld Hauptbahnhof Süd Bstg 1,51.3246459,6.5700983,,,,0,1
de:05116:23200:0:1,,"Mönchengladbach, Fernbusbahnhof",51.1982609,6.4468225,,,,0,
de:05124:11602:2:9,,W-Oberbarmen Bf Bstg 9,51.2750339,7.2242874,,,,0,9
de:05314:64458:2:41,,Bonn Gronau UN Campus Bf,50.7125682,7.1204422,,,,0,
de:05315:17556:2:24,,Köln/Bonn Flughafen Terminal 2,50.8810343,7.1174508,,,,0,
de:05316:21101:7:71,,Wiesdorf Leverkusen Mitte Bf,51.032022,6.9912105,,,,0,
de:05334:1088:0:1,,"Aachen, Bendplatz (Henricistraße)",50.7835774,6.0724136,,,,0,
de:05515:40010:1:1,,"Münster (Westf), Frie-Vendt-Platz (Fernbus)",51.9535109,7.6319698,,,,0,
de:05515:41000:91:3,,Münster (Westf)  Hauptbahnhof,51.9566277,7.6353295,,,,0,
de:05515:41000:92:4,,Münster (Westf)  Hauptbahnhof,51.9566167,7.6353924,,,,0,
de:05711:5059:89,,"Bielefeld, Brackwede Bahnhof",51.998023,8.5003083,,,,0,
de:05774:7079:1:1,,"Paderborn, Maspernplatz Bstg 1",51.7228362,8.7541632,,,,0,1
de:05911:5194:7:10,,Bochum Hbf,51.4794102,7.2249162,,,,0,
de:05913:131:4:12,,Dortmund Hbf,51.5195287,7.4595113,,,,0,
de:05913:131:90:10,,Dortmund Hbf,51.5177175,7.4587657,,,,0,
de:05913:131:91:16,,Dortmund Hbf,51.5178797,7.4587207,,,,0,
de:05970:40251:1:1,,Siegen Koblenzer Straße,50.8721634,8.0169249,,,,0,
de:06411:11226:5:5,,Darmstadt Ostbahnhof,49.8748314,8.6738269,,,,0,
de:06411:11226:8:8,,Darmstadt Ostbahnhof,49.8748314,8.6738269,,,,0,
de:06411:11320:1:1,,Darmstadt Südbahnhof,49.8545878,8.6370409,,,,0,
de:06411:11320:1:2,,Darmstadt Südbahnhof,49.8545473,8.6368702,,,,0,
de:06411:11321:1:1,,Darmstadt-Eberstadt Bahnhof,49.8136927,8.625776,,,,0,
de:06411:11321:2:2,,Darmstadt-Eberstadt Bahnhof,49.8137043,8.6257131,,,,0,
de:06411:16027:1:1,,Darmstadt TU-Lichtwiese Bahnhof,49.8609235,8.6876071,,,,0,
de:06411:4720:3:3,,Darmstadt Nordbahnhof,49.8921151,8.655124,,,,0,
de:06411:4720:3:7,,Darmstadt Nordbahnhof,49.8922019,8.655097,,,,0,
de:06411:4720:4:8,,Darmstadt Nordbahnhof,49.8923581,8.6550431,,,,0,
de:06411:4734:41:5,,Darmstadt Hauptbahnhof,49.8730424,8.6298454,,0,de:06411:4734_Parent,0,
de:06411:4734:41:6,,Darmstadt Hauptbahnhof,49.8730309,8.6296747,,0,de:06411:4734_Parent,0,
de:06411:4734:42:10,,Darmstadt Hauptbahnhof,49.8729961,8.6291717,,0,de:06411:4734_Parent,0,
de:06411:4734:43:11,,Darmstadt Hauptbahnhof,49.8729903,8.6290639,,0,de:06411:4734_Parent,0,
de:06411:4734:43:12,,Darmstadt Hauptbahnhof,49.8729788,8.6288932,,0,de:06411:4734_Parent,0,
de:06411:4734:44:7,,Darmstadt Hauptbahnhof,49.8730251,8.6295669,,0,de:06411:4734_Parent,0,
de:06411:4734:44:8,,Darmstadt Hauptbahnhof,49.8730135,8.6294232,,0,de:06411:4734_Parent,0,
de:06411:4734:52,,Darmstadt Hauptbahnhof,49.8717051,8.6317229,,0,de:06411:4734_Parent,0,
de:06411:4734_Parent,,Darmstadt Hauptbahnhof,49.8719424,8.6311569,,1,,,
de:06412:10:10:15,,Frankfurt (Main) Hauptbahnhof,50.1057727,8.6634693,,0,de:06412:10_Parent,0,
de:06412:10:11:8,,Frankfurt (Main) Hauptbahnhof,50.1041882,8.6593101,,0,de:06412:10_Parent,0,
de:06412:10:12:10,,Frankfurt (Main) Hauptbahnhof,50.1058706,8.6634783,,0,de:06412:10_Parent,0,
de:06412:10:12:13,,Frankfurt (Main) Hauptbahnhof,50.1058476,8.6634963,,0,de:06412:10_Parent,0,
de:06412:10:13:7,,Frankfurt (Main) Hauptbahnhof,50.1059743,8.6633346,,0,de:06412:10_Parent,0,
de:06412:10:15:2,,Frankfurt (Main) Hauptbahnhof,50.1062681,8.6629483,,0,de:06412:10_Parent,0,
de:06412:10:16:12,,Frankfurt (Main) Hauptbahnhof,50.1063027,8.6628225,,0,de:06412:10_Parent,0,
de:06412:10:16:16,,Frankfurt (Main) Hauptbahnhof,50.1063661,8.6627776,,0,de:06412:10_Parent,0,
de:06412:10:17:18,,Frankfurt (Main) Hauptbahnhof,50.1064756,8.6626878,,0,de:06412:10_Parent,0,
de:06412:10:17:20,,Frankfurt (Main) Hauptbahnhof,50.1065274,8.6626519,,0,de:06412:10_Parent,0,
de:06412:10:19:24,,Frankfurt (Main) Hauptbahnhof,50.1067579,8.6623824,,0,de:06412:10_Parent,0,
de:06412:10:19:25,,Frankfurt (Main) Hauptbahnhof,50.1068155,8.6623554,,0,de:06412:10_Parent,0,
de:06412:10:20:1,,Frankfurt (Main) Hauptbahnhof,50.1069653,8.6622027,,0,de:06412:10_Parent,0,
de:06412:10:20:26,,Frankfurt (Main) Hauptbahnhof,50.1069019,8.6622386,,0,de:06412:10_Parent,0,
de:06412:10:21:14,,Frankfurt (Main) Hauptbahnhof,50.1071035,8.662068,,0,de:06412:10_Parent,0,
de:06412:10:21:9,,Frankfurt (Main) Hauptbahnhof,50.1070402,8.6621308,,0,de:06412:10_Parent,0,
de:06412:10:22:17,,Frankfurt (Main) Hauptbahnhof,50.1071612,8.6619871,,0,de:06412:10_Parent,0,
de:06412:10_Parent,,Frankfurt (Main) Hauptbahnhof,50.1071612,8.6637658,,1,,,
de:06412:1008:11:2,,Frankfurt (Main) Höchst Bahnhof,50.1024193,8.5423764,,0,de:06412:1008_Parent,0,
de:06412:1008:13:13,,Frankfurt (Main) Höchst Bahnhof,50.1027881,8.5423674,,0,de:06412:1008_Parent,0,
de:06412:1008:13:14,,Frankfurt (Main) Höchst Bahnhof,50.1028515,8.5423674,,0,de:06412:1008_Parent,0,
de:06412:1008:15:17,,Frankfurt (Main) Höchst Bahnhof,50.1029609,8.5423674,,0,de:06412:1008_Parent,0,
de:06412:1008:16:16,,Frankfurt (Main) Höchst Bahnhof,50.1026556,8.5423674,,0,de:06412:1008_Parent,0,
de:06412:1008:16:21,,Frankfurt (Main) Höchst Bahnhof,50.1027074,8.5423674,,0,de:06412:1008_Parent,0,
de:06412:1008_Parent,,Frankfurt (Main) Höchst Bahnhof,50.1022119,8.5423764,,1,,,
de:06412:113:1:1,,Frankfurt (Main) Pforzheimer Straße,50.1044532,8.6632358,,,,0,
de:06412:1204:11:12,,Frankfurt (Main) Westbahnhof,50.1193564,8.6394843,,,,0,
de:06412:1808,,Frankfurt (Main) Stadion Osttribüne,50.0689076,8.6516834,,,,0,
de:06412:1830:2,,Frankfurt (Main) Niederrad Bahnhof,50.0806918,8.6372206,,0,de:06412:1830_Parent,0,
de:06412:1830:4:7,,Frankfurt (Main) Niederrad Bahnhof,50.0809916,8.6371846,,0,de:06412:1830_Parent,0,
de:06412:1830:4:8,,Frankfurt (Main) Niederrad Bahnhof,50.0809397,8.6370139,,0,de:06412:1830_Parent,0,
de:06412:1830:5:10,,Frankfurt (Main) Niederrad Bahnhof,50.0808705,8.6367804,,0,de:06412:1830_Parent,0,
de:06412:1830:5:9,,Frankfurt (Main) Niederrad Bahnhof,50.0809224,8.63696,,0,de:06412:1830_Parent,0,
de:06412:1830_Parent,,Frankfurt (Main) Niederrad Bahnhof,50.0807841,8.6371038,,1,,,
de:06412:2899:1:1,,Frankfurt (Main) Stadion,50.0677948,8.6324415,,0,de:06412:2899_Parent,0,
de:06412:2899:2:5,,Frankfurt (Main) Stadion,50.0680485,8.6322708,,0,de:06412:2899_Parent,0,
de:06412:2899:2:8,,Frankfurt (Main) Stadion,50.0679505,8.6323876,,0,de:06412:2899_Parent,0,
de:06412:2899:3:7,,Frankfurt (Main) Stadion,50.0683195,8.6325763,,0,de:06412:2899_Parent,0,
de:06412:2899_Parent,,Frankfurt (Main) Stadion,50.0680831,8.6329715,,1,,,
de:06412:2931:2:2,,Frankfurt (Main) Flughafen Tor 3,50.0527602,8.5791894,,,,0,
de:06412:2932,,Frankfurt (Main) Flughafen Terminal 1,50.0510817,8.5715268,,,,0,
de:06412:2933,,Frankfurt (Main) Flughafen Terminal 2,50.052391,8.5881007,,,,0,
de:06412:7011,,Frankfurt (Main) Hauptbahnhof Südseite,50.1057208,8.6640532,,,,0,
de:06412:912:2:3,,Frankfurt (Main) Südbahnhof,50.0990946,8.6854242,,0,de:06412:912_Parent,0,
de:06412:912:3:5,,Frankfurt (Main) Südbahnhof,50.0990485,8.6856757,,0,de:06412:912_Parent,0,
de:06412:912:3:6,,Frankfurt (Main) Südbahnhof,50.0989678,8.6857655,,0,de:06412:912_Parent,0,
de:06412:912:4:7,,Frankfurt (Main) Südbahnhof,50.0990657,8.6861159,,0,de:06412:912_Parent,0,
de:06412:912:4:8,,Frankfurt (Main) Südbahnhof,50.0990024,8.6861787,,0,de:06412:912_Parent,0,
de:06412:912:5:9,,Frankfurt (Main) Südbahnhof,50.0991291,8.6866009,,0,de:06412:912_Parent,0,
de:06412:912_Parent,,Frankfurt (Main) Südbahnhof,50.0993308,8.6864482,,1,,,
de:06414:6907:19:21,,"Wiesbaden, Hauptbahnhof",50.0702395,8.2439471,,,,0,
de:06414:6907:20:23,,"Wiesbaden, Hauptbahnhof",50.0701704,8.2437315,,,,0,
de:06414:6907:5:5,,"Wiesbaden, Hauptbahnhof",50.0709545,8.2460582,,,,0,
de:06431:12660:0:1,,"Ober-Abtsteinach, Schule",49.5444137,8.7805288,,,,0,
de:06431:1502:1:2,,"Heppenheim, Bahnhof",49.6414948,8.633232,,0,de:06431:1502_Parent,0,
de:06431:1502:2,,"Heppenheim, Bahnhof",49.6412272,8.6340136,,0,de:06431:1502_Parent,0,
de:06431:1502:2:Bus 3,,"Heppenheim, Bahnhof",49.6409945,8.6338788,,0,de:06431:1502_Parent,0,
de:06431:1502:3:Taxi,,"Heppenheim, Bahnhof",49.6414133,8.6339417,,0,de:06431:1502_Parent,0,
de:06431:1502:4:1,,"Heppenheim, Bahnhof",49.6414948,8.6334117,,0,de:06431:1502_Parent,0,
de:06431:1502_Parent,,"Heppenheim, Bahnhof",49.6413959,8.6334297,,1,,,
de:06431:15027:0:1,,"Hirschhorn, Ersheimer Straße",49.4494463,8.9034992,,,,0,
de:06431:15048:0:1,,"Unter-Abtsteinach, EH Wendepl.",49.535489,8.7864577,,,,0,
de:06431:15049:0:1,,"Hirschhorn (Neckar), Kurmainzerstraße",49.451029,8.907874,,,,0,
de:06431:1506:0:RiN,,"Heppenheim, Starkenburg-Gym.",49.6368815,8.6329715,,,,0,
de:06431:1506:0:RiS,,"Heppenheim, Starkenburg-Gym.",49.6367011,8.6327649,,,,0,
de:06431:1511:0:RiNor,,"Heppenheim, Graben",49.6407036,8.6435627,,,,0,
de:06431:1511:0:RiSue,,"Heppenheim, Graben",49.6407967,8.6432303,,,,0,
de:06431:1513:0:Nord,,"Heppenheim, Lehrstraße",49.6432515,8.6413798,,,,0,
de:06431:1513:0:Süd,,"Heppenheim, Lehrstraße",49.6431526,8.6412001,,,,0,
de:06431:1528:0:RiN,,"Heppenheim, Zollhausstraße/B3",49.6383417,8.6410833,,,,0,
de:06431:1528:0:RiS,,"Heppenheim, Zollhausstraße/B3",49.6381265,8.6409486,,,,0,
de:06431:1529:0:1,,"Heppenheim, Halber Mond",49.641838,8.6389633,,,,0,
de:06431:1534:0:1,,"Ober-Laudenbach, Finstertal",49.6134594,8.6694611,,,,0,
de:06431:1534:0:2,,"Ober-Laudenbach, Finstertal",49.6129414,8.6688952,,,,0,
de:06431:15345:0:1,,"Ober-Laudenbach, Kindergarten",49.6147341,8.6739617,,,,0,
de:06431:1535:0:1,,"Ober-Laudenbach, Turnhalle",49.6148621,8.6788754,,,,0,
de:06431:1539:0:1,,"Heppenheim, Winzergen.",49.6482946,8.6387207,,,,0,
de:06431:1541:0:RiN,,"Hambach, Kirche",49.655582,8.6506055,,,,0,
de:06431:1541:0:RiS,,"Hambach, Kirche",49.6558262,8.6508031,,,,0,
de:06431:1547:0:RiN,,"Hambach, Wasserschöpp",49.651668,8.6493029,,,,0,
de:06431:1547:0:RiS,,"Hambach, Wasserschöpp",49.6515807,8.6490154,,,,0,
de:06431:1590:1:2,,"Hirschhorn, Bahnhof",49.4425428,8.8960162,,0,de:06431:1590_Parent,0,
de:06431:1590:2:1,,"Hirschhorn, Bahnhof",49.4426421,8.8963845,,0,de:06431:1590_Parent,0,
de:06431:1590:3:1,,"Hirschhorn, Bahnhof",49.442537,8.896115,,0,de:06431:1590_Parent,0,
de:06431:1590:4:5,,"Hirschhorn, Bahnhof",49.4419762,8.896142,,0,de:06431:1590_Parent,0,
de:06431:1590_Parent,,"Hirschhorn, Bahnhof",49.4424085,8.8960521,,1,,,
de:06431:1592:0:Ri N,,"Hirschhorn, Kreuz",49.4478811,8.8953604,,,,0,
de:06431:1592:0:Ri S,,"Hirschhorn, Kreuz",49.4478169,8.8952616,,,,0,
de:06431:1593:0:Ri N,,"Hirschhorn, Fabrik",49.4707347,8.8525557,,,,0,
de:06431:1593:0:Ri S,,"Hirschhorn, Fabrik",49.4706238,8.8525827,,,,0,
de:06431:1594:0:RiS,,"Langenthal, Kindergarten",49.4727195,8.8494565,,,,0,
de:06431:1595:0:Ri S,,"Hirschhorn, Schlössel",49.4502347,8.8860719,,,,0,
de:06431:1596:0:Ri N,,"Langenthal (Odw), Mitte",49.4724918,8.8485043,,,,0,
de:06431:1596:0:Ri S,,"Langenthal (Odw), Mitte",49.4723809,8.847624,,,,0,
de:06431:1599:0:RiS,,"Hirschhorn (Neckar), Rathaus/Hauptstr.",49.4459596,8.8963396,,,,0,
de:06431:1599:0:RiW,,"Hirschhorn (Neckar), Rathaus/Hauptstr.",49.4463101,8.8978308,,,,0,
de:06431:1601:0:1,,"Hirschhorn, Karl-Biesing.-Str.",49.4403816,8.8974266,,,,0,
de:06431:1603:0:1,,"Hirschhorn (Neckar), Heinrich-Weis-Str.",49.4480972,8.9076584,,,,0,
de:06431:1604:0:1,,"Hirschhorn (Neckar), Ersheim Gewerbegebiet",49.4516889,8.9112606,,,,0,
de:06431:1674:0:RiO,,"Heppenheim,Bgm-Metzendorf-Str.",49.6358168,8.6392777,,,,0,
de:06431:1674:0:RiW,,"Heppenheim,Bgm-Metzendorf-Str.",49.6360379,8.6392418,,,,0,
de:06431:1771:1:Gl.2,,"Lampertheim, Bahnhof",49.5982013,8.4784254,,0,de:06431:1771_Parent,0,
de:06431:1771:1:Gl.3,,"Lampertheim, Bahnhof",49.5982188,8.4785332,,0,de:06431:1771_Parent,0,
de:06431:1771:2,,"Lampertheim, Bahnhof",49.5986147,8.4777337,,0,de:06431:1771_Parent,0,
de:06431:1771:4:Gl.4,,"Lampertheim, Bahnhof",49.5982479,8.4786859,,0,de:06431:1771_Parent,0,
de:06431:1771:4:Gl.5,,"Lampertheim, Bahnhof",49.5982654,8.4788206,,0,de:06431:1771_Parent,0,
de:06431:1771_Parent,,"Lampertheim, Bahnhof",49.5982945,8.4785871,,1,,,
de:06431:2:0:Ri N,,"Ober-Abtsteinach, Pfarrgarten",49.5430381,8.7860984,,,,0,
de:06431:2:0:Ri S,,"Ober-Abtsteinach, Pfarrgarten",49.5426417,8.7856851,,,,0,
de:06431:236:1:1,,"Bensheim, Bahnhof",49.6817332,8.6168198,,0,de:06431:236_Parent,0,
de:06431:236:1:2,,"Bensheim, Bahnhof",49.6817216,8.616703,,0,de:06431:236_Parent,0,
de:06431:236:2,,"Bensheim, Bahnhof",49.6819947,8.6174756,,0,de:06431:236_Parent,0,
de:06431:236:5:3,,"Bensheim, Bahnhof",49.6812798,8.6166941,,0,de:06431:236_Parent,0,
de:06431:236:5:4,,"Bensheim, Bahnhof",49.6812624,8.6165144,,0,de:06431:236_Parent,0,
de:06431:236_Parent,,"Bensheim, Bahnhof",49.6809485,8.6167659,,1,,,
de:06431:248:1:1,,"Auerbach, Bahnhof",49.7017237,8.6133344,,,,0,
de:06431:248:3:2,,"Auerbach, Bahnhof",49.7017876,8.6131816,,,,0,
de:06431:270:2,,6405,0.0,0.0,,,,0,
de:06431:270:3,,"Biblis, Bahnhof",49.6888993,8.4508201,,0,de:06431:270_Parent,0,
de:06431:270:3:1,,"Biblis, Bahnhof",49.6889284,8.4507752,,0,de:06431:270_Parent,0,
de:06431:270:4:2,,"Biblis, Bahnhof",49.6889633,8.4507034,,0,de:06431:270_Parent,0,
de:06431:270:4:3,,"Biblis, Bahnhof",49.6889981,8.4506315,,0,de:06431:270_Parent,0,
de:06431:270:5:4,,"Biblis, Bahnhof",49.689033,8.4505686,,0,de:06431:270_Parent,0,
de:06431:270_Parent,,"Biblis, Bahnhof",49.6889516,8.4504967,,1,,,
de:06431:286:1:1,,"Birkenau, Bahnhof",49.5609297,8.7081515,,0,de:06431:286_Parent,0,
de:06431:286:2:2,,"Birkenau, Bahnhof",49.5609822,8.7081066,,0,de:06431:286_Parent,0,
de:06431:286:3:2,,"Birkenau, Bahnhof Bstg 2",49.5606675,8.7082144,,0,de:06431:286_Parent,0,2
de:06431:286:3:3,,"Birkenau, Bahnhof Bstg 3",49.5610288,8.7086815,,0,de:06431:286_Parent,0,3
de:06431:286:3:GeoB,,"Birkenau, Bahnhof Bstg 1",49.5607025,8.7081785,,0,de:06431:286_Parent,0,1
de:06431:286_Parent,,"Birkenau, Bahnhof",49.5610055,8.7082414,,1,,,
de:06431:2884:0:RiN,,"Mörlenbach, Abzw. Gr.Breitenb.",49.6051411,8.7498603,,,,0,
de:06431:2884:0:RiS,,"Mörlenbach, Abzw. Gr.Breitenb.",49.6051295,8.7497974,,,,0,
de:06431:2886:1:DB,,"Mörlenbach, Bahnhof",49.5972174,8.7308969,,,,0,
de:06431:2886:3:BuRiN,,"Mörlenbach, Bahnhof",49.5968331,8.7315437,,,,0,
de:06431:2886:3:BuRiS,,"Mörlenbach, Bahnhof",49.5966642,8.7314628,,,,0,
de:06431:2888:0:Ri N,,"Mörlenbach, Fürther Straße",49.5989699,8.7382541,,,,0,
de:06431:2888:0:Ri S,,"Mörlenbach, Fürther Straße",49.5991271,8.7386583,,,,0,
de:06431:2889:0:Ri N,,"Mörlenbach, Jahnstraße",49.5934792,8.7305825,,,,0,
de:06431:2889:0:Ri S,,"Mörlenbach, Jahnstraße",49.5937412,8.730286,,,,0,
de:06431:289:0:1,,"Birkenau, Grundschule",49.5609181,8.7013872,,,,0,
de:06431:2890,,"Mörlenbach, B 38",49.5967632,8.7315077,,,,0,
de:06431:2891:0:Ri N,,"Bettenbach, Abzw.",49.5889604,8.7289206,,,,0,
de:06431:2891:0:Ri S,,"Bettenbach, Abzw.",49.5888148,8.7287409,,,,0,
de:06431:290:0:1,,"Birkenau, Langenbergschule",49.561763,8.7138469,,,,0,
de:06431:291:0:Ri O,,"Birkenau, Schloss",49.5617863,8.7029413,,,,0,
de:06431:291:0:Ri W,,"Birkenau, Schloss",49.5619902,8.7037408,,,,0,
de:06431:2912:0:Ri N,,"Mörlenbach, Mitte",49.5973746,8.7362598,,,,0,
de:06431:2912:0:Ri S,,"Mörlenbach, Mitte",49.5974037,8.7360532,,,,0,
de:06431:292:0:1,,Buchklingen,49.5447285,8.7322623,,,,0,
de:06431:295:0:Ri O,,"Kallstadt, Brücke",49.5533718,8.7322982,,,,0,
de:06431:295:0:Ri W,,"Kallstadt, Brücke",49.5532669,8.7328642,,,,0,
de:06431:296:0:Ri O,,"Kallstadt, Mitte",49.5508658,8.7371042,,,,0,
de:06431:296:0:Ri W,,"Kallstadt, Mitte",49.550959,8.7371581,,,,0,
de:06431:297:0:Ri O,,"Löhrbach, Abzw. Buchklingen",49.5472872,8.7480098,,,,0,
de:06431:297:0:Ri W,,"Löhrbach, Abzw. Buchklingen",49.5473863,8.7479289,,,,0,
de:06431:298:0:Ri O,,"Löhrbach, Schulstraße",49.5481149,8.7556634,,,,0,
de:06431:298:0:Ri W,,"Löhrbach, Schulstraße",49.5482781,8.7555556,,,,0,
de:06431:299:0:Ri O,,"Löhrbach, Falterweg",49.5468035,8.7587626,,,,0,
de:06431:299:0:Ri W,,"Löhrbach, Falterweg",49.5469142,8.7587357,,,,0,
de:06431:3:0:Ri O,,"O.-Abtsteinach, Mackenh'str.",49.5440931,8.7875357,,,,0,
de:06431:3:0:Ri S,,"O.-Abtsteinach, Mackenh'str.",49.5441981,8.7874907,,,,0,
de:06431:300:0:Ri O,,"Löhrbach, Oberer Ortsteil",49.545154,8.7661378,,,,0,
de:06431:300:0:Ri W,,"Löhrbach, Oberer Ortsteil",49.5452181,8.7661378,,,,0,
de:06431:302:0:Ri S,,"Reisen, Odenwaldstraße",49.5784129,8.7178084,,,,0,
de:06431:303:1:DB,,"Reisen, Bahnhof",49.5779411,8.7200452,,,,0,
de:06431:303:2:2,,"Reisen, Bahnhof",49.5778246,8.7204674,,,,0,
de:06431:303:2:Bus,,"Reisen, Bahnhof",49.5777897,8.7205393,,,,0,
de:06431:304:0:1,,"Löhrbach, Alte Landstraße",49.5458709,8.7616193,,,,0,
de:06431:3045:1,,Neckarhausen b.Neckarsteinach,49.4170872,8.8807089,,0,de:06431:3045_Parent,0,
de:06431:3045:1:1,,Neckarhausen b.Neckarsteinach,49.4171223,8.8806909,,0,de:06431:3045_Parent,0,
de:06431:3045:2:6,,Neckarhausen b.Neckarsteinach,49.4170405,8.881194,,0,de:06431:3045_Parent,0,
de:06431:3045:2:7,,Neckarhausen b.Neckarsteinach,49.4171281,8.8811132,,0,de:06431:3045_Parent,0,
de:06431:3045:4:2,,Neckarhausen b.Neckarsteinach,49.41676,8.8793435,,0,de:06431:3045_Parent,0,
de:06431:3045_Parent,,Neckarhausen b.Neckarsteinach,49.4168885,8.879595,,1,,,
de:06431:3047:1:2,,"Neckarsteinach, Bahnhof",49.4047257,8.8415693,,0,de:06431:3047_Parent,0,
de:06431:3047:2:5,,"Neckarsteinach, Bahnhof",49.404562,8.8413717,,0,de:06431:3047_Parent,0,
de:06431:3047:2:Bus,,"Neckarsteinach, Bahnhof",49.4045912,8.841219,,0,de:06431:3047_Parent,0,
de:06431:3047:4,,"Neckarsteinach, Bahnhof",49.4046672,8.8414795,,0,de:06431:3047_Parent,0,
de:06431:3047:4:1,,"Neckarsteinach, Bahnhof",49.4046965,8.8415244,,0,de:06431:3047_Parent,0,
de:06431:3047_Parent,,"Neckarsteinach, Bahnhof",49.4046614,8.8415963,,1,,,
de:06431:3048:0:Ri N,,"Neckarsteinach, Lederfabrik",49.4105708,8.8356225,,,,0,
de:06431:3048:0:Ri S,,"Neckarsteinach, Lederfabrik",49.4105883,8.8352362,,,,0,
de:06431:3049:0:Ri N,,"Neckarsteinach, Mitte",49.4087823,8.8386857,,,,0,
de:06431:3049:0:Ri S,,"Neckarsteinach, Mitte",49.4085952,8.8386139,,,,0,
de:06431:3050:0:Ri S,,"Neckarsteinach, Schloßsteige",49.4080399,8.8358111,,,,0,
de:06431:3050:0:Ri W,,"Neckarsteinach, Schloßsteige",49.4082387,8.8351374,,,,0,
de:06431:3051:0:Ri N,,"Neckarsteinach, Sportplatz",49.4123651,8.826819,,,,0,
de:06431:3051:0:Ri S,,"Neckarsteinach, Sportplatz",49.4120027,8.8272951,,,,0,
de:06431:3052:0:1,,"Neckarsteinach, Vierburgeneck",49.4050063,8.8249146,,,,0,
de:06431:307:0:Ri O,,"Reisen, Brücke",49.5784945,8.720144,,,,0,
de:06431:307:0:Ri W,,"Reisen, Brücke",49.5785935,8.7201171,,,,0,
de:06431:308:0:1,,"Löhrbach, Ost",49.5447984,8.7755431,,,,0,
de:06431:30860:0:1,,"Birkenau, Am Wachenberg",49.5602771,8.699896,,,,0,
de:06431:3308:0:RiS,,"Heppenheim, Niedermühlstraße",49.6436936,8.6391789,,,,0,
de:06431:3349:0:Ri W,,"Zotzenbach, Am Weisskopp",49.6041747,8.7623559,,,,0,
de:06431:3350:0:Ri O,,"Zotzenbach, Bahnhofstraße",49.6048442,8.7606131,,,,0,
de:06431:3360:1:2,,"Rimbach, Bahnhof",49.6276246,8.7576307,,0,de:06431:3360_Parent,0,
de:06431:3360:2:2,,"Rimbach, Bahnhof",49.626711,8.7573523,,0,de:06431:3360_Parent,0,
de:06431:3360:2:Bus,,"Rimbach, Bahnhof",49.6266819,8.7573882,,0,de:06431:3360_Parent,0,
de:06431:3360:3:1,,"Rimbach, Bahnhof",49.6275955,8.7577026,,0,de:06431:3360_Parent,0,
de:06431:3360_Parent,,"Rimbach, Bahnhof",49.6274675,8.757478,,1,,,
de:06431:3361:0:RiN,,"Rimbach, Goethestraße",49.6169865,8.7570648,,,,0,
de:06431:3361:0:RiS,,"Rimbach, Goethestraße",49.6168992,8.7569301,,,,0,
de:06431:3362:0:Ri N,,"Rimbach, Kirche",49.6216366,8.7587806,,,,0,
de:06431:3362:0:Ri S,,"Rimbach, Kirche",49.6212874,8.7587626,,,,0,
de:06431:3366:1:Bus,,"Zotzenbach, Bahnhof",49.609216,8.7537949,,0,de:06431:3366_Parent,0,
de:06431:3366:1:DB,,"Zotzenbach, Bahnhof",49.6096526,8.7533009,,0,de:06431:3366_Parent,0,
de:06431:3366:2:2,,"Zotzenbach, Bahnhof",49.6092568,8.7539297,,0,de:06431:3366_Parent,0,
de:06431:3366_Parent,,"Zotzenbach, Bahnhof",49.6095944,8.7533098,,1,,,
de:06431:3835:0:RiO,,"Viernheim, Walter-Gropius-Allee (Tram)",49.5393249,8.5962125,,,,0,
de:06431:3835:0:RiW,,"Viernheim, Walter-Gropius-Allee (Tram)",49.53915,8.5954219,,,,0,
de:06431:3841:1:TrRiO,,"Viernheim, Kapellenberg",49.5298396,8.5759824,,,,0,
de:06431:3841:1:TrRiW,,"Viernheim, Kapellenberg",49.5297754,8.5752278,,,,0,
de:06431:3851:1:TrRiW,,"Viernheim, Bahnhof Bstg 2",49.5353899,8.5825221,,,,0,2
de:06431:3851:2:TrRiO,,"Viernheim, Bahnhof Bstg 3",49.5353958,8.5826299,,,,0,3
de:06431:3853:0:TrRiO,,"Viernheim, Ost",49.5375003,8.5897985,,,,0,
de:06431:3853:0:TrRiW,,"Viernheim, Ost",49.5374303,8.5893943,,,,0,
de:06431:3865:1:TrRiO,,"Viernheim, Tivoli (RNZ)",49.528277,8.5656787,,,,0,
de:06431:3865:1:TrRiW,,"Viernheim, Tivoli (RNZ)",49.528102,8.5648702,,,,0,
de:06431:38890,,"Rimbach, Schulzentrum Bf",49.6222826,8.7536422,,,,0,
de:06431:3938:0:Ri N,,"U-Schönmattenwag, Abzw Korsika",49.5173898,8.85932,,,,0,
de:06431:3938:0:Ri S,,"U-Schönmattenwag, Abzw Korsika",49.5171565,8.8589607,,,,0,
de:06431:3939:0:Ri N,,"Wald-Michelbach, Industriepark",49.5664358,8.843878,,,,0,
de:06431:3939:0:Ri S,,"Wald-Michelbach, Industriepark",49.5671815,8.8429527,,,,0,
de:06431:3951:0:Ri N,,"Ober-Schönmattenwag, Mitte",49.5367249,8.8633535,,,,0,
de:06431:3951:0:Ri S,,"Ober-Schönmattenwag, Mitte",49.5367308,8.8632008,,,,0,
de:06431:3952:0:Ri N,,"Ober-Schönmattenwag, Raubacher Weg",49.5400303,8.8630301,,,,0,
de:06431:3952:0:Ri S,,"Ober-Schönmattenwag, Raubacher Weg",49.5399253,8.8632097,,,,0,
de:06431:3957:0:RiN,,"Affolterbach, Abzw. Beerfelden",49.5960354,8.8552417,,,,0,
de:06431:3957:0:RiS,,"Affolterbach, Abzw. Beerfelden",49.5968971,8.8546488,,,,0,
de:06431:3958:0:1,,"Affolterbach, Dorfgemeinschaft",49.5982712,8.8533732,,,,0,
de:06431:3959:0:Ri N,,"Affolterbach, Mitte",49.5992494,8.8551878,,,,0,
de:06431:3959:0:Ri S,,"Affolterbach, Mitte",49.5992959,8.855062,,,,0,
de:06431:3960:0:1,,"Affolterbach, Steingrund",49.599261,8.8633085,,,,0,
de:06431:3961:0:Ri N,,"Aschbach, Adolf-Koch-Straße",49.5747956,8.8444439,,,,0,
de:06431:3961:0:Ri S,,"Aschbach, Adolf-Koch-Straße",49.5750927,8.8444709,,,,0,
de:06431:3962:0:1,,"Aschbach, Im Wiesental",49.5788148,8.8475251,,,,0,
de:06431:3963:0:1,,"Aschbach, Geopark-Infozentrum",49.5753606,8.8539212,,,,0,
de:06431:3964:0:1,,"Aschbach, Sportplatz",49.5759898,8.8491511,,,,0,
de:06431:3965:0:Ri N,,"U-Schönmattenwag, Flockenbusch",49.5060335,8.8523401,,,,0,
