stop_id,stop_code,stop_name,stop_desc,stop_lat,stop_lon,zone_id,stop_url,location_type,parent_station,stop_timezone,wheelchair_boarding
STA-STP-0001,0001,11 NOVEMBRE,,43.6629932,6.9264904,,,1,,,
STA-STP-0002,0002,LES 2 CYPRES,,43.6388071,6.8710398,,,1,,,
STA-STP-0003,0003,LES 2 CYPRES,,43.6389255,6.8712374,,,1,,,
STA-STP-0004,0004,LES 3 PONTS,,43.6600994,6.8810015,,,1,,,
STA-STP-0005,0005,LES 3 PONTS,,43.6602064,6.8806437,,,1,,,
STA-STP-0006,0006,LES 4 CHEMINS,,43.6454195,6.9396857,,,1,,,
STA-STP-0007,0007,LES 4 CHEMINS,,43.6449814,6.9410164,,,1,,,
STA-STP-0008,0008,LES ABATTOIRS,,43.6477047,6.9361897,,,1,,,
STA-STP-0009,0009,LES ABATTOIRS,,43.6479709,6.9363603,,,1,,,
STA-STP-0010,0010,ADRIEN REY,,43.6081647,6.914665,,,1,,,
STA-STP-0011,0011,ADRIEN REY,,43.6080092,6.9144637,,,1,,,
STA-STP-0012,0012,AIRE DE TIRAGON,,43.6154013,6.9577066,,,1,,,
STA-STP-0013,0013,AIRE DE TIRAGON,,43.6154344,6.9580403,,,1,,,
STA-STP-0014,0014,AIRE DE VIDAL,,43.6289534,6.8703777,,,1,,,
STA-STP-0015,0015,AIRE DE VIDAL,,43.6286867,6.8704657,,,1,,,
STA-STP-0016,0016,ALICE DE ROTSCHILD,,43.6641407,6.9308306,,,1,,,
STA-STP-0017,0017,ALICE DE ROTSCHILD,,43.663943,6.929843,,,1,,,
STA-STP-0018,0018,PARKING MAIRIE DE LA TIGNET,,43.63068522,6.84392954,,,1,,,
STA-STP-0019,0019,ALTIRAMA,,43.649286,6.9198334,,,1,,,
STA-STP-0020,0020,ALTIRAMA,,43.6492053,6.919418,,,1,,,
STA-STP-0022,0022,LES AMANDIERS,,43.6358741,6.8391233,,,1,,,
STA-STP-0023,0023,GRANGE NEUVE,,43.6738492,6.7974002,,,1,,,
STA-STP-0024,0024,GRANGE NEUVE,,43.6742041,6.797475,,,1,,,
STA-STP-0026,0026,LES ARNAUDS,,43.5962524,6.92606,,,1,,,
STA-STP-0027,0027,LES ARNAUDS,,43.5984808,6.9244004,,,1,,,
STA-STP-0028,0028,LES ASPRES,,43.6426353,6.9420781,,,1,,,
STA-STP-0029,0029,LES ASPRES,,43.6420253,6.9424784,,,1,,,
STA-STP-0030,0030,AURIBEAU VILLAGE,,43.60141712,6.90966159,,,1,,,
STA-STP-0031,0031,AVENUE AMIRAL DE GRASSE,,43.6440679,6.8871606,,,1,,,
STA-STP-0033,0033,AVENUE DE CANNES,,43.6161677,6.9728471,,,1,,,
STA-STP-0034,0034,AVENUE DE CANNES,,43.6156856,6.9722705,,,1,,,
STA-STP-0035,0035,AVENUE DE PROVENCE,,43.6931002,6.8541354,,,1,,,
STA-STP-0036,0036,AVENUE DE PROVENCE,,43.6930893,6.8544407,,,1,,,
STA-STP-0038,0038,AVENUE DES TERMES 1,,43.6388,6.8847035,,,1,,,
STA-STP-0039,0039,ORSAC MONTFLEURY,,43.6526459,6.9168203,,,1,,,
STA-STP-0040,0040,AVENUE DES TERMES 2,,43.6417999,6.8884081,,,1,,,
STA-STP-0041,0041,LE JAS NEUF,,43.643472,6.8851873,,,1,,,
STA-STP-0042,0042,AVENUE DES TERMES 3,,43.6428503,6.8905702,,,1,,,
STA-STP-0043,0043,CHEMIN DU FLAQUIER,,43.63241845,6.86152512,,,1,,,
STA-STP-0048,0048,AXE 85,,43.64368352,6.94680146,,,1,,,
STA-STP-0049,0049,AXE 85,,43.64359539,6.94688023,,,1,,,
STA-STP-0050,0050,COLLEGE LA CHENAIE,,43.6168297,6.9716228,,,1,,,
STA-STP-0051,0051,BARTHOU 2,,43.6635849,6.9215633,,,1,,,
STA-STP-0052,0052,BAS COULOUBRIER,,43.612503,6.915923,,,1,,,
STA-STP-0053,0053,BAS COULOUBRIER,,43.61237,6.9158591,,,1,,,
STA-STP-0054,0054,STADE PERDIGON,,43.6362297,6.9330788,,,1,,,
STA-STP-0055,0055,STADE PERDIGON,,43.6364448,6.9334595,,,1,,,
STA-STP-0056,0056,LES BASSES MOULIERES,,43.6315297,6.9220642,,,1,,,
STA-STP-0057,0057,LES BASSES MOULIERES,,43.6315693,6.9220354,,,1,,,
STA-STP-0060,0060,LES BASTIDES,,43.6816901,6.9553045,,,1,,,
STA-STP-0061,0061,LES BASTIDES,,43.6815339,6.9566614,,,1,,,
STA-STP-0064,0064,LES BASTIDES DE MOUANS,,43.6239386,6.9661825,,,1,,,
STA-STP-0065,0065,LES BASTIDES DE MOUANS,,43.6239509,6.9660094,,,1,,,
STA-STP-0066,0066,LES BASTIDES DU GOLF,,43.6276441,6.9597048,,,1,,,
STA-STP-0067,0067,LES BASTIDES DU GOLF,,43.6274096,6.9603173,,,1,,,
STA-STP-0068,0068,LES BASTIDES SAINT-MICHEL,,43.6389627,6.9272364,,,1,,,
STA-STP-0069,0069,LES BASTIDES SAINT-MICHEL,,43.6389627,6.9271052,,,1,,,
STA-STP-0070,0070,LES BASTIONS,,43.620142,6.9628667,,,1,,,
STA-STP-0071,0071,LES BASTIONS TERMINUS,,43.6203303,6.9654693,,,1,,,
STA-STP-0072,0072,BEAUPLAN,,43.6462335,6.9629816,,,1,,,
STA-STP-0073,0073,BEAUPLAN,,43.6462775,6.9630425,,,1,,,
STA-STP-0074,0074,BEL AIR,,43.6510886,6.9164104,,,1,,,
STA-STP-0075,0075,BEL AIR,,43.6512349,6.9167646,,,1,,,
STA-STP-0076,0076,ROND-POINT SAINTE MARGUERITE,,43.64432306,6.9537417,,,1,,,
STA-STP-0077,0077,ROND-POINT SAINTE MARGUERITE,,43.64434153,6.95416947,,,1,,,
STA-STP-0078,0078,BELLAUD,,43.6568563,6.9231219,,,1,,,
STA-STP-0079,0079,BELLAUD,,43.6570614,6.923645,,,1,,,
STA-STP-0080,0080,CARREFOUR PEYROULES,,43.8100311,6.6716462,,,1,,,
STA-STP-0081,0081,CARREFOUR PEYROULES,,43.8105568,6.6722981,,,1,,,
STA-STP-0084,0084,LES BERENGUIERS,,43.6316131,6.8721685,,,1,,,
STA-STP-0085,0085,LES BERENGUIERS,,43.6311239,6.8718904,,,1,,,
STA-STP-0086,0086,LES BERNARDS,,43.6482984,6.8214756,,,1,,,
STA-STP-0087,0087,LES BERNARDS,,43.6483985,6.8215579,,,1,,,
STA-STP-0088,0088,LES BERTRAND,,43.6053984,6.91701,,,1,,,
STA-STP-0089,0089,LES BERTRAND,,43.6056197,6.9167674,,,1,,,
STA-STP-0095,0095,LA BLEJARDE,,43.6440241,6.8835841,,,1,,,
STA-STP-0096,0096,LA BLEJARDE,,43.6443959,6.8840437,,,1,,,
STA-STP-0097,0097,BLUMENTHAL,,43.661227,6.9477224,,,1,,,
STA-STP-0098,0098,BLUMENTHAL,,43.6615912,6.9478238,,,1,,,
STA-STP-0099,0099,LES BOIS BAUMETTES,,43.6209901,6.9571303,,,1,,,
STA-STP-0100,0100,BOIS DE BOULOGNE,,43.6334668,6.9315516,,,1,,,
STA-STP-0101,0101,BOIS DE BOULOGNE,,43.6339383,6.9322158,,,1,,,
STA-STP-0102,0102,LES BOIS DE GRASSE,,43.6268583,6.9373847,,,1,,,
STA-STP-0103,0103,LES BOIS DE GRASSE,,43.6266448,6.93764768,,,1,,,
STA-STP-0104,0104,BOIS DE LA MOURACHONNE,,43.6204262,6.9342022,,,1,,,
STA-STP-0105,0105,BOIS DE LA MOURACHONNE,,43.6203015,6.9338353,,,1,,,
STA-STP-0106,0106,BOIS DE SAINT VALLIER,,43.6906462,6.8656196,,,1,,,
STA-STP-0107,0107,BOIS DE SAINT VALLIER,,43.6901779,6.8676196,,,1,,,
STA-STP-0108,0108,BOIS FLEURI,,43.6347433,6.9516264,,,1,,,
STA-STP-0109,0109,BOIS FLEURI,,43.6350784,6.9517913,,,1,,,
STA-STP-0110,0110,LES BOIS MURES,,43.6342398,6.93933,,,1,,,
STA-STP-0111,0111,LES BOIS MURES,,43.6354295,6.9402282,,,1,,,
STA-STP-0112,0112,LE BON MARCHE,,43.661248,6.9287685,,,1,,,
STA-STP-0115,0115,CHEMIN DU COLLET DE L'AVERE,,43.60133835,6.92445862,,,1,,,
STA-STP-0116,0116,CHEMIN DES TAPETS,,43.60138497,6.92825127,,,1,,,
STA-STP-0117,0117,LE BOUTEOU,,43.58822183,6.92670655,,,1,,,
STA-STP-0118,0118,LE BOUTEOU,,43.58781171,6.92633925,,,1,,,
STA-STP-0119,0119,AIME LEGALL,,43.62209468,6.97330919,,,1,,,
STA-STP-0121,0121,DOMAINE DES ROUMIGUIERES,,43.62991793,6.92984487,,,1,,,
STA-STP-0122,0122,DOMAINE DES ROUMIGUIERES,,43.63001597,6.93008895,,,1,,,
STA-STP-0123,0123,LA BRISE,,43.6616761,6.9211351,,,1,,,
STA-STP-0124,0124,LA SIAGNE D'AURIBEAU,,43.61111565,6.89469337,,,1,,,
STA-STP-0127,0127,LES BRUNETTES,,43.609689,6.9657911,,,1,,,
STA-STP-0128,0128,LES BRUNETTES,,43.6101283,6.9661012,,,1,,,
STA-STP-0129,0129,LE CABANON,,43.6263767,6.8347365,,,1,,,
STA-STP-0130,0130,LE CABANON,,43.6263472,6.8344367,,,1,,,
STA-STP-0133,0133,LE CABRIS,,43.6575189,6.9130601,,,1,,,
STA-STP-0134,0134,LE CABRIS,,43.6576504,6.9130472,,,1,,,
STA-STP-0135,0135,CABRIS CENTRE,,43.6565832,6.8744829,,,1,,,
STA-STP-0136,0136,CABRIS CENTRE,,43.656623,6.8750866,,,1,,,
STA-STP-0140,0140,LA CADENIERE,,43.6443319,6.85158,,,1,,,
STA-STP-0141,0141,LA CADENIERE,,43.6446492,6.8517795,,,1,,,
STA-STP-0142,0142,LA CAILLENQUE,,43.5874272,6.9570868,,,1,,,
STA-STP-0143,0143,LA CAILLENQUE,,43.5878722,6.9568756,,,1,,,
STA-STP-0144,0144,LA CALADE,,43.6511769,6.910033,,,1,,,
STA-STP-0145,0145,LA CALADE,,43.6511628,6.9101463,,,1,,,
STA-STP-0146,0146,LE CALME,,43.6560153,6.8723724,,,1,,,
STA-STP-0147,0147,LE CALME,,43.6561019,6.8725086,,,1,,,
STA-STP-0148,0148,LE CALVAIRE,,43.6386092,6.9335965,,,1,,,
STA-STP-0149,0149,LE CALVAIRE,,43.6393047,6.9337451,,,1,,,
STA-STP-0150,0150,LES CAMPANETTES,,43.63856386,6.90730966,,,1,,,
STA-STP-0151,0151,LES CAMPANETTES,,43.63849861,6.90727661,,,1,,,
STA-STP-0152,0152,LE CAMPING,,43.6672125,6.9339214,,,1,,,
STA-STP-0153,0153,LE CAMPING,,43.66692704,6.93371995,,,1,,,
STA-STP-0154,0154,ROURE DE LA GACHE,,43.6498719,6.9600942,,,1,,,
STA-STP-0155,0155,ROURE DE LA GACHE,,43.6499899,6.960226,,,1,,,
STA-STP-0156,0156,LE CANAL,,43.6537625,6.9349327,,,1,,,
STA-STP-0157,0157,LE CANAL,,43.6539195,6.9348423,,,1,,,
STA-STP-0158,0158,LE CANAL,,43.6465956,6.9266498,,,1,,,
STA-STP-0159,0159,LE CANAL,,43.6470485,6.9262112,,,1,,,
STA-STP-0160,0160,LE CANDEOU,,43.6258568,6.8769644,,,1,,,
STA-STP-0161,0161,CHEMIN DE PROVENCE,,43.6333599,6.85987842,,,1,,,
STA-STP-0162,0162,LES CANNEBIERS,,43.5948395,6.9565829,,,1,,,
STA-STP-0163,0163,LES CANNEBIERS,,43.5952188,6.9562555,,,1,,,
STA-STP-0164,0164,CANTEPERDRIX,,43.6413597,6.9079134,,,1,,,
STA-STP-0165,0165,LA CANTINE,,43.63753991,6.86491651,,,1,,,
STA-STP-0166,0166,LA CANTINE,,43.63761068,6.8647961,,,1,,,
STA-STP-0167,0167,CAPUCINS BAS,,43.6537105,6.92755212,,,1,,,
STA-STP-0168,0168,CAPUCINS BAS,,43.6537731,6.92735119,,,1,,,
STA-STP-0169,0169,CAPUCINS HAUTS,,43.653059,6.9291015,,,1,,,
STA-STP-0170,0170,CAPUCINS HAUTS,,43.6530943,6.9293746,,,1,,,
STA-STP-0171,0171,LA CARDELLE,,43.6389281,6.8686023,,,1,,,
STA-STP-0172,0172,LA CARDELLE,,43.639023,6.868396,,,1,,,
STA-STP-0173,0173,CHEMIN DE LA PETITE FONTAINE,,43.64416755,6.87701165,,,1,,,
STA-STP-0174,0174,CARIGNAN,,43.6441737,6.9770864,,,1,,,
STA-STP-0175,0175,CARNOT,,43.6556932,6.9219778,,,1,,,
STA-STP-0180,0180,LA CASCADE,,43.6657829,6.902672,,,1,,,
STA-STP-0181,0181,LA CASCADE,,43.665204,6.9033757,,,1,,,
STA-STP-0184,0184,CASERNE DES POMPIERS,,43.6438034,6.8790109,,,1,,,
STA-STP-0185,0185,ROND-POINT DE CASTELLARAS,,43.63384221,6.98375919,,,1,,,
STA-STP-0186,0186,LES CASERNES,,43.6508019,6.9220499,,,1,,,
STA-STP-0187,0187,LES CASERNES,,43.6510413,6.9221564,,,1,,,
STA-STP-0190,0190,V.V.F LES CEDRES,,43.6620214,6.9337416,,,1,,,
STA-STP-0191,0191,V.V.F LES CEDRES,,43.6619308,6.9337243,,,1,,,
STA-STP-0192,0192,CENTRE COMMERCIAL,,43.6453369,6.8863211,,,1,,,
STA-STP-0193,0193,CENTRE COMMERCIAL,,43.6453146,6.8860827,,,1,,,
STA-STP-0194,0194,CERCLE SAINT-JEAN,,43.6658417,6.9440318,,,1,,,
STA-STP-0195,0195,CERCLE SAINT-JEAN,,43.6657596,6.9440291,,,1,,,
STA-STP-0198,0198,LA CERISAIE,,43.647504,6.9186561,,,1,,,
STA-STP-0199,0199,LA CERISAIE,,43.6473973,6.9185063,,,1,,,
STA-STP-0202,0202,CHAPELLE DE CABRIS,,43.6567543,6.8769124,,,1,,,
STA-STP-0203,0203,CHAPELLE DE CABRIS,,43.6568528,6.8768755,,,1,,,
STA-STP-0204,0204,LA CHAPELLE DU TIGNET,,43.6421318,6.8492152,,,1,,,
STA-STP-0205,0205,LA CHAPELLE DU TIGNET,,43.6420307,6.8479983,,,1,,,
STA-STP-0206,0206,CHAPELLE DES CHIENS,,43.66014723,6.91855431,,,1,,,
STA-STP-0207,0207,CHAPELLE DES CHIENS,,43.6602132,6.91839606,,,1,,,
STA-STP-0208,0208,ROND-POINT DES FAUVETTES,,43.62463859,6.99847186,,,1,,,
STA-STP-0209,0209,CHAPELLE SAINT-MATHIEU,,43.6601305,6.954938,,,1,,,
STA-STP-0211,0211,CHAPELLE SAINT PONS,,43.6945362,6.848312,,,1,,,
STA-STP-0212,0212,CHAPELLE SAINT PONS,,43.6947211,6.8483079,,,1,,,
STA-STP-0213,0213,CHARABOT,,43.6600585,6.9217094,,,1,,,
STA-STP-0214,0214,CHASSEURS ALPINS,,43.6507498,6.9219214,,,1,,,
STA-STP-0215,0215,CHASSEURS ALPINS,,43.6504081,6.920944,,,1,,,
STA-STP-0216,0216,LE CHATEAU,,43.598367,6.9316379,,,1,,,
STA-STP-0217,0217,LE CHATEAU,,43.5983293,6.931796,,,1,,,
STA-STP-0218,0218,LE CHATEAU,,43.65591976,6.90354158,,,1,,,
STA-STP-0219,0219,LE CHATEAU,,43.65584336,6.90378133,,,1,,,
STA-STP-0220,0220,LE CHATEAU D'EAU,,43.6088881,6.9350447,,,1,,,
STA-STP-0221,0221,LE CHATEAU D'EAU,,43.6086426,6.935058,,,1,,,
STA-STP-0222,0222,LE CHAUDRON,,43.6297303,6.9588458,,,1,,,
STA-STP-0223,0223,LE CHAUDRON,,43.6304851,6.9587841,,,1,,,
STA-STP-0224,0224,LES CHAUVES,,43.6788109,6.9530305,,,1,,,
STA-STP-0225,0225,LES CHAUVES,,43.6788532,6.9529665,,,1,,,
STA-STP-0226,0226,LES CHAUVES,,43.6804731,6.9525972,,,1,,,
STA-STP-0227,0227,LES CHAUVES,,43.6803281,6.9522049,,,1,,,
STA-STP-0229,0229,CHEMIN DU NOYER,,43.6447664,6.8660575,,,1,,,
STA-STP-0231,0231,CHEMIN DE BRASSAURIS,,43.6441225,6.9637052,,,1,,,
STA-STP-0232,0232,CHEMIN DE BRASSAURIS,,43.6440057,6.9644892,,,1,,,
STA-STP-0233,0233,CHEMIN DE CABRIS,,43.6522857,6.8134202,,,1,,,
STA-STP-0234,0234,CHEMIN DE CASTELLARAS,,43.6369016,6.9781596,,,1,,,
STA-STP-0235,0235,CHEMIN DE L EMBUT,,43.6025596,6.9524104,,,1,,,
STA-STP-0236,0236,CHEMIN DE L EMBUT,,43.6024976,6.9524436,,,1,,,
STA-STP-0237,0237,CHEMIN DE L ENTOURE,,43.6565613,6.8708109,,,1,,,
STA-STP-0238,0238,CHEMIN DE L ENTOURE,,43.6566706,6.8704834,,,1,,,
STA-STP-0241,0241,HAMEAU DE SAINT JEAN,,43.5800209,6.9479287,,,1,,,
STA-STP-0242,0242,LA DEGOUTE,,43.6157707,6.9336816,,,1,,,
STA-STP-0243,0243,CHEMIN DE LA MADELEINE,,43.6598521,6.9296415,,,1,,,
STA-STP-0244,0244,CHEMIN DE LA MADELEINE,,43.6597356,6.9296745,,,1,,,
STA-STP-0247,0247,CHEMIN DE LA PLATRIERE,,43.6643093,6.9601882,,,1,,,
STA-STP-0248,0248,CHEMIN DE LA PLATRIERE,,43.6643529,6.960144,,,1,,,
STA-STP-0253,0253,LA COUASTE,,43.79203559,6.65589938,,,1,,,
STA-STP-0254,0254,LA COUASTE,,43.79200099,6.65586085,,,1,,,
STA-STP-0257,0257,CHEMIN DE NOTRE DAME,,43.6151551,6.9188296,,,1,,,
STA-STP-0258,0258,CHEMIN DE NOTRE DAME,,43.6152616,6.9186227,,,1,,,
STA-STP-0259,0259,CHEMIN DE POURCEL,,43.5745549,6.9598367,,,1,,,
STA-STP-0260,0260,CHEMIN DE POURCEL,,43.5749388,6.9603078,,,1,,,
STA-STP-0263,0263,CHEMIN DE THEAS,,43.6572911,6.8065171,,,1,,,
STA-STP-0264,0264,ANTOINE CRESP,,43.650462,6.795988,,,1,,,
STA-STP-0269,0269,BASSES RIBES,,43.645267,6.9092543,,,1,,,
STA-STP-0270,0270,BASSES RIBES,,43.6451788,6.9090349,,,1,,,
STA-STP-0271,0271,CHEMIN DES BASSES MOULIERES,,43.625513,6.92751,,,1,,,
STA-STP-0272,0272,CHEMIN DES BASSES MOULIERES,,43.6255633,6.9274111,,,1,,,
STA-STP-0273,0273,CHEMIN DES BASTIONS,,43.6205412,6.9604502,,,1,,,
STA-STP-0274,0274,LOGIS DU PIN,,43.7794569,6.642123,,,1,,,
STA-STP-0277,0277,CHEMIN DES CASTORS,,43.6407613,6.9331319,,,1,,,
STA-STP-0278,0278,CHEMIN DES CASTORS,,43.6404006,6.9332696,,,1,,,
STA-STP-0279,0279,CHEMIN DES CIGALES,,43.6215566,6.9535513,,,1,,,
STA-STP-0280,0280,CHEMIN DES CIGALES,,43.6216179,6.9534111,,,1,,,
STA-STP-0281,0281,CHEMIN DES JAÏSOUS,,43.6407774,6.8622168,,,1,,,
STA-STP-0283,0283,CHEMIN DES LUCIOLES,,43.613758,6.9625455,,,1,,,
STA-STP-0285,0285,CHEMIN DES LYS,,43.6204345,6.9637039,,,1,,,
STA-STP-0286,0286,VALDEROURE FAUCHIER,,43.7944785,6.6994374,,,1,,,
STA-STP-0287,0287,CHEMIN DES MAURES ET DES ADRETS,,43.63902937,6.89354615,,,1,,,
STA-STP-0288,0288,CHEMIN DES MOULINS,,43.6343762,6.8378785,,,1,,,
STA-STP-0289,0289,VALDEROURE FAUCHIER,,43.7943926,6.6994513,,,1,,,
STA-STP-0290,0290,CHEMIN DE LA PLAINE,,43.6348093,6.8663914,,,1,,,
STA-STP-0293,0293,CHEMIN DU COLLET DE L'AVERE,,43.6011973,6.9244646,,,1,,,
STA-STP-0296,0296,CHEMIN DU GROS CHENE,,43.6425045,6.8531434,,,1,,,
STA-STP-0297,0297,CHEMIN DU GROS CHENE,,43.6431766,6.8538994,,,1,,,
STA-STP-0300,0300,CHEMIN DU PETIT PUITS,,43.6575129,6.8027687,,,1,,,
STA-STP-0301,0301,CHEMIN DU PLAN,,43.6540786,6.8110478,,,1,,,
STA-STP-0304,0304,LA CHENAIE,,43.6301661,6.9173424,,,1,,,
STA-STP-0305,0305,LA CHENAIE,,43.6302695,6.9177121,,,1,,,
STA-STP-0306,0306,LES CHEVREFEUILLES,,43.6294898,6.9253817,,,1,,,
STA-STP-0307,0307,LES CHEVREFEUILLES,,43.629317,6.9252447,,,1,,,
STA-STP-0308,0308,CHEZ ROBERT,,43.6398746,6.9753835,,,1,,,
STA-STP-0309,0309,LES CIGALES,,43.6299573,6.9090046,,,1,,,
STA-STP-0310,0310,LES CIGALES,,43.6300097,6.909083,,,1,,,
STA-STP-0311,0311,CIMETIERE CLAVARY,,43.6135059,6.9306407,,,1,,,
STA-STP-0313,0313,CHEMIN DE LA PLAINE,,43.6348084,6.8664542,,,1,,,
STA-STP-0314,0314,CIMETIERE DE PLASCASSIER,,43.6410504,6.9857219,,,1,,,
STA-STP-0315,0315,CIMETIERE DE PLASCASSIER,,43.641145,6.985894,,,1,,,
STA-STP-0316,0316,ROND POINT DE L'ALAMBIC,,43.64111919,6.93538517,,,1,,,
STA-STP-0319,0319,CIMETIERE PAYSAGER,,43.600329,6.9448029,,,1,,,
STA-STP-0320,0320,CIMETIERE SAINTE BRIGITTE 1,,43.6463957,6.9138742,,,1,,,
STA-STP-0321,0321,CIMETIERE SAINTE BRIGITTE 1,,43.6466133,6.9138342,,,1,,,
STA-STP-0322,0322,CIMETIERE SAINTE BRIGITTE 2,,43.6451411,6.9142549,,,1,,,
STA-STP-0323,0323,CIMETIERE SAINTE BRIGITTE 2,,43.6452533,6.9144256,,,1,,,
STA-STP-0324,0324,LES CITRONNIERS,,43.6562199,6.9132334,,,1,,,
STA-STP-0325,0325,LES CITRONNIERS,,43.6562523,6.9132618,,,1,,,
STA-STP-0330,0330,LA COLLE,,43.6502425,6.8107237,,,1,,,
STA-STP-0331,0331,LA COLLE,,43.6502226,6.8096367,,,1,,,
STA-STP-0332,0332,LA COLLE DES JUGES,,43.5908651,6.9572665,,,1,,,
STA-STP-0333,0333,LA COLLE DES JUGES,,43.591269,6.9570912,,,1,,,
STA-STP-0334,0334,COLLEGE CANTEPERDRIX,,43.638231,6.910836,,,1,,,
STA-STP-0335,0335,COLLEGE CANTEPERDRIX,,43.63820081,6.91021847,,,1,,,
STA-STP-0336,0336,COLLEGE DES JASMINS,,43.6430597,6.9487767,,,1,,,
STA-STP-0337,0337,COLLEGE DES JASMINS,,43.643107,6.9498356,,,1,,,
STA-STP-0338,0338,COLLEGE PAUL ARENE,,43.6374589,6.871487,,,1,,,
STA-STP-0339,0339,COLLEGE SIMON WIESENTHAL,,43.6968519,6.8536157,,,1,,,
STA-STP-0340,0340,LE COLLET,,43.6486224,6.9255771,,,1,,,
STA-STP-0341,0341,LE COLLET,,43.6485799,6.9261601,,,1,,,
STA-STP-0342,0342,COLLET D'ASSOU,,43.691193,6.8423577,,,1,,,
STA-STP-0343,0343,COLLET D'ASSOU,,43.6911906,6.8424748,,,1,,,
STA-STP-0344,0344,ECOLE DU COLLET DE GASQ,,43.68909338,6.85758815,,,1,,,
STA-STP-0349,0349,LA CONDAMINE,,43.6546662,6.7918596,,,1,,,
STA-STP-0351,0351,LES CONDAMINES,,43.6102167,6.9161763,,,1,,,
STA-STP-0352,0352,LES CONDAMINES,,43.6102224,6.9160194,,,1,,,
STA-STP-0353,0353,LE CONTENT,,43.6388855,6.8274136,,,1,,,
STA-STP-0355,0355,COPERNIC,,43.6645816,6.9190716,,,1,,,
STA-STP-0356,0356,CORNICHE BENARD 2 VALLONS,,43.62482546,6.97485766,,,1,,,
STA-STP-0357,0357,CORNICHE BENARD 2 VALLONS,,43.62473615,6.97490863,,,1,,,
STA-STP-0360,0360,COSTE D'OR INFERIEURE,,43.6652543,6.9329317,,,1,,,
STA-STP-0361,0361,COSTE D'OR INFERIEURE,,43.6651821,6.9326228,,,1,,,
STA-STP-0363,0363,LES COTEAUX,,43.645757,6.916169,,,1,,,
STA-STP-0364,0364,LES COTEAUX,,43.6458599,6.9159975,,,1,,,
STA-STP-0365,0365,LES COTEAUX DE MOUANS,,43.6232166,6.956883,,,1,,,
STA-STP-0366,0366,LES COTEAUX DE MOUANS,,43.6231685,6.9569992,,,1,,,
STA-STP-0367,0367,COULOUBRIER,,43.6168562,6.9186481,,,1,,,
STA-STP-0368,0368,COULOUBRIER,,43.6166241,6.918606,,,1,,,
STA-STP-0369,0369,COURS HONORE CRESP,,43.6568668,6.9202296,,,1,,,
STA-STP-0373,0373,LA CROIX,,43.6526162,6.9524367,,,1,,,
STA-STP-0374,0374,LA CROIX,,43.6529288,6.9527141,,,1,,,
STA-STP-0375,0375,LA CROIX DES MOULIERES,,43.6321277,6.9231615,,,1,,,
STA-STP-0376,0376,LA CROIX DES MOULIERES,,43.632326,6.9230159,,,1,,,
STA-STP-0378,0378,LE CROS,,43.5872796,6.9391052,,,1,,,
STA-STP-0379,0379,LE CROS,,43.5870827,6.9397344,,,1,,,
STA-STP-0380,0380,CROUET,,43.6566416,6.9238959,,,1,,,
STA-STP-0381,0381,CROUET,,43.6568697,6.9245082,,,1,,,
STA-STP-0382,0382,LES CYPRES,,43.6381173,6.9232448,,,1,,,
STA-STP-0383,0383,LES CYPRES,,43.6381589,6.9230165,,,1,,,
STA-STP-0384,0384,LA DEGOUTE,,43.6157015,6.9336513,,,1,,,
STA-STP-0387,0387,DOCTEUR BELLETRUD,,43.6378528,6.8560832,,,1,,,
STA-STP-0388,0388,DOCTEUR BELLETRUD,,43.6373688,6.8569383,,,1,,,
STA-STP-0389,0389,DOMAINE DE CANTEPERDRIX,,43.6356455,6.9076874,,,1,,,
STA-STP-0390,0390,DOMAINE DE CANTEPERDRIX,,43.6362534,6.9080208,,,1,,,
STA-STP-0393,0393,DOMAINE DE L'ISTRE,,43.6292853,6.8437583,,,1,,,
STA-STP-0394,0394,ECOLE AIME LEGALL,,43.6200495,6.9736926,,,1,,,
STA-STP-0395,0395,AIME LEGALL,,43.6220867,6.9735374,,,1,,,
STA-STP-0396,0396,ANTOINE CRESP,,43.650567,6.796026,,,1,,,
STA-STP-0397,0397,ECOLE DE L OREE DU BOIS,,43.6138544,6.9677549,,,1,,,
STA-STP-0400,0400,ECOLE ST FRANCOIS,,43.6502814,6.9001698,,,1,,,
STA-STP-0402,0402,ECOLE SAINT-MATHIEU,,43.6593735,6.9450108,,,1,,,
STA-STP-0404,0404,ECOLE DU BAYLE 1,,43.6050028,6.9128367,,,1,,,
STA-STP-0405,0405,ECOLE DU BAYLE 2,,43.6052946,6.9134594,,,1,,,
STA-STP-0406,0406,ECOLE FRANCOIS JACOB,,43.6157296,6.9496663,,,1,,,
STA-STP-0408,0408,ECOLE SAINT-ANTOINE,,43.6439817,6.9302533,,,1,,,
STA-STP-0409,0409,ECOLE SAINT-ANTOINE,,43.6441254,6.9302479,,,1,,,
STA-STP-0410,0410,ECOLE VIEILLE,,43.57745234,6.95956573,,,1,,,
STA-STP-0411,0411,ECOLE VIEILLE,,43.57729267,6.95975229,,,1,,,
STA-STP-0412,0412,MATHIAS DUVAL,,43.653294,6.9212699,,,1,,,
STA-STP-0413,0413,CARNOT,,43.6546221,6.92132041,,,1,,,
STA-STP-0414,0414,LES EMERAUDES,,43.6644709,6.9349928,,,1,,,
STA-STP-0415,0415,EMILE ZOLA,,43.6561718,6.9194172,,,1,,,
STA-STP-0416,0416,EMILE ZOLA,,43.6560018,6.9193829,,,1,,,
STA-STP-0417,0417,EMILIE CHIRIS,,43.6577057,6.9088144,,,1,,,
STA-STP-0418,0418,EMILIE CHIRIS,,43.657571,6.9087848,,,1,,,
STA-STP-0419,0419,EMMANUEL ROUQUIER,,43.6395746,6.941393,,,1,,,
STA-STP-0420,0420,EMMANUEL ROUQUIER,,43.6399657,6.9418033,,,1,,,
STA-STP-0421,0421,LES CYPRINES,,43.6911201,6.8636117,,,1,,,
STA-STP-0422,0422,LES CYPRINES,,43.6911741,6.8640194,,,1,,,
STA-STP-0424,0424,ESPACE CHIRIS,,43.6574889,6.9280872,,,1,,,
STA-STP-0425,0425,ESPACE CHIRIS,,43.6574453,6.9282055,,,1,,,
STA-STP-0426,0426,ESPACE PALISSY,,43.624917,6.9628963,,,1,,,
STA-STP-0427,0427,ESPACE PALISSY,,43.6250244,6.9624824,,,1,,,
STA-STP-0428,0428,EXPLOR,,43.6519821,6.9476701,,,1,,,
STA-STP-0429,0429,EXPLOR,,43.6528782,6.946543,,,1,,,
STA-STP-0430,0430,LE GROS RIBAS,,43.79607383,6.74163852,,,1,,,
STA-STP-0431,0431,LE GROS RIBAS,,43.79617929,6.74167702,,,1,,,
STA-STP-0432,0432,LA FENERIE,,43.58249797,6.92704079,,,1,,,
STA-STP-0433,0433,LA FENERIE,,43.582575,6.927068,,,1,,,
STA-STP-0436,0436,DOMAINE DE LA ROSE,,43.6677433,6.9475095,,,1,,,
STA-STP-0437,0437,DOMAINE DE LA ROSE,,43.6677546,6.9474282,,,1,,,
STA-STP-0438,0438,LES FERMES,,43.5942554,6.9304694,,,1,,,
STA-STP-0439,0439,LES FERMES,,43.5941838,6.9305695,,,1,,,
STA-STP-0440,0440,LES FLEURS,,43.65467031,6.91808139,,,1,,,
STA-STP-0441,0441,LES FLEURS,,43.65483491,6.91796686,,,1,,,
STA-STP-0442,0442,LES FLEURS DE GRASSE,,43.6423544,6.9465052,,,1,,,
STA-STP-0443,0443,LES FLEURS DE GRASSE,,43.64323,6.9459614,,,1,,,
STA-STP-0444,0444,LES FLORALIES,,43.6540877,6.9304813,,,1,,,
STA-STP-0445,0445,LES FLORALIES,,43.6542335,6.9309634,,,1,,,
STA-STP-0453,0453,FRAGONARD,,43.6573042,6.9218508,,,1,,,
STA-STP-0454,0454,LA FRAYERE,,43.6240011,6.9155472,,,1,,,
STA-STP-0455,0455,LA FRAYERE,,43.6237626,6.9155838,,,1,,,
STA-STP-0456,0456,LES FUSTIERS,,43.6348859,6.8819648,,,1,,,
STA-STP-0458,0458,LES GABRES,,43.60664209,6.90187819,,,1,,,
STA-STP-0459,0459,GALLOT,,43.6654657,6.8975376,,,1,,,
STA-STP-0460,0460,GALLOT,,43.6655148,6.8960086,,,1,,,
STA-STP-0461,0461,GAMBETTA,,43.6605001,6.9254327,,,1,,,
STA-STP-0462,0462,PLACE DE LA BUANDERIE,,43.66104305,6.92317004,,,1,,,
STA-STP-0463,0463,GRASSE SNCF,,43.6532192,6.9254575,,,1,,,
STA-STP-0465,0465,GASTON DE FONTMICHEL,,43.63577443,6.95666636,,,1,,,
STA-STP-0466,0466,GASTON DE FONTMICHEL,,43.63569702,6.95687546,,,1,,,
STA-STP-0467,0467,GASTOUNETTE,,43.6341027,6.8508698,,,1,,,
STA-STP-0468,0468,GASTOUNETTE,,43.6340981,6.8505962,,,1,,,
STA-STP-0469,0469,LES GENETS,,43.6481713,6.9243181,,,1,,,
STA-STP-0470,0470,LES GENETS,,43.648501,6.9239422,,,1,,,
STA-STP-0471,0471,LES GLYCINES,,43.6304825,6.9257474,,,1,,,
STA-STP-0472,0472,LES GLYCINES,,43.6304199,6.9256328,,,1,,,
STA-STP-0473,0473,LES GOURETTES,,43.615681,6.974296,,,1,,,
STA-STP-0474,0474,LES GOURETTES,,43.615623,6.974591,,,1,,,
STA-STP-0475,0475,LES GOURGUETTES,,43.5811901,6.9590505,,,1,,,
STA-STP-0476,0476,LES GOURGUETTES,,43.5807958,6.9591623,,,1,,,
STA-STP-0479,0479,GRAND HOTEL,,43.6633872,6.9297918,,,1,,,
STA-STP-0480,0480,GRAND HOTEL,,43.6634534,6.9294325,,,1,,,
STA-STP-0481,0481,LE GRAND JARDIN,,43.6190874,6.9757782,,,1,,,
STA-STP-0482,0482,LE GRAND JARDIN,,43.6192887,6.9758889,,,1,,,
STA-STP-0483,0483,LE GRAND JAS,,43.6004695,6.931404,,,1,,,
STA-STP-0484,0484,LE GRAND JAS,,43.6004721,6.9315157,,,1,,,
STA-STP-0485,0485,GRAOU DE THANON,,43.6707583,6.7973732,,,1,,,
STA-STP-0486,0486,GRAOU DE THANON,,43.6701467,6.7979126,,,1,,,
STA-STP-0489,0489,LES GROTTES,,43.6578579,6.8115498,,,1,,,
STA-STP-0490,0490,LES GUICHARDS,,43.6405037,6.8529511,,,1,,,
STA-STP-0491,0491,LES GUICHARDS,,43.6412293,6.854346,,,1,,,
STA-STP-0492,0492,GUY DE MAUPASSANT,,43.6524834,6.9147123,,,1,,,
STA-STP-0493,0493,GUY DE MAUPASSANT,,43.6525124,6.9145807,,,1,,,
STA-STP-0495,0495,LA HALTE,,43.64136674,6.91134602,,,1,,,
STA-STP-0496,0496,LA HALTE,,43.6418637,6.9111979,,,1,,,
STA-STP-0497,0497,HAMEAU DES CASTORS,,43.6415923,6.9325019,,,1,,,
STA-STP-0498,0498,HAMEAU DES CASTORS,,43.6416241,6.9326609,,,1,,,
STA-STP-0499,0499,HAUT COULOUBRIER,,43.6201514,6.9182786,,,1,,,
STA-STP-0500,0500,HAUT COULOUBRIER,,43.6197846,6.9182895,,,1,,,
STA-STP-0501,0501,LES HAUTES RIBES,,43.6652737,6.8945716,,,1,,,
STA-STP-0502,0502,LES HAUTES RIBES,,43.6652492,6.89372,,,1,,,
STA-STP-0503,0503,LES HAUTES RIBES 2,,43.6639003,6.8954153,,,1,,,
STA-STP-0504,0504,LES HAUTES RIBES 2,,43.6640523,6.895463,,,1,,,
STA-STP-0505,0505,LES HAUTS CHAMPS,,43.6485477,6.9612336,,,1,,,
STA-STP-0506,0506,LES HAUTS CHAMPS,,43.6488721,6.9610305,,,1,,,
STA-STP-0507,0507,LES HAUTS DE LA FRAYERE,,43.6370472,6.8829036,,,1,,,
STA-STP-0509,0509,LES HAUTS DE SAINT JACQUES,,43.6282798,6.9135543,,,1,,,
STA-STP-0510,0510,LES HAUTS DE SAINT JACQUES,,43.6285414,6.9132827,,,1,,,
STA-STP-0511,0511,LES 4 FERS,,43.6393173,6.8452888,,,1,,,
STA-STP-0512,0512,HENRI BENARD,,43.6661777,6.9265713,,,1,,,
STA-STP-0513,0513,HENRI DUNANT,,43.6500426,6.9221934,,,1,,,
STA-STP-0514,0514,HENRI DUNANT,,43.6501666,6.9221271,,,1,,,
STA-STP-0516,0516,HOPITAL,,43.61950183,6.93077342,,,1,,,
STA-STP-0520,0520,HOTEL PARADIS,,43.6619509,6.9290872,,,1,,,
STA-STP-0526,0526,J.CUMERO LE PLAN,,43.6415304,6.9589478,,,1,,,
STA-STP-0527,0527,JACINTHE,,43.6446566,6.9393238,,,1,,,
STA-STP-0528,0528,JACINTHE,,43.6446909,6.9396276,,,1,,,
STA-STP-0529,0529,LES JACOURETS,,43.6446047,6.8684577,,,1,,,
STA-STP-0531,0531,LES JAISOUS,,43.6448753,6.8633514,,,1,,,
STA-STP-0533,0533,LE JARDIN,,43.6416313,6.9119398,,,1,,,
STA-STP-0534,0534,THORENC,,43.8052395,6.8046577,,,1,,,
STA-STP-0535,0535,THORENC,,43.8049445,6.8047581,,,1,,,
STA-STP-0536,0536,JARDINS D'ARCADIE,,43.6589293,6.9141423,,,1,,,
STA-STP-0537,0537,LES JARDINS DE GRASSE,,43.6652526,6.9257877,,,1,,,
STA-STP-0538,0538,LES JARDINS DE PROVENCE,,43.6498874,6.8033328,,,1,,,
STA-STP-0539,0539,LES JARDINS DE PROVENCE,,43.6499337,6.8043515,,,1,,,
STA-STP-0540,0540,LE JAS NEUF,,43.6429032,6.8832957,,,1,,,
STA-STP-0546,0546,JEAN XXIII,,43.6619633,6.9366549,,,1,,,
STA-STP-0547,0547,JEAN XXIII,,43.661904,6.9367128,,,1,,,
STA-STP-0548,0548,JEANNE JUGAN,,43.6607229,6.9080969,,,1,,,
STA-STP-0549,0549,LES JONQUILLES,,43.6639028,6.9536604,,,1,,,
STA-STP-0550,0550,LES JONQUILLES,,43.6638537,6.9535984,,,1,,,
STA-STP-0555,0555,SAINTE LORETTE,,43.65384039,6.91887072,,,1,,,
STA-STP-0556,0556,LES JARDINS D'ARCADIE,,43.65889139,6.91402898,,,1,,,
STA-STP-0557,0557,PARC DU PRADO,,43.6596239,6.91255609,,,1,,,
STA-STP-0558,0558,L'AVEN,,43.6533142,6.9095743,,,1,,,
STA-STP-0559,0559,L'AVEN,,43.653434,6.9096235,,,1,,,
STA-STP-0560,0560,L'HERMITAGE,,43.6631874,6.9393546,,,1,,,
STA-STP-0561,0561,L'HERMITAGE,,43.6629186,6.9393114,,,1,,,
STA-STP-0566,0566,L'AMANDIER,,43.6325703,6.9258087,,,1,,,
STA-STP-0567,0567,L'AMANDIER,,43.6324321,6.9257186,,,1,,,
STA-STP-0568,0568,LAGARDOU,,43.6930699,6.845034,,,1,,,
STA-STP-0569,0569,LAGARDOU,,43.692885,6.8449507,,,1,,,
STA-STP-0570,0570,LA LAUVE,,43.6799181,6.9581366,,,1,,,
STA-STP-0571,0571,LA LAUVE,,43.6798946,6.9577823,,,1,,,
STA-STP-0572,0572,LES LAVANDIERES,,43.6415621,6.979752,,,1,,,
STA-STP-0573,0573,LA CASCADE 2,,43.6664926,6.9018155,,,1,,,
STA-STP-0574,0574,LES LAZES,,43.6424489,6.8611391,,,1,,,
STA-STP-0576,0576,LE BRUSQUET,,43.6426161,6.8283199,,,1,,,
STA-STP-0577,0577,LE BRUSQUET,,43.6428091,6.8282997,,,1,,,
STA-STP-0578,0578,LEOPOLD FUNEL,,43.6931205,6.8415158,,,1,,,
STA-STP-0579,0579,LEOPOLD FUNEL,,43.6933138,6.8414243,,,1,,,
STA-STP-0580,0580,LA LIANE,,43.6569989,6.917355,,,1,,,
STA-STP-0581,0581,LA LIANE,,43.6569669,6.9174603,,,1,,,
STA-STP-0582,0582,LA CHARMERAIE,,43.5922809,6.9308103,,,1,,,
STA-STP-0583,0583,LA CHARMERAIE,,43.5924653,6.9307541,,,1,,,
STA-STP-0590,0590,LYCEE TOCQUEVILLE,,43.6541525,6.941976,,,1,,,
STA-STP-0593,0593,MAGAGNOSC,,43.6813037,6.9673311,,,1,,,
STA-STP-0594,0594,MAGAGNOSC,,43.6814883,6.9668384,,,1,,,
STA-STP-0595,0595,MAIRIE ANNEXE MAGAGNOSC,,43.6817411,6.9623244,,,1,,,
STA-STP-0596,0596,MAIRIE ANNEXE MAGAGNOSC,,43.6817415,6.9616859,,,1,,,
STA-STP-0598,0598,MAIRIE DE LA ROQUETTE,,43.5805956,6.9561391,,,1,,,
STA-STP-0601,0601,MALBOSC,,43.6733029,6.9461732,,,1,,,
STA-STP-0602,0602,MALBOSC,,43.6733229,6.9460473,,,1,,,
STA-STP-0603,0603,MALBOSC,,43.6714409,6.9420657,,,1,,,
STA-STP-0604,0604,MALBOSC,,43.6718933,6.9423162,,,1,,,
STA-STP-0605,0605,DOMAINE DE MALBOSC,,43.669681,6.9487941,,,1,,,
STA-STP-0606,0606,DOMAINE DE MALBOSC,,43.6696406,6.9489688,,,1,,,
STA-STP-0607,0607,MARECHAL LECLERC,,43.65021093,6.9198938,,,1,,,
STA-STP-0608,0608,MARECHAL LECLERC,,43.6499045,6.9190363,,,1,,,
STA-STP-0609,0609,LA MARIGARDE,,43.6551103,6.9402461,,,1,,,
STA-STP-0610,0610,LA MARIGARDE,,43.6552475,6.9402832,,,1,,,
STA-STP-0611,0611,MARIQUITA,,43.681314,6.958709,,,1,,,
STA-STP-0612,0612,MARIQUITA,,43.6813879,6.9586608,,,1,,,
STA-STP-0613,0613,LES MARJOLAINES,,43.6654429,6.9252286,,,1,,,
STA-STP-0614,0614,LES MARRONNIERS,,43.6480982,6.91183754,,,1,,,
STA-STP-0615,0615,LES MARRONNIERS BAS,,43.6477073,6.914259,,,1,,,
STA-STP-0616,0616,LES MARRONNIERS BAS,,43.6477596,6.9133766,,,1,,,
STA-STP-0617,0617,MARTELLY,,43.6606645,6.9239683,,,1,,,
STA-STP-0618,0618,MAS DES 2 VALLONS,,43.6252208,6.9148428,,,1,,,
STA-STP-0619,0619,MAS DES 2 VALLONS,,43.6262937,6.9142726,,,1,,,
STA-STP-0620,0620,LE MAUPAS,,43.6312509,6.8391126,,,1,,,
STA-STP-0621,0621,LE MAUPAS,,43.6307093,6.8385529,,,1,,,
STA-STP-0622,0622,MICHEL CHEVALIER,,43.62405592,6.93737335,,,1,,,
STA-STP-0623,0623,MICHEL CHEVALIER,,43.62370883,6.93726613,,,1,,,
STA-STP-0624,0624,LES MICOCOULIERS,,43.6486637,6.9368016,,,1,,,
STA-STP-0625,0625,CHEMIN DES MIMOSAS,,43.6218035,6.8822517,,,1,,,
STA-STP-0626,0626,MIMOSAS,,43.6200703,6.9498659,,,1,,,
STA-STP-0627,0627,MIMOSAS,,43.6199793,6.9498121,,,1,,,
STA-STP-0628,0628,LES MIMOSAS,,43.600214,6.9486138,,,1,,,
STA-STP-0629,0629,VALLON DE SAINT PIERRE,,43.85728008,6.72087742,,,1,,,
STA-STP-0630,0630,VALLON DE SAINT PIERRE,,43.85735949,6.72086041,,,1,,,
STA-STP-0631,0631,MOLINARD,,43.65214716,6.92006073,,,1,,,
STA-STP-0632,0632,LA MORE,,43.6504494,6.9488942,,,1,,,
STA-STP-0633,0633,LA MORE,,43.6498397,6.9498716,,,1,,,
STA-STP-0634,0634,MOSSELLO,,43.6319491,6.8447046,,,1,,,
STA-STP-0635,0635,MOSSELLO,,43.6316019,6.8431282,,,1,,,
STA-STP-0636,0636,MOUANS-SARTOUX CENTRE,,43.6189325,6.9716905,,,1,,,
STA-STP-0637,0637,MOUANS-SARTOUX CENTRE,,43.6190017,6.9718758,,,1,,,
STA-STP-0642,0642,LES MOULIERES,,43.6454201,6.8819082,,,1,,,
STA-STP-0643,0643,CHEMIN DES BASTIDES,,43.6425079,6.9283929,,,1,,,
STA-STP-0644,0644,CHEMIN DES BASTIDES,,43.6424468,6.9284737,,,1,,,
STA-STP-0645,0645,MOULIN DE BRUN,,43.6532926,6.9453601,,,1,,,
STA-STP-0646,0646,MOULIN DE BRUN,,43.6540494,6.9438811,,,1,,,
STA-STP-0649,0649,MOULIN VIEUX,,43.6077801,6.9156332,,,1,,,
STA-STP-0650,0650,MOULIN VIEUX,,43.6076838,6.9155771,,,1,,,
STA-STP-0651,0651,LES MOULINS,,43.6250487,6.8306744,,,1,,,
STA-STP-0652,0652,LES MOULINS,,43.6251569,6.8306933,,,1,,,
STA-STP-0655,0655,LES MURETS,,43.6326011,6.8702338,,,1,,,
STA-STP-0656,0656,LES MURETS,,43.6326273,6.8700367,,,1,,,
STA-STP-0660,0660,LE NAOUC,,43.6640498,6.885441,,,1,,,
STA-STP-0661,0661,LE NAOUC,,43.6642802,6.8855205,,,1,,,
STA-STP-0662,0662,LE NAOUC 2,,43.6635149,6.9005426,,,1,,,
STA-STP-0663,0663,LE NAOUC 2,,43.6635656,6.9004249,,,1,,,
STA-STP-0664,0664,ROUTE DE PEGOMAS,,43.638575,6.9336161,,,1,,,
STA-STP-0665,0665,LA NARTASSIERE,,43.6117809,6.9593535,,,1,,,
STA-STP-0667,0667,LE NEROLI,,43.6443687,6.9435271,,,1,,,
STA-STP-0668,0668,NOAILLES,,43.649127,6.907219,,,1,,,
STA-STP-0669,0669,NOAILLES,,43.6491312,6.9074189,,,1,,,
STA-STP-0670,0670,NOTRE DAME DE VALCLUSE,,43.614524,6.9212367,,,1,,,
STA-STP-0671,0671,NOTRE DAME DE VALCLUSE,,43.615634,6.9210194,,,1,,,
STA-STP-0676,0676,LES OLIVETTES,,43.6666551,6.9365864,,,1,,,
STA-STP-0677,0677,LES OLIVIERS,,43.6552785,6.9072486,,,1,,,
STA-STP-0678,0678,LES OLIVIERS,,43.6553815,6.9071703,,,1,,,
STA-STP-0679,0679,LES OLIVIERS,,43.6659182,6.8893959,,,1,,,
STA-STP-0680,0680,LES OLIVIERS,,43.6659077,6.889892,,,1,,,
STA-STP-0681,0681,LES OLIVIERS,,43.639063,6.9496956,,,1,,,
STA-STP-0682,0682,LES OLIVIERS,,43.6393801,6.9496814,,,1,,,
STA-STP-0683,0683,LES OLIVIERS,,43.6646225,6.9486956,,,1,,,
STA-STP-0684,0684,LES OLIVIERS,,43.664876,6.948449,,,1,,,
STA-STP-0685,0685,LES OLIVIERS,,43.6285755,6.928642,,,1,,,
STA-STP-0686,0686,LES OLIVIERS,,43.628694,6.9286288,,,1,,,
STA-STP-0687,0687,OSSOLA,,43.6576706,6.9254545,,,1,,,
STA-STP-0690,0690,PALAIS DE JUSTICE,,43.6566904,6.9289625,,,1,,,
STA-STP-0691,0691,PALAIS DE JUSTICE,,43.6565627,6.9277431,,,1,,,
STA-STP-0692,0692,PALAIS PROVENCAL,,43.6641037,6.9328831,,,1,,,
STA-STP-0693,0693,PALAIS PROVENCAL,,43.6641582,6.9332563,,,1,,,
STA-STP-0694,0694,LA PAOUTE,,43.6320154,6.9576482,,,1,,,
STA-STP-0695,0695,LA PAOUTE,,43.6320178,6.9577682,,,1,,,
STA-STP-0700,0700,PARC INDUSTRIEL,,43.62720434,6.94061166,,,1,,,
STA-STP-0701,0701,PARC INDUSTRIEL,,43.62739142,6.94081104,,,1,,,
STA-STP-0703,0703,PETIT LION,,43.6661151,6.9399023,,,1,,,
STA-STP-0704,0704,PETIT LION,,43.6661072,6.9397569,,,1,,,
STA-STP-0705,0705,PETIT PARIS,,43.6506481,6.9189401,,,1,,,
STA-STP-0706,0706,PETIT PARIS BAS,,43.6490145,6.9174525,,,1,,,
STA-STP-0707,0707,PETIT PARIS BAS,,43.6487074,6.9172082,,,1,,,
STA-STP-0708,0708,PETIT VALLON,,43.6800224,6.9555517,,,1,,,
STA-STP-0709,0709,PETIT VALLON,,43.6801284,6.9549412,,,1,,,
STA-STP-0710,0710,PETITE VIGNETTE,,43.6032139,6.9089753,,,1,,,
STA-STP-0711,0711,PETITE VIGNETTE,,43.6034166,6.9089811,,,1,,,
STA-STP-0712,0712,PETITES SOEURS DES PAUVRES,,43.6576738,6.910911,,,1,,,
STA-STP-0713,0713,PETITES SOEURS DES PAUVRES,,43.6577578,6.9109601,,,1,,,
STA-STP-0714,0714,PEYGROS,,43.6245749,6.881926,,,1,,,
STA-STP-0715,0715,PLACE SAINTE ANNE,,43.6439783,6.8981106,,,1,,,
STA-STP-0716,0716,LE PEYLOUBET,,43.6657007,6.9623282,,,1,,,
STA-STP-0717,0717,LE PEYLOUBET,,43.6655963,6.9621832,,,1,,,
STA-STP-0718,0718,PEYMEINADE CENTRE BOUTINY,,43.6414829,6.8787847,,,1,,,
STA-STP-0719,0719,PEYMEINADE CENTRE CENTENAIRE,,43.6412083,6.8774169,,,1,,,
STA-STP-0724,0724,PIERRANCHON,,43.6040343,6.9187153,,,1,,,
STA-STP-0725,0725,PIERRANCHON,,43.6041738,6.9181946,,,1,,,
STA-STP-0726,0726,LE PILON,,43.6863685,6.8781041,,,1,,,
STA-STP-0727,0727,LE PILON,,43.6864111,6.878251,,,1,,,
STA-STP-0728,0728,LES PINS-ESCARABINS,,43.6376117,6.8622091,,,1,,,
STA-STP-0729,0729,PLACE DU CENTENAIRE,,43.6409379,6.8771631,,,1,,,
STA-STP-0730,0730,LA PISCINE,,43.6394368,6.9560766,,,1,,,
STA-STP-0731,0731,LA PISCINE,,43.6386848,6.9563142,,,1,,,
STA-STP-0732,0732,PISCINE HARJES,,43.6650241,6.9382355,,,1,,,
STA-STP-0733,0733,PISCINE HARJES,,43.6647979,6.9377438,,,1,,,
STA-STP-0734,0734,PITCHOUNETTE,,43.6690932,6.9404606,,,1,,,
STA-STP-0735,0735,PITCHOUNETTE,,43.6691169,6.9403607,,,1,,,
STA-STP-0737,0737,PLACE FREDERIC MISTRAL,,43.6395102,6.9125195,,,1,,,
STA-STP-0738,0738,PLACE FREDERIC MISTRAL,,43.63965465,6.91232622,,,1,,,
STA-STP-0739,0739,PLACE MOTTET,,43.632745,6.9126552,,,1,,,
STA-STP-0740,0740,PEGOMAS CENTRE,,43.5945035,6.9271005,,,1,,,
STA-STP-0741,0741,PEGOMAS CENTRE,,43.59410871,6.92629133,,,1,,,
STA-STP-0742,0742,PLACE SAINT-JEAN,,43.6646596,6.9417235,,,1,,,
STA-STP-0743,0743,PLACE SAINT JEAN,,43.6648608,6.94154,,,1,,,
STA-STP-0744,0744,PLACE SAINT SAUVEUR,,43.6614992,6.9076842,,,1,,,
STA-STP-0745,0745,PLACE SAINT SAUVEUR,,43.6615462,6.9077366,,,1,,,
STA-STP-0746,0746,CHEMIN DES PLAINES,,43.6243558,6.9597783,,,1,,,
STA-STP-0747,0747,CHEMIN DES PLAINES,,43.6243518,6.9596098,,,1,,,
STA-STP-0748,0748,LES PLAINES DE MALBOSC,,43.6753427,6.9483982,,,1,,,
STA-STP-0749,0749,LES PLAINES DE MALBOSC,,43.6757483,6.9484795,,,1,,,
STA-STP-0750,0750,LES PLAINES,,43.625095,6.9640852,,,1,,,
STA-STP-0751,0751,LES PLAINES,,43.6251825,6.964156,,,1,,,
STA-STP-0754,0754,PLAN SARRAIN,,43.6014455,6.9504302,,,1,,,
STA-STP-0755,0755,PLAN SARRAIN,,43.60169884,6.9509988,,,1,,,
STA-STP-0756,0756,LES PLANTIERS,,43.6224389,6.9685083,,,1,,,
STA-STP-0757,0757,LES PLANTIERS,,43.622513,6.9685572,,,1,,,
STA-STP-0758,0758,PLASCASSIER,,43.64305,6.9761123,,,1,,,
STA-STP-0759,0759,PLATEAU NAPOLEON,,43.6684174,6.9249595,,,1,,,
STA-STP-0760,0760,PLATEAU NAPOLEON,,43.6683403,6.9250788,,,1,,,
STA-STP-0761,0761,LES POISSONNIERS,,43.6542328,6.9378187,,,1,,,
STA-STP-0762,0762,LES POISSONNIERS,,43.6544821,6.9379713,,,1,,,
STA-STP-0765,0765,LE PONT,,43.6430439,6.9564375,,,1,,,
STA-STP-0766,0766,LE PONT,,43.6430834,6.9567308,,,1,,,
STA-STP-0775,0775,PONT DE SIAGNE,,43.6275944,6.819111,,,1,,,
STA-STP-0776,0776,PONT DE SIAGNE,,43.6275331,6.8190494,,,1,,,
STA-STP-0777,0777,PONT DE SAINTE ANNE,,43.6455179,6.9017569,,,1,,,
STA-STP-0778,0778,PONT DE SAINTE ANNE,,43.645458,6.9018338,,,1,,,
STA-STP-0779,0779,PONT EIFFEL,,43.66080062,6.93086055,,,1,,,
STA-STP-0780,0780,PONT EIFFEL,,43.66082124,6.93101627,,,1,,,
STA-STP-0781,0781,PONT SNCF,,43.6520138,6.9576044,,,1,,,
STA-STP-0782,0782,PONT SNCF,,43.6521034,6.9576084,,,1,,,
STA-STP-0783,0783,PEGOMAS CENTRE,,43.59397607,6.92628893,,,1,,,
STA-STP-0784,0784,LA POSTE,,43.6434232,6.8820735,,,1,,,
STA-STP-0785,0785,SAINT VALLIER CENTRE,,43.6979385,6.8500541,,,1,,,
STA-STP-0786,0786,SAINT VALLIER CENTRE,,43.6975713,6.8506132,,,1,,,
STA-STP-0789,0789,L'ALAMBIC,,43.6418944,6.9376898,,,1,,,
STA-STP-0790,0790,LE PRADON,,43.645278,6.871246,,,1,,,
STA-STP-0792,0792,PRE DE BERT,,43.650186,6.815745,,,1,,,
STA-STP-0793,0793,PRE DE LA COMBE,,43.6584623,6.7931339,,,1,,,
STA-STP-0794,0794,PRE DE LA COMBE,,43.6575182,6.7941424,,,1,,,
STA-STP-0795,0795,PRE LONG,,43.6569752,6.7956278,,,1,,,
STA-STP-0796,0796,PRIMAVERA,,43.6440395,6.9137037,,,1,,,
STA-STP-0797,0797,PRIMAVERA,,43.6440045,6.9137979,,,1,,,
STA-STP-0801,0801,LE PROVENCE,,43.6564626,6.9252495,,,1,,,
STA-STP-0802,0802,LE PROVENCE,,43.6564202,6.9256089,,,1,,,
STA-STP-0803,0803,LES PUITS,,43.6299637,6.8786977,,,1,,,
STA-STP-0807,0807,QUIERA,,43.6054182,6.9587019,,,1,,,
STA-STP-0808,0808,QUIERA,,43.6054348,6.9589104,,,1,,,
STA-STP-0809,0809,RASTIGNY,,43.65437,6.921515,,,1,,,
STA-STP-0810,0810,LA RAVANELLE,,43.636563,6.8599022,,,1,,,
STA-STP-0811,0811,LA RAVANELLE,,43.6370292,6.8606765,,,1,,,
STA-STP-0812,0812,LES REDONNETS,,43.6625035,6.7940506,,,1,,,
STA-STP-0813,0813,LES REDONNETS,,43.6622212,6.7940993,,,1,,,
STA-STP-0814,0814,REINE JEANNE,,43.6654788,6.9247146,,,1,,,
STA-STP-0815,0815,RELAIS DE SARTOUX,,43.6408868,6.983808,,,1,,,
STA-STP-0816,0816,RELAIS DE SARTOUX,,43.6408684,6.9835668,,,1,,,
STA-STP-0817,0817,RESIDENCE CLAVARY,,43.6202522,6.9326388,,,1,,,
STA-STP-0818,0818,LES RESIDENCES,,43.6528447,6.9182846,,,1,,,
STA-STP-0819,0819,LES RESIDENCES,,43.6529608,6.9183268,,,1,,,
STA-STP-0820,0820,MOLINARD,,43.6522577,6.9199447,,,1,,,
STA-STP-0821,0821,LES RIBIERS,,43.5903312,6.9344293,,,1,,,
STA-STP-0822,0822,LES RIBIERS,,43.5901808,6.9352375,,,1,,,
STA-STP-0824,0824,LE RIOU,,43.6789834,6.9477766,,,1,,,
STA-STP-0825,0825,LE RIOU,,43.6789223,6.9476286,,,1,,,
STA-STP-0826,0826,RIVIERA,,43.6276998,6.8824641,,,1,,,
STA-STP-0829,0829,LES ROMARINS,,43.6641861,6.9233746,,,1,,,
STA-STP-0830,0830,COLLEGE ARNAUD BELTRAME,,43.59048878,6.93333773,,,1,,,
STA-STP-0831,0831,ROND POINT DE L'ALAMBIC,,43.6414789,6.9371561,,,1,,,
STA-STP-0832,0832,ROND POINT COULOUR,,43.613704,6.969806,,,1,,,
STA-STP-0833,0833,ROND POINT COULOUR,,43.613918,6.970192,,,1,,,
STA-STP-0834,0834,ROND POINT DE LA PAOUTE,,43.6318144,6.9568194,,,1,,,
STA-STP-0835,0835,ROND POINT DE LA PAOUTE,,43.6320382,6.9565996,,,1,,,
STA-STP-0836,0836,ROND POINT DE QUIERA,,43.6047826,6.9610072,,,1,,,
STA-STP-0837,0837,ROND POINT DE QUIERA,,43.6048293,6.9609067,,,1,,,
STA-STP-0838,0838,ROND POINT DE SIDI BRAHIM,,43.6496697,6.9320434,,,1,,,
STA-STP-0839,0839,ROND POINT DES 4 CHEMINS,,43.6444503,6.9407927,,,1,,,
STA-STP-0840,0840,ROND POINT DES 4 CHEMINS,,43.6444262,6.9410321,,,1,,,
STA-STP-0841,0841,ROND POINT JOSEPH DE FONTMICHEL,,43.6396921,6.9766435,,,1,,,
STA-STP-0842,0842,ROND POINT DU 24 AOUT 1944,,43.6397949,6.9788571,,,1,,,
STA-STP-0843,0843,"VOIES C, F, H, I, J, K",,43.6103201,6.9528207,,,1,,,
STA-STP-0844,0844,ROND POINT Z.I. DE L’ARGILE,,43.606328,6.9557743,,,1,,,
STA-STP-0845,0845,ROND POINT Z.I. DE L’ARGILE,,43.6063398,6.9556773,,,1,,,
STA-STP-0847,0847,LA ROQUE,,43.6594909,6.9259866,,,1,,,
STA-STP-0848,0848,LA ROQUETTE BAS,,43.5972363,6.9545994,,,1,,,
STA-STP-0849,0849,LA ROQUETTE BAS,,43.5970367,6.9545827,,,1,,,
STA-STP-0850,0850,LA ROQUETTE VILLAGE,,43.598573,6.9563731,,,1,,,
STA-STP-0851,0851,LA ROQUETTE VILLAGE,,43.5986282,6.9563703,,,1,,,
STA-STP-0856,0856,LES ROUMEGONS,,43.6802921,6.9672373,,,1,,,
STA-STP-0857,0857,ROURE,,43.6572848,6.9299549,,,1,,,
STA-STP-0858,0858,LE ROURET,,43.58897169,6.93629744,,,1,,,
STA-STP-0859,0859,LE ROURET,,43.58926422,6.93681873,,,1,,,
STA-STP-0860,0860,ROUTE D'OPIO,,43.6606356,6.9493384,,,1,,,
STA-STP-0862,0862,CHEZ DEDE,,43.6939757,6.856335,,,1,,,
STA-STP-0863,0863,CHEZ DEDE,,43.6939363,6.8566585,,,1,,,
STA-STP-0864,0864,COPERNIC,,43.66447153,6.91921995,,,1,,,
STA-STP-0865,0865,ROUTE DE PEGOMAS,,43.6378581,6.9335353,,,1,,,
STA-STP-0866,0866,CORNICHE BENARD 4,,43.6289822,6.9754723,,,1,,,
STA-STP-0867,0867,CORNICHE BENARD 4 Bis,,43.6291768,6.9758087,,,1,,,
STA-STP-0868,0868,SAINT ANTOINE,,43.6432593,6.9380976,,,1,,,
STA-STP-0869,0869,SAINT ANTOINE,,43.6432002,6.9381813,,,1,,,
STA-STP-0872,0872,SAINT CEZAIRE CENTRE,,43.6502388,6.7938377,,,1,,,
STA-STP-0873,0873,SAINT CEZAIRE CENTRE,,43.6504432,6.7941969,,,1,,,
STA-STP-0874,0874,SAINT CLAUDE,,43.6488433,6.9314856,,,1,,,
STA-STP-0875,0875,SAINT CLAUDE,,43.6494626,6.9317331,,,1,,,
STA-STP-0876,0876,SAINT CLAUDE,,43.6491366,6.9326564,,,1,,,
STA-STP-0877,0877,SAINT CLAUDE ECOLE,,43.6510544,6.9302923,,,1,,,
STA-STP-0878,0878,SAINT CLAUDE ECOLE,,43.651609,6.9302098,,,1,,,
STA-STP-0879,0879,SAINT EXUPERY,,43.6247259,6.8852503,,,1,,,
STA-STP-0880,0880,SAINT EXUPERY,,43.6689182,6.9429656,,,1,,,
STA-STP-0881,0881,SAINT EXUPERY,,43.6690951,6.9430167,,,1,,,
STA-STP-0882,0882,SAINT GEORGES,,43.6350217,6.8553061,,,1,,,
STA-STP-0883,0883,SAINT GEORGES,,43.6352295,6.8557593,,,1,,,
STA-STP-0884,0884,SAINT HILAIRE,,43.654888,6.9163363,,,1,,,
STA-STP-0885,0885,SAINT HILAIRE,,43.6550953,6.9162825,,,1,,,
STA-STP-0886,0886,SAINT JEAN LA ROQUETTE,,43.5814481,6.9449667,,,1,,,
STA-STP-0887,0887,SAINT JEAN LA ROQUETTE,,43.5815087,6.9451021,,,1,,,
STA-STP-0888,0888,BARTHOU 2,,43.66356787,6.92160775,,,1,,,
STA-STP-0889,0889,LES ROMARINS,,43.66347547,6.95671678,,,1,,,
STA-STP-0890,0890,LA SCIERIE,,43.6122483,6.91954134,,,1,,,
STA-STP-0891,0891,LA SCIERIE,,43.61232852,6.91941888,,,1,,,
STA-STP-0892,0892,SAINT VALLIER GRAND PRE,,43.6996034,6.8483797,,,1,,,
STA-STP-0893,0893,SAINT VALLIER GRAND PRE,,43.6995958,6.8485476,,,1,,,
STA-STP-0894,0894,SAINTE ANNE,,43.6442683,6.8991874,,,1,,,
STA-STP-0895,0895,SAINTE ANNE,,43.6441772,6.8993048,,,1,,,
STA-STP-0896,0896,SAINTE LORETTE,,43.65423166,6.91887967,,,1,,,
STA-STP-0897,0897,SAINTE MARGUERITE,,43.6464545,6.9529204,,,1,,,
STA-STP-0898,0898,SAINTE MARGUERITE,,43.6463124,6.9531585,,,1,,,
STA-STP-0899,0899,CORNICHE BENARD 3,,43.63142883,6.97516969,,,1,,,
STA-STP-0900,0900,SAINTE MARTHE,,43.6574056,6.9275709,,,1,,,
STA-STP-0901,0901,SAINTE MARTHE,,43.6582286,6.9281768,,,1,,,
STA-STP-0902,0902,CORNICHE BENARD LOTISSEMENT,,43.6242243,6.9742459,,,1,,,
STA-STP-0903,0903,LES LATTES 2,,43.82429666,6.74059778,,,1,,,
STA-STP-0904,0904,LES LATTES 2,,43.82445147,6.74063534,,,1,,,
STA-STP-0905,0905,SANTON,,43.6434122,6.9476963,,,1,,,
STA-STP-0908,0908,LES SANTONS,,43.6415616,6.9275693,,,1,,,
STA-STP-0909,0909,LES SANTONS,,43.6414812,6.9274732,,,1,,,
STA-STP-0910,0910,LA SAOUVE,,43.6260493,6.8761904,,,1,,,
STA-STP-0911,0911,LA SAOUVE,,43.6253522,6.8776152,,,1,,,
STA-STP-0912,0912,LA SCIERIE,,43.6356742,6.8577201,,,1,,,
STA-STP-0913,0913,LA SCIERIE,,43.6361236,6.8586437,,,1,,,
STA-STP-0916,0916,SECURITE SOCIALE,,43.6625606,6.9303394,,,1,,,
STA-STP-0917,0917,SECURITE SOCIALE,,43.6625162,6.9296713,,,1,,,
STA-STP-0918,0918,SERRATRICES,,43.6636309,6.933374,,,1,,,
STA-STP-0919,0919,SIDI BRAHIM,,43.6461645,6.9401169,,,1,,,
STA-STP-0922,0922,LA SOURCE / CHEVREFEUILLES,,43.6342778,6.9251232,,,1,,,
STA-STP-0923,0923,LA SOURCE / CHEVREFEUILLES,,43.6342542,6.9250251,,,1,,,
STA-STP-0924,0924,SOUS PREFECTURE,,43.6562599,6.918994,,,1,,,
STA-STP-0925,0925,SOUS PREFECTURE,,43.6563394,6.9189237,,,1,,,
STA-STP-0926,0926,SPERACEDES LA CROIX,,43.6470637,6.8573579,,,1,,,
STA-STP-0927,0927,SPERACEDES LA CROIX,,43.6469296,6.8573632,,,1,,,
STA-STP-0928,0928,SPERACEDES MAIRIE,,43.6483621,6.8577841,,,1,,,
STA-STP-0929,0929,SPERACEDES MAIRIE,,43.6484322,6.8577143,,,1,,,
STA-STP-0930,0930,STADE DE LA PAOUTE,,43.6328477,6.9542241,,,1,,,
STA-STP-0931,0931,STADE JEAN GIRARD,,43.6427553,6.9125437,,,1,,,
STA-STP-0932,0932,STADE JEAN GIRARD,,43.6421168,6.9120605,,,1,,,
STA-STP-0933,0933,CERCLE SAINTE ANNE,,43.6419199,6.8998556,,,1,,,
STA-STP-0934,0934,LE SUD,,43.6561042,6.9253677,,,1,,,
STA-STP-0935,0935,LE SUD,,43.6563263,6.92544,,,1,,,
STA-STP-0936,0936,SUPER GRASSE,,43.6684038,6.9277111,,,1,,,
STA-STP-0937,0937,SUPER GRASSE,,43.66783084,6.92837071,,,1,,,
STA-STP-0938,0938,LES TERMES,,43.6446302,6.8931046,,,1,,,
STA-STP-0939,0939,LES TERMES,,43.6451497,6.8924444,,,1,,,
STA-STP-0940,0940,LES TERRASSES,,43.6396262,6.9204296,,,1,,,
STA-STP-0941,0941,LES TERRASSES,,43.6395704,6.9203529,,,1,,,
STA-STP-0942,0942,LES TERRASSES DE GRASSE,,43.6458052,6.9281962,,,1,,,
STA-STP-0944,0944,LES TERRASSES DE GRASSE,,43.6458406,6.9282664,,,1,,,
STA-STP-0945,0945,LES TERRES BLANCHES,,43.6043104,6.9335979,,,1,,,
STA-STP-0946,0946,LES TERRES BLANCHES,,43.6042591,6.9336981,,,1,,,
STA-STP-0947,0947,THEBAÏDE,,43.6939769,6.8502416,,,1,,,
STA-STP-0948,0948,THEBAÏDE,,43.6940591,6.8502227,,,1,,,
STA-STP-0949,0949,LE THEOULET,,43.6428533,6.9677628,,,1,,,
STA-STP-0950,0950,LE THEOULET,,43.6433294,6.9670875,,,1,,,
STA-STP-0951,0951,SIDI BRAHIM,,43.64636078,6.94021717,,,1,,,
STA-STP-0952,0952,GRASSE CENTRE VILLE,,43.65947245,6.92241705,,,1,,,
STA-STP-0953,0953,LE TIGNET VILLAGE,,43.6403158,6.8466407,,,1,,,
STA-STP-0954,0954,LE TIGNET VILLAGE,,43.6406478,6.8466734,,,1,,,
STA-STP-0957,0957,TOMBAREL,,43.654994,6.9273326,,,1,,,
STA-STP-0958,0958,TOMBAREL,,43.6551749,6.9276774,,,1,,,
STA-STP-0961,0961,SAINT JACQUES,,43.6400351,6.91165566,,,1,,,
STA-STP-0962,0962,SAINT JACQUES,,43.64006616,6.91141427,,,1,,,
STA-STP-0963,0963,TRANSFORMATEUR,,43.6613874,6.9350478,,,1,,,
STA-STP-0964,0964,TRANSFORMATEUR,,43.6612344,6.93479,,,1,,,
STA-STP-0965,0965,TRAVERSE DES RIBES,,43.6557265,6.9109539,,,1,,,
STA-STP-0966,0966,TRAVERSE DES RIBES,,43.655316,6.9130983,,,1,,,
STA-STP-0967,0967,TRAVERSE DU GAMBADOU,,43.60911,6.9579703,,,1,,,
STA-STP-0968,0968,LA VILLOTTE,,43.64326735,6.90458972,,,1,,,
STA-STP-0969,0969,TRAVERSE SAINT ANNE,,43.6966099,6.843785,,,1,,,
STA-STP-0970,0970,TRAVERSE SAINT ANNE,,43.6964599,6.8437401,,,1,,,
STA-STP-0971,0971,LA TREILLE,,43.6634489,6.9632302,,,1,,,
STA-STP-0972,0972,LA TREILLE,,43.6638114,6.9634868,,,1,,,
STA-STP-0973,0973,LA TUILIERE,,43.6014101,6.9224785,,,1,,,
STA-STP-0974,0974,LA TUILIERE,,43.60078,6.9229527,,,1,,,
STA-STP-0975,0975,LE TUNNEL,,43.6808471,6.9600848,,,1,,,
STA-STP-0976,0976,LE TUNNEL,,43.6809533,6.9600974,,,1,,,
STA-STP-0983,0983,VAL CLAIRETTE,,43.6641998,6.9058176,,,1,,,
STA-STP-0984,0984,VAL CLAIRETTE,,43.6640629,6.9054488,,,1,,,
STA-STP-0985,0985,LA VALLEE HEUREUSE,,43.6277213,6.836359,,,1,,,
STA-STP-0986,0986,LA VALLEE HEUREUSE,,43.6284155,6.836484,,,1,,,
STA-STP-0991,0991,LES VAYOUX,,43.6048945,6.9064043,,,1,,,
STA-STP-0993,0993,LE VERGER,,43.6607927,6.9587441,,,1,,,
STA-STP-0994,0994,LES VEYANS DE SAINT CEZAIRE,,43.6259131,6.8224719,,,1,,,
STA-STP-0995,0995,LES VEYANS DE SAINT CEZAIRE,,43.6260535,6.8223366,,,1,,,
STA-STP-0996,0996,LES VEYANS DU TIGNET,,43.6251504,6.825226,,,1,,,
STA-STP-0997,0997,LES VEYANS DU TIGNET,,43.6252414,6.8256006,,,1,,,
STA-STP-1000,1000,VICTORIA,,43.6637795,6.9271248,,,1,,,
STA-STP-1001,1001,VICTORIA,,43.6638693,6.9268676,,,1,,,
STA-STP-1002,1002,PEYMEINADE VIEUX VILLAGE,,43.6434727,6.8752469,,,1,,,
STA-STP-1004,1004,LES VIGNAUX,,43.66563485,6.79560619,,,1,,,
STA-STP-1005,1005,LES VIGNAUX,,43.66553303,6.79569895,,,1,,,
STA-STP-1006,1006,VILLA CABROU,,43.6513922,6.8589216,,,1,,,
STA-STP-1007,1007,VILLA CABROU,,43.6528913,6.8609721,,,1,,,
STA-STP-1008,1008,VILLA CARDELINO,,43.660316,6.9329464,,,1,,,
STA-STP-1009,1009,VILLA CARDELINO,,43.6603448,6.9332053,,,1,,,
STA-STP-1010,1010,LA VILLOTTE,,43.6431499,6.9044245,,,1,,,
STA-STP-1011,1011,VOIE A,,43.6059597,6.9551159,,,1,,,
STA-STP-1012,1012,VOIE A bis,,43.6055311,6.9520567,,,1,,,
STA-STP-1013,1013,VOIE C ET B,,43.6067319,6.9510837,,,1,,,
STA-STP-1014,1014,VOIE D,,43.6086326,6.9510525,,,1,,,
STA-STP-1015,1015,VOIE E ET F,,43.6094183,6.9554636,,,1,,,
STA-STP-1016,1016,VOIE L NORD,,43.6100038,6.9539237,,,1,,,
STA-STP-1017,1017,VOIE L SUD,,43.6097246,6.9565081,,,1,,,
STA-STP-1018,1018,LA VOIE ROMAINE,,43.6352621,6.8432634,,,1,,,
STA-STP-1019,1019,Z.A.C DU PILON,,43.6843593,6.8826599,,,1,,,
STA-STP-1020,1020,Z.I. DE L ARGILE,,43.60676382,6.95629267,,,1,,,
STA-STP-1021,1021,Z.I. DE TIRAGON,,43.6142377,6.9650944,,,1,,,
STA-STP-1022,1022,AVENUE THIERS,,43.66118023,6.9224958,,,1,,,
STA-STP-1023,1023,Z.I. DU CARRE,,43.6543741,6.9326629,,,1,,,
STA-STP-1024,1024,P.A des HAUTS DE GRASSE,,43.6506402,6.8160907,,,1,,,
STA-STP-1025,1025,MAISON D ARRET,,43.6739509,6.9051336,,,1,,,
STA-STP-1026,1026,ROND POINT DES BASTIDES,,43.5726529,6.9584621,,,1,,,
STA-STP-1027,1027,CLOS D'ANDREE ET JEAN,,43.6304803,6.9123608,,,1,,,
STA-STP-1028,1028,CLOS D'ANDREE ET JEAN,,43.6305569,6.9121538,,,1,,,
STA-STP-1034,1034,LE BELVEDERE,,43.6670544,6.9269694,,,1,,,
STA-STP-1035,1035,LE BELVEDERE,,43.66693625,6.92706926,,,1,,,
STA-STP-1038,1038,HOTEL DE VILLE PEYMEINADE,,43.6424854,6.875764,,,1,,,
STA-STP-1039,1039,LES MICOCOULIERS,,43.6486403,6.93765029,,,1,,,
STA-STP-1040,1040,LES GOURGUETTES,,43.5810513,6.9580372,,,1,,,
STA-STP-1041,1041,LE VALLON,,43.6602114,6.9046897,,,1,,,
STA-STP-1042,1042,LE VALLON,,43.6606673,6.9059868,,,1,,,
STA-STP-1043,1043,PETIT PARIS,,43.6503936,6.9181714,,,1,,,
STA-STP-1044,1044,ROND POINT DE SIDI BRAHIM,,43.64976111,6.93207398,,,1,,,
STA-STP-1047,1047,CABROL,,43.59073143,6.92895655,,,1,,,
STA-STP-1049,1049,CABROL,,43.59057467,6.92893354,,,1,,,
STA-STP-1050,1050,LES TAPETS,,43.6012672,6.9289252,,,1,,,
STA-STP-1057,1057,MOSSELLO,,43.63129822,6.84326531,,,1,,,
STA-STP-1058,1058,MOSSELLO,,43.6317201,6.8435679,,,1,,,
STA-STP-1059,1059,COURS HONORE CRESP,,43.6571656,6.9205865,,,1,,,
STA-STP-1060,1060,CARREFOUR CD5,,43.7031133,6.8483574,,,1,,,
STA-STP-1061,1061,LES JARDINS DU M.I.P,,43.61369388,6.9766482,,,1,,,
STA-STP-1062,1062,ECOLE MARIE CURIE,,43.5866781,6.9253013,,,1,,,
STA-STP-1063,1063,MATERNELLE JULES FERRY,,43.5965964,6.933894,,,1,,,
STA-STP-1064,1064,PRE DE BERT,,43.650303,6.815622,,,1,,,
STA-STP-1065,1065,GHAIA,,43.61494265,6.96360865,,,1,,,
STA-STP-1066,1066,GHAIA,,43.61497232,6.96407705,,,1,,,
STA-STP-1067,1067,LA SOURCE PARFUMEE,,43.7350959,6.8155958,,,1,,,
STA-STP-1068,1068,LA SOURCE PARFUMEE,,43.7350812,6.8157666,,,1,,,
STA-STP-1069,1069,LA COLETTE,,43.7302906,6.7932549,,,1,,,
STA-STP-1070,1070,LA COLETTE,,43.7303553,6.7930273,,,1,,,
STA-STP-1071,1071,ESCRAGNOLLES,,43.7305405,6.7839768,,,1,,,
STA-STP-1072,1072,ESCRAGNOLLES,,43.7302511,6.7849919,,,1,,,
STA-STP-1073,1073,LA CLUE,,43.7654893,6.7123837,,,1,,,
STA-STP-1074,1074,LA CLUE,,43.7652615,6.7124845,,,1,,,
STA-STP-1075,1075,CHAPELLE GRATTE MOINE,,43.7721748,6.694757,,,1,,,
STA-STP-1076,1076,CHAPELLE GRATTE MOINE,,43.7723027,6.694615,,,1,,,
STA-STP-1077,1077,SERANON,,43.7735058,6.7004613,,,1,,,
STA-STP-1078,1078,SERANON,,43.7737696,6.7011132,,,1,,,
STA-STP-1079,1079,ANCIENNE POSTE,,43.7693761,6.6836927,,,1,,,
STA-STP-1080,1080,ANCIENNE POSTE,,43.7692343,6.6829579,,,1,,,
STA-STP-1081,1081,LA VILLAUTE,,43.764587,6.6549245,,,1,,,
STA-STP-1082,1082,LA VILLAUTE,,43.7644743,6.6553774,,,1,,,
STA-STP-1083,1083,LE GRAND CHÊNE,,43.6371165,6.92404176,,,1,,,
STA-STP-1084,1084,LE GRAND CHÊNE,,43.63711844,6.9241705,,,1,,,
STA-STP-1085,1085,LE LOGIS DU PIN,,43.7795274,6.6423514,,,1,,,
STA-STP-1086,1086,LE LOGIS DU PIN,,43.7801216,6.6430155,,,1,,,
STA-STP-1087,1087,LES ROUMIGUIERES,,43.62240783,6.92510218,,,1,,,
STA-STP-1088,1088,LES ROUMIGUIERES,,43.6229968,6.9256248,,,1,,,
STA-STP-1089,1089,CAILLE RUE PRINCIPALE,,43.77785776,6.72770216,,,1,,,
STA-STP-1090,1090,CAILLE RUE PRINCIPALE,,43.77797157,6.72771636,,,1,,,
STA-STP-1091,1091,LE CLOS DE GIRAUD,,43.79527674,6.76263707,,,1,,,
STA-STP-1092,1092,LE CLOS DE GIRAUD,,43.79508894,6.76168489,,,1,,,
STA-STP-1093,1093,1480,,43.79530122,6.7537808,,,1,,,
STA-STP-1094,1094,1480,,43.7952296,6.7537241,,,1,,,
STA-STP-1095,1095,CHEMIN DES MAURES ET DES ADRETS 2,,43.64169277,6.89307332,,,1,,,
STA-STP-1097,1097,LE PLAN,,43.64084987,6.95686296,,,1,,,
STA-STP-1098,1098,LE PLAN,,43.64186892,6.95714459,,,1,,,
STA-STP-1099,1099,ROUTE DE CANNES,,43.6338233,6.95209265,,,1,,,
STA-STP-1100,1100,PLACE DE LA BUANDERIE,,43.66111453,6.9235459,,,1,,,
STA-STP-1101,1101,PISCINE HARJES PARKING,,43.66492536,6.93762481,,,1,,,
STA-STP-1102,1102,COLLEGE CANTEPERDRIX,,43.63751455,6.9108443,,,1,,,
STA-STP-1103,1103,RAVELLI,,43.58041417,6.92933679,,,1,,,
STA-STP-1104,1104,RAVELLI,,43.58035782,6.92943871,,,1,,,
STA-STP-1105,1105,L'ILE Ö VERT,,43.56995549,6.93997946,,,1,,,
STA-STP-1106,1106,L'ILE Ô VERT,,43.56944025,6.93998381,,,1,,,
STA-STP-1107,1107,Z-I VALLEE DE LA SIAGNE,,43.57588873,6.93239048,,,1,,,
STA-STP-1108,1108,Z-I VALLEE DE LA SIAGNE,,43.57589504,6.93264529,,,1,,,
STA-STP-1109,1109,LE LOGIS,,43.59071223,6.92969587,,,1,,,
STA-STP-1124,1124,VAL RANCH,,43.79691218,6.72117169,,,1,,,
STA-STP-1126,1126,LA FOUX,,43.8158488,6.6811562,,,1,,,
STA-STP-1127,1127,LA FOUX,,43.8155421,6.6813732,,,1,,,
STA-STP-1128,1128,LES LATTES,,43.8224199,6.733136,,,1,,,
STA-STP-1129,1129,LES LATTES,,43.8223603,6.7331345,,,1,,,
STA-STP-1143,1143,LES JARDINS DU M.I.P,,43.61368295,6.9770383,,,1,,,
STA-STP-1145,1145,SAINT AUBAN,,43.8469596,6.7282503,,,1,,,
STA-STP-1159,1159,HAMEAU DE SAINT JEAN,,43.5802468,6.947826,,,1,,,
STA-STP-1160,1160,DANDON,,43.5779703,6.9504262,,,1,,,
STA-STP-1161,1161,DANDON,,43.5780153,6.9505637,,,1,,,
STA-STP-1163,1163,BASE DE LOISIRS,,43.5850032,6.9417331,,,1,,,
STA-STP-1164,1164,BASE DE LOISIRS,,43.5848358,6.9416167,,,1,,,
STA-STP-1165,1165,LES OLIVETTES,,43.6669769,6.9365203,,,1,,,
STA-STP-1168,1168,SAINT AUBAN VILLAGE,,43.848274,6.7254462,,,1,,,
STA-STP-1171,1171,SAINT AUBAN,,43.8470147,6.7284778,,,1,,,
STA-STP-1176,1176,BRIANCONNET,,43.8644721,6.7572887,,,1,,,
STA-STP-1177,1177,BRIANCONNET,,43.8646957,6.7565974,,,1,,,
STA-STP-1178,1178,SAINT JEANNET,,43.8824131,6.8081428,,,1,,,
STA-STP-1185,1185,SAINT AUBAN LE CAMPING,,43.8448489,6.7331144,,,1,,,
STA-STP-1186,1186,SAINT AUBAN LE CAMPING,,43.8447475,6.7332696,,,1,,,
STA-STP-1198,1198,CAILLE JAS NEUF,,43.7805395,6.7296111,,,1,,,
STA-STP-1199,1199,CAILLE JAS NEUF,,43.7808607,6.7293141,,,1,,,
STA-STP-1200,1200,LES PLAINES DE CAILLE,,43.7824545,6.7589938,,,1,,,
STA-STP-1201,1201,LES PLAINES DE CAILLE,,43.7820848,6.7597305,,,1,,,
STA-STP-1202,1202,ANDON,,43.7741236,6.7844477,,,1,,,
STA-STP-1204,1204,PONT DU LOUP,,43.7706142,6.8161061,,,1,,,
STA-STP-1205,1205,PONT DU LOUP,,43.7706894,6.8158472,,,1,,,
STA-STP-1206,1206,CANAUX,,43.7594287,6.8610245,,,1,,,
STA-STP-1207,1207,CANAUX,,43.7595263,6.8611571,,,1,,,
STA-STP-1210,1210,CLARS,,43.74574363,6.74592385,,,1,,,
STA-STP-1217,1217,LA FERRIERE,,43.79714974,6.73386616,,,1,,,
STA-STP-1218,1218,LA FERRIERE,,43.79701426,6.73432984,,,1,,,
STA-STP-1222,1222,FLORE DE THÉAS,,43.80486339,6.81373559,,,1,,,
STA-STP-1223,1223,VAL RANCH,,43.79699889,6.7209928,,,1,,,
STA-STP-1225,1225,VALDEROURE MAIRIE,,43.7949397,6.7060127,,,1,,,
STA-STP-1226,1226,VALDEROURE MAIRIE,,43.7948773,6.7059978,,,1,,,
STA-STP-1231,1231,ROUTE DU BRUNET,,43.8388777,6.7386077,,,1,,,
STA-STP-1232,1232,ROUTE DU BRUNET,,43.8387105,6.7385509,,,1,,,
STA-STP-1234,1234,MALAMAIRE 1,,43.7945987,6.6578776,,,1,,,
STA-STP-1235,1235,MALAMAIRE 1,,43.7940453,6.6579318,,,1,,,
STA-STP-1237,1237,DOMAINE DU GRAOU,,43.7693669,6.6479219,,,1,,,
STA-STP-1238,1238,DOMAINE DU GRAOU,,43.7670308,6.6486175,,,1,,,
STA-STP-1239,1239,LES PINS,,43.79131264,6.65216606,,,1,,,
STA-STP-1240,1240,LES PINS,,43.7913204,6.6514163,,,1,,,
STA-STP-1243,1243,LES ARMOURIERS,,43.6348356,6.8404312,,,1,,,
STA-STP-1244,1244,LES CHENES VERTS,,43.6228789,6.8788556,,,1,,,
STA-STP-1245,1245,CHEMIN DE LA COMMUNE,,43.5809571,6.9516935,,,1,,,
STA-STP-1246,1246,ECOLE SAINT JEAN,,43.5801356,6.9486466,,,1,,,
STA-STP-1247,1247,CHEMIN DE DANDON,,43.5790803,6.9502977,,,1,,,
STA-STP-1250,1250,CHEMIN DE LA VALLEE,,43.6312372,6.9085489,,,1,,,
STA-STP-1251,1251,CHEMIN DE LA VALLEE,,43.6313183,6.9085829,,,1,,,
STA-STP-1252,1252,CHAPELLE SAINT CHRISTOPHE,,43.67199056,6.94039594,,,1,,,
STA-STP-1254,1254,CHEMIN DES ACACIAS,,43.67803229,6.94403069,,,1,,,
STA-STP-1257,1257,LOTISSEMENT DES CAMPANETTES,,43.6358728,6.9014696,,,1,,,
STA-STP-1258,1258,CHEMIN DE CANTEPERDRIX,,43.63435667,6.90580817,,,1,,,
STA-STP-1259,1259,PICOURENC,,43.63302556,6.88956571,,,1,,,
STA-STP-1260,1260,VALLON DE LA FRAYERE,,43.6363151,6.88580564,,,1,,,
STA-STP-1261,1261,CHAPELLE SAINT-LÉONCE,,43.79333587,6.69013199,,,1,,,
STA-STP-1262,1262,CHAPELLE SAINT-LÉONCE,,43.79324971,6.69029426,,,1,,,
STA-STP-1263,1263,CHEMIN DES CANEBIERS,,43.63654374,6.9406403,,,1,,,
STA-STP-1264,1264,CHEMIN DES CANEBIERS,,43.63654956,6.94075563,,,1,,,
STA-STP-1265,1265,ROUTE DE DRAGUIGNAN,,43.64388339,6.90281145,,,1,,,
STA-STP-1266,1266,CHEMIN DU GRAND CHENE,,43.63750739,6.92493598,,,1,,,
STA-STP-1267,1267,VALDEROURE MAIRIE 1,,43.79488422,6.70594781,,,1,,,
STA-STP-1268,1268,LE LOGIS,,43.59098494,6.92955282,,,1,,,
STA-STP-1269,1269,AVENUE AMIRAL DE GRASSE,,43.64400037,6.88716144,,,1,,,
STA-STP-1270,1270,SQUARE DU 11 NOVEMBRE,,43.662198,6.924208,,,1,,,
STA-STP-1271,1271,LOGIS DU PIN PARKING,,43.779406,6.641745,,,1,,,
STA-STP-1272,1272,GRASSE SNCF,,43.653225,6.925324,,,1,,,
STA-STP-1273,1273,GRASSE SNCF,,43.653466,6.926242,,,1,,,
STA-STP-1274,1274,AVENUE DE PEYGROS,,43.634926,6.865597,,,1,,,
STP-0001,0001,11 NOVEMBRE,,43.6629932,6.9264904,,,0,STA-STP-0001,,
STP-0002,0002,LES 2 CYPRES,,43.6388071,6.8710398,,,0,STA-STP-0002,,
STP-0003,0003,LES 2 CYPRES,,43.6389255,6.8712374,,,0,STA-STP-0003,,
STP-0004,0004,LES 3 PONTS,,43.6600994,6.8810015,,,0,STA-STP-0004,,
STP-0005,0005,LES 3 PONTS,,43.6602064,6.8806437,,,0,STA-STP-0005,,
STP-0006,0006,LES 4 CHEMINS,,43.6454195,6.9396857,,,0,STA-STP-0006,,1
STP-0007,0007,LES 4 CHEMINS,,43.6449814,6.9410164,,,0,STA-STP-0007,,1
STP-0008,0008,LES ABATTOIRS,,43.6477047,6.9361897,,,0,STA-STP-0008,,1
STP-0009,0009,LES ABATTOIRS,,43.6479709,6.9363603,,,0,STA-STP-0009,,1
STP-0010,0010,ADRIEN REY,,43.6081647,6.914665,,,0,STA-STP-0010,,
STP-0011,0011,ADRIEN REY,,43.6080092,6.9144637,,,0,STA-STP-0011,,
STP-0012,0012,AIRE DE TIRAGON,,43.6154013,6.9577066,,,0,STA-STP-0012,,
STP-0013,0013,AIRE DE TIRAGON,,43.6154344,6.9580403,,,0,STA-STP-0013,,
STP-0014,0014,AIRE DE VIDAL,,43.6289534,6.8703777,,,0,STA-STP-0014,,
STP-0015,0015,AIRE DE VIDAL,,43.6286867,6.8704657,,,0,STA-STP-0015,,
STP-0016,0016,ALICE DE ROTSCHILD,,43.6641407,6.9308306,,,0,STA-STP-0016,,
STP-0017,0017,ALICE DE ROTSCHILD,,43.663943,6.929843,,,0,STA-STP-0017,,
STP-0018,0018,PARKING MAIRIE DE LA TIGNET,,43.63068522,6.84392954,,,0,STA-STP-0018,,
STP-0019,0019,ALTIRAMA,,43.649286,6.9198334,,,0,STA-STP-0019,,
STP-0020,0020,ALTIRAMA,,43.6492053,6.919418,,,0,STA-STP-0020,,
STP-0022,0022,LES AMANDIERS,,43.6358741,6.8391233,,,0,STA-STP-0022,,
STP-0023,0023,GRANGE NEUVE,,43.6738492,6.7974002,,,0,STA-STP-0023,,
STP-0024,0024,GRANGE NEUVE,,43.6742041,6.797475,,,0,STA-STP-0024,,
STP-0026,0026,LES ARNAUDS,,43.5962524,6.92606,,,0,STA-STP-0026,,1
STP-0027,0027,LES ARNAUDS,,43.5984808,6.9244004,,,0,STA-STP-0027,,1
STP-0028,0028,LES ASPRES,,43.6426353,6.9420781,,,0,STA-STP-0028,,
STP-0029,0029,LES ASPRES,,43.6420253,6.9424784,,,0,STA-STP-0029,,
STP-0030,0030,AURIBEAU VILLAGE,,43.60141712,6.90966159,,,0,STA-STP-0030,,
STP-0031,0031,AVENUE AMIRAL DE GRASSE,,43.6440679,6.8871606,,,0,STA-STP-0031,,
STP-0033,0033,AVENUE DE CANNES,,43.6161677,6.9728471,,,0,STA-STP-0033,,1
STP-0034,0034,AVENUE DE CANNES,,43.6156856,6.9722705,,,0,STA-STP-0034,,1
STP-0035,0035,AVENUE DE PROVENCE,,43.6931002,6.8541354,,,0,STA-STP-0035,,
STP-0036,0036,AVENUE DE PROVENCE,,43.6930893,6.8544407,,,0,STA-STP-0036,,
STP-0038,0038,AVENUE DES TERMES 1,,43.6388,6.8847035,,,0,STA-STP-0038,,
STP-0039,0039,ORSAC MONTFLEURY,,43.6526459,6.9168203,,,0,STA-STP-0039,,
STP-0040,0040,AVENUE DES TERMES 2,,43.6417999,6.8884081,,,0,STA-STP-0040,,
STP-0041,0041,LE JAS NEUF,,43.643472,6.8851873,,,0,STA-STP-0041,,
STP-0042,0042,AVENUE DES TERMES 3,,43.6428503,6.8905702,,,0,STA-STP-0042,,
STP-0043,0043,CHEMIN DU FLAQUIER,,43.63241845,6.86152512,,,0,STA-STP-0043,,
STP-0048,0048,AXE 85,,43.64368352,6.94680146,,,0,STA-STP-0048,,
STP-0049,0049,AXE 85,,43.64359539,6.94688023,,,0,STA-STP-0049,,
STP-0050,0050,COLLEGE LA CHENAIE,,43.6168297,6.9716228,,,0,STA-STP-0050,,
STP-0051,0051,BARTHOU 2,,43.6635849,6.9215633,,,0,STA-STP-0051,,
STP-0052,0052,BAS COULOUBRIER,,43.612503,6.915923,,,0,STA-STP-0052,,
STP-0053,0053,BAS COULOUBRIER,,43.61237,6.9158591,,,0,STA-STP-0053,,
STP-0054,0054,STADE PERDIGON,,43.6362297,6.9330788,,,0,STA-STP-0054,,
STP-0055,0055,STADE PERDIGON,,43.6364448,6.9334595,,,0,STA-STP-0055,,
STP-0056,0056,LES BASSES MOULIERES,,43.6315297,6.9220642,,,0,STA-STP-0056,,
STP-0057,0057,LES BASSES MOULIERES,,43.6315693,6.9220354,,,0,STA-STP-0057,,
STP-0060,0060,LES BASTIDES,,43.6816901,6.9553045,,,0,STA-STP-0060,,
STP-0061,0061,LES BASTIDES,,43.6815339,6.9566614,,,0,STA-STP-0061,,1
STP-0064,0064,LES BASTIDES DE MOUANS,,43.6239386,6.9661825,,,0,STA-STP-0064,,
STP-0065,0065,LES BASTIDES DE MOUANS,,43.6239509,6.9660094,,,0,STA-STP-0065,,
STP-0066,0066,LES BASTIDES DU GOLF,,43.6276441,6.9597048,,,0,STA-STP-0066,,1
STP-0067,0067,LES BASTIDES DU GOLF,,43.6274096,6.9603173,,,0,STA-STP-0067,,1
STP-0068,0068,LES BASTIDES SAINT-MICHEL,,43.6389627,6.9272364,,,0,STA-STP-0068,,
STP-0069,0069,LES BASTIDES SAINT-MICHEL,,43.6389627,6.9271052,,,0,STA-STP-0069,,
STP-0070,0070,LES BASTIONS,,43.620142,6.9628667,,,0,STA-STP-0070,,
STP-0071,0071,LES BASTIONS TERMINUS,,43.6203303,6.9654693,,,0,STA-STP-0071,,
STP-0072,0072,BEAUPLAN,,43.6462335,6.9629816,,,0,STA-STP-0072,,
STP-0073,0073,BEAUPLAN,,43.6462775,6.9630425,,,0,STA-STP-0073,,
STP-0074,0074,BEL AIR,,43.6510886,6.9164104,,,0,STA-STP-0074,,
STP-0075,0075,BEL AIR,,43.6512349,6.9167646,,,0,STA-STP-0075,,
STP-0076,0076,ROND-POINT SAINTE MARGUERITE,,43.64432306,6.9537417,,,0,STA-STP-0076,,
STP-0077,0077,ROND-POINT SAINTE MARGUERITE,,43.64434153,6.95416947,,,0,STA-STP-0077,,
STP-0078,0078,BELLAUD,,43.6568563,6.9231219,,,0,STA-STP-0078,,1
STP-0079,0079,BELLAUD,,43.6570614,6.923645,,,0,STA-STP-0079,,1
STP-0080,0080,CARREFOUR PEYROULES,,43.8100311,6.6716462,,,0,STA-STP-0080,,
STP-0081,0081,CARREFOUR PEYROULES,,43.8105568,6.6722981,,,0,STA-STP-0081,,
STP-0084,0084,LES BERENGUIERS,,43.6316131,6.8721685,,,0,STA-STP-0084,,
STP-0085,0085,LES BERENGUIERS,,43.6311239,6.8718904,,,0,STA-STP-0085,,
STP-0086,0086,LES BERNARDS,,43.6482984,6.8214756,,,0,STA-STP-0086,,
STP-0087,0087,LES BERNARDS,,43.6483985,6.8215579,,,0,STA-STP-0087,,
STP-0088,0088,LES BERTRAND,,43.6053984,6.91701,,,0,STA-STP-0088,,
STP-0089,0089,LES BERTRAND,,43.6056197,6.9167674,,,0,STA-STP-0089,,
STP-0095,0095,LA BLEJARDE,,43.6440241,6.8835841,,,0,STA-STP-0095,,
STP-0096,0096,LA BLEJARDE,,43.6443959,6.8840437,,,0,STA-STP-0096,,
STP-0097,0097,BLUMENTHAL,,43.661227,6.9477224,,,0,STA-STP-0097,,
STP-0098,0098,BLUMENTHAL,,43.6615912,6.9478238,,,0,STA-STP-0098,,
STP-0099,0099,LES BOIS BAUMETTES,,43.6209901,6.9571303,,,0,STA-STP-0099,,
STP-0100,0100,BOIS DE BOULOGNE,,43.6334668,6.9315516,,,0,STA-STP-0100,,1
STP-0101,0101,BOIS DE BOULOGNE,,43.6339383,6.9322158,,,0,STA-STP-0101,,1
STP-0102,0102,LES BOIS DE GRASSE,,43.6268583,6.9373847,,,0,STA-STP-0102,,
STP-0103,0103,LES BOIS DE GRASSE,,43.6266448,6.93764768,,,0,STA-STP-0103,,
STP-0104,0104,BOIS DE LA MOURACHONNE,,43.6204262,6.9342022,,,0,STA-STP-0104,,
STP-0105,0105,BOIS DE LA MOURACHONNE,,43.6203015,6.9338353,,,0,STA-STP-0105,,
STP-0106,0106,BOIS DE SAINT VALLIER,,43.6906462,6.8656196,,,0,STA-STP-0106,,
STP-0107,0107,BOIS DE SAINT VALLIER,,43.6901779,6.8676196,,,0,STA-STP-0107,,
STP-0108,0108,BOIS FLEURI,,43.6347433,6.9516264,,,0,STA-STP-0108,,
STP-0109,0109,BOIS FLEURI,,43.6350784,6.9517913,,,0,STA-STP-0109,,1
STP-0110,0110,LES BOIS MURES,,43.6342398,6.93933,,,0,STA-STP-0110,,
STP-0111,0111,LES BOIS MURES,,43.6354295,6.9402282,,,0,STA-STP-0111,,
STP-0112,0112,LE BON MARCHE,,43.661248,6.9287685,,,0,STA-STP-0112,,
STP-0115,0115,CHEMIN DU COLLET DE L'AVERE,,43.60133835,6.92445862,,,0,STA-STP-0115,,
STP-0116,0116,CHEMIN DES TAPETS,,43.60138497,6.92825127,,,0,STA-STP-0116,,
STP-0117,0117,LE BOUTEOU,,43.58822183,6.92670655,,,0,STA-STP-0117,,1
STP-0118,0118,LE BOUTEOU,,43.58781171,6.92633925,,,0,STA-STP-0118,,1
STP-0119,0119,AIME LEGALL,,43.62209468,6.97330919,,,0,STA-STP-0119,,1
STP-0121,0121,DOMAINE DES ROUMIGUIERES,,43.62991793,6.92984487,,,0,STA-STP-0121,,
STP-0122,0122,DOMAINE DES ROUMIGUIERES,,43.63001597,6.93008895,,,0,STA-STP-0122,,
STP-0123,0123,LA BRISE,,43.6616761,6.9211351,,,0,STA-STP-0123,,
STP-0124,0124,LA SIAGNE D'AURIBEAU,,43.61111565,6.89469337,,,0,STA-STP-0124,,
STP-0127,0127,LES BRUNETTES,,43.609689,6.9657911,,,0,STA-STP-0127,,1
STP-0128,0128,LES BRUNETTES,,43.6101283,6.9661012,,,0,STA-STP-0128,,1
STP-0129,0129,LE CABANON,,43.6263767,6.8347365,,,0,STA-STP-0129,,
STP-0130,0130,LE CABANON,,43.6263472,6.8344367,,,0,STA-STP-0130,,
STP-0133,0133,LE CABRIS,,43.6575189,6.9130601,,,0,STA-STP-0133,,
STP-0134,0134,LE CABRIS,,43.6576504,6.9130472,,,0,STA-STP-0134,,
STP-0135,0135,CABRIS CENTRE,,43.6565832,6.8744829,,,0,STA-STP-0135,,
STP-0136,0136,CABRIS CENTRE,,43.656623,6.8750866,,,0,STA-STP-0136,,
STP-0140,0140,LA CADENIERE,,43.6443319,6.85158,,,0,STA-STP-0140,,
STP-0141,0141,LA CADENIERE,,43.6446492,6.8517795,,,0,STA-STP-0141,,
STP-0142,0142,LA CAILLENQUE,,43.5874272,6.9570868,,,0,STA-STP-0142,,
STP-0143,0143,LA CAILLENQUE,,43.5878722,6.9568756,,,0,STA-STP-0143,,
STP-0144,0144,LA CALADE,,43.6511769,6.910033,,,0,STA-STP-0144,,
STP-0145,0145,LA CALADE,,43.6511628,6.9101463,,,0,STA-STP-0145,,
STP-0146,0146,LE CALME,,43.6560153,6.8723724,,,0,STA-STP-0146,,
STP-0147,0147,LE CALME,,43.6561019,6.8725086,,,0,STA-STP-0147,,
STP-0148,0148,LE CALVAIRE,,43.6386092,6.9335965,,,0,STA-STP-0148,,
STP-0149,0149,LE CALVAIRE,,43.6393047,6.9337451,,,0,STA-STP-0149,,
STP-0150,0150,LES CAMPANETTES,,43.63856386,6.90730966,,,0,STA-STP-0150,,
STP-0151,0151,LES CAMPANETTES,,43.63849861,6.90727661,,,0,STA-STP-0151,,
STP-0152,0152,LE CAMPING,,43.6672125,6.9339214,,,0,STA-STP-0152,,
STP-0153,0153,LE CAMPING,,43.66692704,6.93371995,,,0,STA-STP-0153,,
STP-0154,0154,ROURE DE LA GACHE,,43.6498719,6.9600942,,,0,STA-STP-0154,,
STP-0155,0155,ROURE DE LA GACHE,,43.6499899,6.960226,,,0,STA-STP-0155,,
STP-0156,0156,LE CANAL,,43.6537625,6.9349327,,,0,STA-STP-0156,,
STP-0157,0157,LE CANAL,,43.6539195,6.9348423,,,0,STA-STP-0157,,
STP-0158,0158,LE CANAL,,43.6465956,6.9266498,,,0,STA-STP-0158,,
STP-0159,0159,LE CANAL,,43.6470485,6.9262112,,,0,STA-STP-0159,,
STP-0160,0160,LE CANDEOU,,43.6258568,6.8769644,,,0,STA-STP-0160,,
STP-0161,0161,CHEMIN DE PROVENCE,,43.6333599,6.85987842,,,0,STA-STP-0161,,
STP-0162,0162,LES CANNEBIERS,,43.5948395,6.9565829,,,0,STA-STP-0162,,
STP-0163,0163,LES CANNEBIERS,,43.5952188,6.9562555,,,0,STA-STP-0163,,
STP-0164,0164,CANTEPERDRIX,,43.6413597,6.9079134,,,0,STA-STP-0164,,
STP-0165,0165,LA CANTINE,,43.63753991,6.86491651,,,0,STA-STP-0165,,1
STP-0166,0166,LA CANTINE,,43.63761068,6.8647961,,,0,STA-STP-0166,,1
STP-0167,0167,CAPUCINS BAS,,43.6537105,6.92755212,,,0,STA-STP-0167,,
STP-0168,0168,CAPUCINS BAS,,43.6537731,6.92735119,,,0,STA-STP-0168,,
STP-0169,0169,CAPUCINS HAUTS,,43.653059,6.9291015,,,0,STA-STP-0169,,
STP-0170,0170,CAPUCINS HAUTS,,43.6530943,6.9293746,,,0,STA-STP-0170,,
STP-0171,0171,LA CARDELLE,,43.6389281,6.8686023,,,0,STA-STP-0171,,
STP-0172,0172,LA CARDELLE,,43.639023,6.868396,,,0,STA-STP-0172,,
STP-0173,0173,CHEMIN DE LA PETITE FONTAINE,,43.64416755,6.87701165,,,0,STA-STP-0173,,
STP-0174,0174,CARIGNAN,,43.6441737,6.9770864,,,0,STA-STP-0174,,
STP-0175,0175,CARNOT,,43.6556932,6.9219778,,,0,STA-STP-0175,,1
STP-0180,0180,LA CASCADE,,43.6657829,6.902672,,,0,STA-STP-0180,,
STP-0181,0181,LA CASCADE,,43.665204,6.9033757,,,0,STA-STP-0181,,
STP-0184,0184,CASERNE DES POMPIERS,,43.6438034,6.8790109,,,0,STA-STP-0184,,
STP-0185,0185,ROND-POINT DE CASTELLARAS,,43.63384221,6.98375919,,,0,STA-STP-0185,,
STP-0186,0186,LES CASERNES,,43.6508019,6.9220499,,,0,STA-STP-0186,,
STP-0187,0187,LES CASERNES,,43.6510413,6.9221564,,,0,STA-STP-0187,,
STP-0190,0190,V.V.F LES CEDRES,,43.6620214,6.9337416,,,0,STA-STP-0190,,
STP-0191,0191,V.V.F LES CEDRES,,43.6619308,6.9337243,,,0,STA-STP-0191,,
STP-0192,0192,CENTRE COMMERCIAL,,43.6453369,6.8863211,,,0,STA-STP-0192,,
STP-0193,0193,CENTRE COMMERCIAL,,43.6453146,6.8860827,,,0,STA-STP-0193,,
STP-0194,0194,CERCLE SAINT-JEAN,,43.6658417,6.9440318,,,0,STA-STP-0194,,
STP-0195,0195,CERCLE SAINT-JEAN,,43.6657596,6.9440291,,,0,STA-STP-0195,,
STP-0198,0198,LA CERISAIE,,43.647504,6.9186561,,,0,STA-STP-0198,,
STP-0199,0199,LA CERISAIE,,43.6473973,6.9185063,,,0,STA-STP-0199,,
STP-0202,0202,CHAPELLE DE CABRIS,,43.6567543,6.8769124,,,0,STA-STP-0202,,
STP-0203,0203,CHAPELLE DE CABRIS,,43.6568528,6.8768755,,,0,STA-STP-0203,,
STP-0204,0204,LA CHAPELLE DU TIGNET,,43.6421318,6.8492152,,,0,STA-STP-0204,,
STP-0205,0205,LA CHAPELLE DU TIGNET,,43.6420307,6.8479983,,,0,STA-STP-0205,,1
STP-0206,0206,CHAPELLE DES CHIENS,,43.66014723,6.91855431,,,0,STA-STP-0206,,
STP-0207,0207,CHAPELLE DES CHIENS,,43.6602132,6.91839606,,,0,STA-STP-0207,,
STP-0208,0208,ROND-POINT DES FAUVETTES,,43.62463859,6.99847186,,,0,STA-STP-0208,,
STP-0209,0209,CHAPELLE SAINT-MATHIEU,,43.6601305,6.954938,,,0,STA-STP-0209,,
STP-0211,0211,CHAPELLE SAINT PONS,,43.6945362,6.848312,,,0,STA-STP-0211,,
STP-0212,0212,CHAPELLE SAINT PONS,,43.6947211,6.8483079,,,0,STA-STP-0212,,
STP-0213,0213,CHARABOT,,43.6600585,6.9217094,,,0,STA-STP-0213,,
STP-0214,0214,CHASSEURS ALPINS,,43.6507498,6.9219214,,,0,STA-STP-0214,,
STP-0215,0215,CHASSEURS ALPINS,,43.6504081,6.920944,,,0,STA-STP-0215,,
STP-0216,0216,LE CHATEAU,,43.598367,6.9316379,,,0,STA-STP-0216,,
STP-0217,0217,LE CHATEAU,,43.5983293,6.931796,,,0,STA-STP-0217,,
STP-0218,0218,LE CHATEAU,,43.65591976,6.90354158,,,0,STA-STP-0218,,
STP-0219,0219,LE CHATEAU,,43.65584336,6.90378133,,,0,STA-STP-0219,,
STP-0220,0220,LE CHATEAU D'EAU,,43.6088881,6.9350447,,,0,STA-STP-0220,,
STP-0221,0221,LE CHATEAU D'EAU,,43.6086426,6.935058,,,0,STA-STP-0221,,
STP-0222,0222,LE CHAUDRON,,43.6297303,6.9588458,,,0,STA-STP-0222,,
STP-0223,0223,LE CHAUDRON,,43.6304851,6.9587841,,,0,STA-STP-0223,,
STP-0224,0224,LES CHAUVES,,43.6788109,6.9530305,,,0,STA-STP-0224,,
STP-0225,0225,LES CHAUVES,,43.6788532,6.9529665,,,0,STA-STP-0225,,
STP-0226,0226,LES CHAUVES,,43.6804731,6.9525972,,,0,STA-STP-0226,,
STP-0227,0227,LES CHAUVES,,43.6803281,6.9522049,,,0,STA-STP-0227,,
STP-0229,0229,CHEMIN DU NOYER,,43.6447664,6.8660575,,,0,STA-STP-0229,,
STP-0231,0231,CHEMIN DE BRASSAURIS,,43.6441225,6.9637052,,,0,STA-STP-0231,,
STP-0232,0232,CHEMIN DE BRASSAURIS,,43.6440057,6.9644892,,,0,STA-STP-0232,,
STP-0233,0233,CHEMIN DE CABRIS,,43.6522857,6.8134202,,,0,STA-STP-0233,,
STP-0234,0234,CHEMIN DE CASTELLARAS,,43.6369016,6.9781596,,,0,STA-STP-0234,,
STP-0235,0235,CHEMIN DE L EMBUT,,43.6025596,6.9524104,,,0,STA-STP-0235,,
STP-0236,0236,CHEMIN DE L EMBUT,,43.6024976,6.9524436,,,0,STA-STP-0236,,
STP-0237,0237,CHEMIN DE L ENTOURE,,43.6565613,6.8708109,,,0,STA-STP-0237,,
STP-0238,0238,CHEMIN DE L ENTOURE,,43.6566706,6.8704834,,,0,STA-STP-0238,,
STP-0241,0241,HAMEAU DE SAINT JEAN,,43.5800209,6.9479287,,,0,STA-STP-0241,,
STP-0242,0242,LA DEGOUTE,,43.6157707,6.9336816,,,0,STA-STP-0242,,
STP-0243,0243,CHEMIN DE LA MADELEINE,,43.6598521,6.9296415,,,0,STA-STP-0243,,
STP-0244,0244,CHEMIN DE LA MADELEINE,,43.6597356,6.9296745,,,0,STA-STP-0244,,
STP-0247,0247,CHEMIN DE LA PLATRIERE,,43.6643093,6.9601882,,,0,STA-STP-0247,,
STP-0248,0248,CHEMIN DE LA PLATRIERE,,43.6643529,6.960144,,,0,STA-STP-0248,,
STP-0253,0253,LA COUASTE,,43.79203559,6.65589938,,,0,STA-STP-0253,,
STP-0254,0254,LA COUASTE,,43.79200099,6.65586085,,,0,STA-STP-0254,,
STP-0257,0257,CHEMIN DE NOTRE DAME,,43.6151551,6.9188296,,,0,STA-STP-0257,,
STP-0258,0258,CHEMIN DE NOTRE DAME,,43.6152616,6.9186227,,,0,STA-STP-0258,,
STP-0259,0259,CHEMIN DE POURCEL,,43.5745549,6.9598367,,,0,STA-STP-0259,,
STP-0260,0260,CHEMIN DE POURCEL,,43.5749388,6.9603078,,,0,STA-STP-0260,,1
STP-0263,0263,CHEMIN DE THEAS,,43.6572911,6.8065171,,,0,STA-STP-0263,,
STP-0264,0264,ANTOINE CRESP,,43.650462,6.795988,,,0,STA-STP-0264,,1
STP-0269,0269,BASSES RIBES,,43.645267,6.9092543,,,0,STA-STP-0269,,
STP-0270,0270,BASSES RIBES,,43.6451788,6.9090349,,,0,STA-STP-0270,,
STP-0271,0271,CHEMIN DES BASSES MOULIERES,,43.625513,6.92751,,,0,STA-STP-0271,,
STP-0272,0272,CHEMIN DES BASSES MOULIERES,,43.6255633,6.9274111,,,0,STA-STP-0272,,
STP-0273,0273,CHEMIN DES BASTIONS,,43.6205412,6.9604502,,,0,STA-STP-0273,,
STP-0274,0274,LOGIS DU PIN,,43.7794569,6.642123,,,0,STA-STP-0274,,
STP-0277,0277,CHEMIN DES CASTORS,,43.6407613,6.9331319,,,0,STA-STP-0277,,
STP-0278,0278,CHEMIN DES CASTORS,,43.6404006,6.9332696,,,0,STA-STP-0278,,
STP-0279,0279,CHEMIN DES CIGALES,,43.6215566,6.9535513,,,0,STA-STP-0279,,
STP-0280,0280,CHEMIN DES CIGALES,,43.6216179,6.9534111,,,0,STA-STP-0280,,
STP-0281,0281,CHEMIN DES JAÏSOUS,,43.6407774,6.8622168,,,0,STA-STP-0281,,
STP-0283,0283,CHEMIN DES LUCIOLES,,43.613758,6.9625455,,,0,STA-STP-0283,,
STP-0285,0285,CHEMIN DES LYS,,43.6204345,6.9637039,,,0,STA-STP-0285,,
STP-0286,0286,VALDEROURE FAUCHIER,,43.7944785,6.6994374,,,0,STA-STP-0286,,
STP-0287,0287,CHEMIN DES MAURES ET DES ADRETS,,43.63902937,6.89354615,,,0,STA-STP-0287,,
STP-0288,0288,CHEMIN DES MOULINS,,43.6343762,6.8378785,,,0,STA-STP-0288,,
STP-0289,0289,VALDEROURE FAUCHIER,,43.7943926,6.6994513,,,0,STA-STP-0289,,
STP-0290,0290,CHEMIN DE LA PLAINE,,43.6348093,6.8663914,,,0,STA-STP-0290,,
STP-0293,0293,CHEMIN DU COLLET DE L'AVERE,,43.6011973,6.9244646,,,0,STA-STP-0293,,
STP-0296,0296,CHEMIN DU GROS CHENE,,43.6425045,6.8531434,,,0,STA-STP-0296,,
STP-0297,0297,CHEMIN DU GROS CHENE,,43.6431766,6.8538994,,,0,STA-STP-0297,,
STP-0300,0300,CHEMIN DU PETIT PUITS,,43.6575129,6.8027687,,,0,STA-STP-0300,,
STP-0301,0301,CHEMIN DU PLAN,,43.6540786,6.8110478,,,0,STA-STP-0301,,
STP-0304,0304,LA CHENAIE,,43.6301661,6.9173424,,,0,STA-STP-0304,,
STP-0305,0305,LA CHENAIE,,43.6302695,6.9177121,,,0,STA-STP-0305,,
STP-0306,0306,LES CHEVREFEUILLES,,43.6294898,6.9253817,,,0,STA-STP-0306,,
STP-0307,0307,LES CHEVREFEUILLES,,43.629317,6.9252447,,,0,STA-STP-0307,,
STP-0308,0308,CHEZ ROBERT,,43.6398746,6.9753835,,,0,STA-STP-0308,,
STP-0309,0309,LES CIGALES,,43.6299573,6.9090046,,,0,STA-STP-0309,,
STP-0310,0310,LES CIGALES,,43.6300097,6.909083,,,0,STA-STP-0310,,
STP-0311,0311,CIMETIERE CLAVARY,,43.6135059,6.9306407,,,0,STA-STP-0311,,
STP-0313,0313,CHEMIN DE LA PLAINE,,43.6348084,6.8664542,,,0,STA-STP-0313,,
STP-0314,0314,CIMETIERE DE PLASCASSIER,,43.6410504,6.9857219,,,0,STA-STP-0314,,
STP-0315,0315,CIMETIERE DE PLASCASSIER,,43.641145,6.985894,,,0,STA-STP-0315,,
STP-0316,0316,ROND POINT DE L'ALAMBIC,,43.64111919,6.93538517,,,0,STA-STP-0316,,
STP-0319,0319,CIMETIERE PAYSAGER,,43.600329,6.9448029,,,0,STA-STP-0319,,
STP-0320,0320,CIMETIERE SAINTE BRIGITTE 1,,43.6463957,6.9138742,,,0,STA-STP-0320,,
STP-0321,0321,CIMETIERE SAINTE BRIGITTE 1,,43.6466133,6.9138342,,,0,STA-STP-0321,,
STP-0322,0322,CIMETIERE SAINTE BRIGITTE 2,,43.6451411,6.9142549,,,0,STA-STP-0322,,
STP-0323,0323,CIMETIERE SAINTE BRIGITTE 2,,43.6452533,6.9144256,,,0,STA-STP-0323,,
STP-0324,0324,LES CITRONNIERS,,43.6562199,6.9132334,,,0,STA-STP-0324,,
STP-0325,0325,LES CITRONNIERS,,43.6562523,6.9132618,,,0,STA-STP-0325,,
STP-0330,0330,LA COLLE,,43.6502425,6.8107237,,,0,STA-STP-0330,,
STP-0331,0331,LA COLLE,,43.6502226,6.8096367,,,0,STA-STP-0331,,
STP-0332,0332,LA COLLE DES JUGES,,43.5908651,6.9572665,,,0,STA-STP-0332,,
STP-0333,0333,LA COLLE DES JUGES,,43.591269,6.9570912,,,0,STA-STP-0333,,
STP-0334,0334,COLLEGE CANTEPERDRIX,,43.638231,6.910836,,,0,STA-STP-0334,,1
STP-0335,0335,COLLEGE CANTEPERDRIX,,43.63820081,6.91021847,,,0,STA-STP-0335,,1
STP-0336,0336,COLLEGE DES JASMINS,,43.6430597,6.9487767,,,0,STA-STP-0336,,
STP-0337,0337,COLLEGE DES JASMINS,,43.643107,6.9498356,,,0,STA-STP-0337,,
STP-0338,0338,COLLEGE PAUL ARENE,,43.6374589,6.871487,,,0,STA-STP-0338,,
STP-0339,0339,COLLEGE SIMON WIESENTHAL,,43.6968519,6.8536157,,,0,STA-STP-0339,,
STP-0340,0340,LE COLLET,,43.6486224,6.9255771,,,0,STA-STP-0340,,1
STP-0341,0341,LE COLLET,,43.6485799,6.9261601,,,0,STA-STP-0341,,1
STP-0342,0342,COLLET D'ASSOU,,43.691193,6.8423577,,,0,STA-STP-0342,,
STP-0343,0343,COLLET D'ASSOU,,43.6911906,6.8424748,,,0,STA-STP-0343,,
STP-0344,0344,ECOLE DU COLLET DE GASQ,,43.68909338,6.85758815,,,0,STA-STP-0344,,
STP-0349,0349,LA CONDAMINE,,43.6546662,6.7918596,,,0,STA-STP-0349,,
STP-0351,0351,LES CONDAMINES,,43.6102167,6.9161763,,,0,STA-STP-0351,,
STP-0352,0352,LES CONDAMINES,,43.6102224,6.9160194,,,0,STA-STP-0352,,
STP-0353,0353,LE CONTENT,,43.6388855,6.8274136,,,0,STA-STP-0353,,
STP-0355,0355,COPERNIC,,43.6645816,6.9190716,,,0,STA-STP-0355,,
STP-0356,0356,CORNICHE BENARD 2 VALLONS,,43.62482546,6.97485766,,,0,STA-STP-0356,,1
STP-0357,0357,CORNICHE BENARD 2 VALLONS,,43.62473615,6.97490863,,,0,STA-STP-0357,,
STP-0360,0360,COSTE D'OR INFERIEURE,,43.6652543,6.9329317,,,0,STA-STP-0360,,
STP-0361,0361,COSTE D'OR INFERIEURE,,43.6651821,6.9326228,,,0,STA-STP-0361,,
STP-0363,0363,LES COTEAUX,,43.645757,6.916169,,,0,STA-STP-0363,,
STP-0364,0364,LES COTEAUX,,43.6458599,6.9159975,,,0,STA-STP-0364,,
STP-0365,0365,LES COTEAUX DE MOUANS,,43.6232166,6.956883,,,0,STA-STP-0365,,
STP-0366,0366,LES COTEAUX DE MOUANS,,43.6231685,6.9569992,,,0,STA-STP-0366,,
STP-0367,0367,COULOUBRIER,,43.6168562,6.9186481,,,0,STA-STP-0367,,
STP-0368,0368,COULOUBRIER,,43.6166241,6.918606,,,0,STA-STP-0368,,
STP-0369,0369,COURS HONORE CRESP,,43.6568668,6.9202296,,,0,STA-STP-0369,,
STP-0373,0373,LA CROIX,,43.6526162,6.9524367,,,0,STA-STP-0373,,
STP-0374,0374,LA CROIX,,43.6529288,6.9527141,,,0,STA-STP-0374,,
STP-0375,0375,LA CROIX DES MOULIERES,,43.6321277,6.9231615,,,0,STA-STP-0375,,
STP-0376,0376,LA CROIX DES MOULIERES,,43.632326,6.9230159,,,0,STA-STP-0376,,
STP-0378,0378,LE CROS,,43.5872796,6.9391052,,,0,STA-STP-0378,,1
STP-0379,0379,LE CROS,,43.5870827,6.9397344,,,0,STA-STP-0379,,1
STP-0380,0380,CROUET,,43.6566416,6.9238959,,,0,STA-STP-0380,,
STP-0381,0381,CROUET,,43.6568697,6.9245082,,,0,STA-STP-0381,,
STP-0382,0382,LES CYPRES,,43.6381173,6.9232448,,,0,STA-STP-0382,,
STP-0383,0383,LES CYPRES,,43.6381589,6.9230165,,,0,STA-STP-0383,,
STP-0384,0384,LA DEGOUTE,,43.6157015,6.9336513,,,0,STA-STP-0384,,
STP-0387,0387,DOCTEUR BELLETRUD,,43.6378528,6.8560832,,,0,STA-STP-0387,,
STP-0388,0388,DOCTEUR BELLETRUD,,43.6373688,6.8569383,,,0,STA-STP-0388,,
STP-0389,0389,DOMAINE DE CANTEPERDRIX,,43.6356455,6.9076874,,,0,STA-STP-0389,,
STP-0390,0390,DOMAINE DE CANTEPERDRIX,,43.6362534,6.9080208,,,0,STA-STP-0390,,
STP-0393,0393,DOMAINE DE L'ISTRE,,43.6292853,6.8437583,,,0,STA-STP-0393,,
STP-0394,0394,ECOLE AIME LEGALL,,43.6200495,6.9736926,,,0,STA-STP-0394,,1
STP-0395,0395,AIME LEGALL,,43.6220867,6.9735374,,,0,STA-STP-0395,,1
STP-0396,0396,ANTOINE CRESP,,43.650567,6.796026,,,0,STA-STP-0396,,
STP-0397,0397,ECOLE DE L OREE DU BOIS,,43.6138544,6.9677549,,,0,STA-STP-0397,,
STP-0400,0400,ECOLE ST FRANCOIS,,43.6502814,6.9001698,,,0,STA-STP-0400,,
STP-0402,0402,ECOLE SAINT-MATHIEU,,43.6593735,6.9450108,,,0,STA-STP-0402,,
STP-0404,0404,ECOLE DU BAYLE 1,,43.6050028,6.9128367,,,0,STA-STP-0404,,
STP-0405,0405,ECOLE DU BAYLE 2,,43.6052946,6.9134594,,,0,STA-STP-0405,,
STP-0406,0406,ECOLE FRANCOIS JACOB,,43.6157296,6.9496663,,,0,STA-STP-0406,,
STP-0408,0408,ECOLE SAINT-ANTOINE,,43.6439817,6.9302533,,,0,STA-STP-0408,,
STP-0409,0409,ECOLE SAINT-ANTOINE,,43.6441254,6.9302479,,,0,STA-STP-0409,,
STP-0410,0410,ECOLE VIEILLE,,43.57745234,6.95956573,,,0,STA-STP-0410,,1
STP-0411,0411,ECOLE VIEILLE,,43.57729267,6.95975229,,,0,STA-STP-0411,,1
STP-0412,0412,MATHIAS DUVAL,,43.653294,6.9212699,,,0,STA-STP-0412,,1
STP-0413,0413,CARNOT,,43.6546221,6.92132041,,,0,STA-STP-0413,,1
STP-0414,0414,LES EMERAUDES,,43.6644709,6.9349928,,,0,STA-STP-0414,,
STP-0415,0415,EMILE ZOLA,,43.6561718,6.9194172,,,0,STA-STP-0415,,
STP-0416,0416,EMILE ZOLA,,43.6560018,6.9193829,,,0,STA-STP-0416,,
STP-0417,0417,EMILIE CHIRIS,,43.6577057,6.9088144,,,0,STA-STP-0417,,
STP-0418,0418,EMILIE CHIRIS,,43.657571,6.9087848,,,0,STA-STP-0418,,
STP-0419,0419,EMMANUEL ROUQUIER,,43.6395746,6.941393,,,0,STA-STP-0419,,
STP-0420,0420,EMMANUEL ROUQUIER,,43.6399657,6.9418033,,,0,STA-STP-0420,,
STP-0421,0421,LES CYPRINES,,43.6911201,6.8636117,,,0,STA-STP-0421,,
STP-0422,0422,LES CYPRINES,,43.6911741,6.8640194,,,0,STA-STP-0422,,
STP-0424,0424,ESPACE CHIRIS,,43.6574889,6.9280872,,,0,STA-STP-0424,,
STP-0425,0425,ESPACE CHIRIS,,43.6574453,6.9282055,,,0,STA-STP-0425,,
STP-0426,0426,ESPACE PALISSY,,43.624917,6.9628963,,,0,STA-STP-0426,,
STP-0427,0427,ESPACE PALISSY,,43.6250244,6.9624824,,,0,STA-STP-0427,,
STP-0428,0428,EXPLOR,,43.6519821,6.9476701,,,0,STA-STP-0428,,1
STP-0429,0429,EXPLOR,,43.6528782,6.946543,,,0,STA-STP-0429,,1
STP-0430,0430,LE GROS RIBAS,,43.79607383,6.74163852,,,0,STA-STP-0430,,
STP-0431,0431,LE GROS RIBAS,,43.79617929,6.74167702,,,0,STA-STP-0431,,
STP-0432,0432,LA FENERIE,,43.58249797,6.92704079,,,0,STA-STP-0432,,
STP-0433,0433,LA FENERIE,,43.582575,6.927068,,,0,STA-STP-0433,,1
STP-0436,0436,DOMAINE DE LA ROSE,,43.6677433,6.9475095,,,0,STA-STP-0436,,
STP-0437,0437,DOMAINE DE LA ROSE,,43.6677546,6.9474282,,,0,STA-STP-0437,,
STP-0438,0438,LES FERMES,,43.5942554,6.9304694,,,0,STA-STP-0438,,
STP-0439,0439,LES FERMES,,43.5941838,6.9305695,,,0,STA-STP-0439,,
STP-0440,0440,LES FLEURS,,43.65467031,6.91808139,,,0,STA-STP-0440,,
STP-0441,0441,LES FLEURS,,43.65483491,6.91796686,,,0,STA-STP-0441,,
STP-0442,0442,LES FLEURS DE GRASSE,,43.6423544,6.9465052,,,0,STA-STP-0442,,
STP-0443,0443,LES FLEURS DE GRASSE,,43.64323,6.9459614,,,0,STA-STP-0443,,
STP-0444,0444,LES FLORALIES,,43.6540877,6.9304813,,,0,STA-STP-0444,,1
STP-0445,0445,LES FLORALIES,,43.6542335,6.9309634,,,0,STA-STP-0445,,1
STP-0453,0453,FRAGONARD,,43.6573042,6.9218508,,,0,STA-STP-0453,,
STP-0454,0454,LA FRAYERE,,43.6240011,6.9155472,,,0,STA-STP-0454,,
STP-0455,0455,LA FRAYERE,,43.6237626,6.9155838,,,0,STA-STP-0455,,
STP-0456,0456,LES FUSTIERS,,43.6348859,6.8819648,,,0,STA-STP-0456,,
STP-0458,0458,LES GABRES,,43.60664209,6.90187819,,,0,STA-STP-0458,,
STP-0459,0459,GALLOT,,43.6654657,6.8975376,,,0,STA-STP-0459,,
STP-0460,0460,GALLOT,,43.6655148,6.8960086,,,0,STA-STP-0460,,
STP-0461,0461,GAMBETTA,,43.6605001,6.9254327,,,0,STA-STP-0461,,
STP-0462,0462,PLACE DE LA BUANDERIE,,43.66104305,6.92317004,,,0,STA-STP-0462,,
STP-0463,0463,GRASSE SNCF,,43.6532192,6.9254575,,,0,STA-STP-0463,,1
STP-0465,0465,GASTON DE FONTMICHEL,,43.63577443,6.95666636,,,0,STA-STP-0465,,1
STP-0466,0466,GASTON DE FONTMICHEL,,43.63569702,6.95687546,,,0,STA-STP-0466,,1
STP-0467,0467,GASTOUNETTE,,43.6341027,6.8508698,,,0,STA-STP-0467,,1
STP-0468,0468,GASTOUNETTE,,43.6340981,6.8505962,,,0,STA-STP-0468,,
STP-0469,0469,LES GENETS,,43.6481713,6.9243181,,,0,STA-STP-0469,,
STP-0470,0470,LES GENETS,,43.648501,6.9239422,,,0,STA-STP-0470,,
STP-0471,0471,LES GLYCINES,,43.6304825,6.9257474,,,0,STA-STP-0471,,
STP-0472,0472,LES GLYCINES,,43.6304199,6.9256328,,,0,STA-STP-0472,,
STP-0473,0473,LES GOURETTES,,43.6151212,6.9747426,,,0,STA-STP-0473,,1
STP-0474,0474,LES GOURETTES,,43.615623,6.974591,,,0,STA-STP-0474,,1
STP-0475,0475,LES GOURGUETTES,,43.5811901,6.9590505,,,0,STA-STP-0475,,
STP-0476,0476,LES GOURGUETTES,,43.5807958,6.9591623,,,0,STA-STP-0476,,
STP-0479,0479,GRAND HOTEL,,43.6633872,6.9297918,,,0,STA-STP-0479,,
STP-0480,0480,GRAND HOTEL,,43.6634534,6.9294325,,,0,STA-STP-0480,,
STP-0481,0481,LE GRAND JARDIN,,43.6190874,6.9757782,,,0,STA-STP-0481,,
STP-0482,0482,LE GRAND JARDIN,,43.6192887,6.9758889,,,0,STA-STP-0482,,
STP-0483,0483,LE GRAND JAS,,43.6004695,6.931404,,,0,STA-STP-0483,,
STP-0484,0484,LE GRAND JAS,,43.6004721,6.9315157,,,0,STA-STP-0484,,
STP-0485,0485,GRAOU DE THANON,,43.6707583,6.7973732,,,0,STA-STP-0485,,
STP-0486,0486,GRAOU DE THANON,,43.6701467,6.7979126,,,0,STA-STP-0486,,
STP-0489,0489,LES GROTTES,,43.6578579,6.8115498,,,0,STA-STP-0489,,
STP-0490,0490,LES GUICHARDS,,43.6405037,6.8529511,,,0,STA-STP-0490,,
STP-0491,0491,LES GUICHARDS,,43.6412293,6.854346,,,0,STA-STP-0491,,
STP-0492,0492,GUY DE MAUPASSANT,,43.6524834,6.9147123,,,0,STA-STP-0492,,
STP-0493,0493,GUY DE MAUPASSANT,,43.6525124,6.9145807,,,0,STA-STP-0493,,
STP-0495,0495,LA HALTE,,43.64136674,6.91134602,,,0,STA-STP-0495,,
STP-0496,0496,LA HALTE,,43.6418637,6.9111979,,,0,STA-STP-0496,,
STP-0497,0497,HAMEAU DES CASTORS,,43.6415923,6.9325019,,,0,STA-STP-0497,,
STP-0498,0498,HAMEAU DES CASTORS,,43.6416241,6.9326609,,,0,STA-STP-0498,,
STP-0499,0499,HAUT COULOUBRIER,,43.6201514,6.9182786,,,0,STA-STP-0499,,
STP-0500,0500,HAUT COULOUBRIER,,43.6197846,6.9182895,,,0,STA-STP-0500,,
STP-0501,0501,LES HAUTES RIBES,,43.6652737,6.8945716,,,0,STA-STP-0501,,
STP-0502,0502,LES HAUTES RIBES,,43.6652492,6.89372,,,0,STA-STP-0502,,
STP-0503,0503,LES HAUTES RIBES 2,,43.6639003,6.8954153,,,0,STA-STP-0503,,
STP-0504,0504,LES HAUTES RIBES 2,,43.6640523,6.895463,,,0,STA-STP-0504,,
STP-0505,0505,LES HAUTS CHAMPS,,43.6485477,6.9612336,,,0,STA-STP-0505,,
STP-0506,0506,LES HAUTS CHAMPS,,43.6488721,6.9610305,,,0,STA-STP-0506,,
STP-0507,0507,LES HAUTS DE LA FRAYERE,,43.6370472,6.8829036,,,0,STA-STP-0507,,
STP-0509,0509,LES HAUTS DE SAINT JACQUES,,43.6282798,6.9135543,,,0,STA-STP-0509,,1
STP-0510,0510,LES HAUTS DE SAINT JACQUES,,43.6285414,6.9132827,,,0,STA-STP-0510,,1
STP-0511,0511,LES 4 FERS,,43.6393173,6.8452888,,,0,STA-STP-0511,,
STP-0512,0512,HENRI BENARD,,43.6661777,6.9265713,,,0,STA-STP-0512,,
STP-0513,0513,HENRI DUNANT,,43.6500426,6.9221934,,,0,STA-STP-0513,,
STP-0514,0514,HENRI DUNANT,,43.6501666,6.9221271,,,0,STA-STP-0514,,
STP-0516,0516,HOPITAL,,43.61950183,6.93077342,,,0,STA-STP-0516,,1
STP-0520,0520,HOTEL PARADIS,,43.6619509,6.9290872,,,0,STA-STP-0520,,
STP-0526,0526,J.CUMERO LE PLAN,,43.6415304,6.9589478,,,0,STA-STP-0526,,
STP-0527,0527,JACINTHE,,43.6446566,6.9393238,,,0,STA-STP-0527,,
STP-0528,0528,JACINTHE,,43.6446909,6.9396276,,,0,STA-STP-0528,,
STP-0529,0529,LES JACOURETS,,43.6446047,6.8684577,,,0,STA-STP-0529,,
STP-0531,0531,LES JAISOUS,,43.6448753,6.8633514,,,0,STA-STP-0531,,
STP-0533,0533,LE JARDIN,,43.6416313,6.9119398,,,0,STA-STP-0533,,
STP-0534,0534,THORENC,,43.8052395,6.8046577,,,0,STA-STP-0534,,
STP-0535,0535,THORENC,,43.8049445,6.8047581,,,0,STA-STP-0535,,
STP-0536,0536,JARDINS D'ARCADIE,,43.6589293,6.9141423,,,0,STA-STP-0536,,
STP-0537,0537,LES JARDINS DE GRASSE,,43.6652526,6.9257877,,,0,STA-STP-0537,,
STP-0538,0538,LES JARDINS DE PROVENCE,,43.6498874,6.8033328,,,0,STA-STP-0538,,
STP-0539,0539,LES JARDINS DE PROVENCE,,43.6499337,6.8043515,,,0,STA-STP-0539,,1
STP-0540,0540,LE JAS NEUF,,43.6429032,6.8832957,,,0,STA-STP-0540,,
STP-0546,0546,JEAN XXIII,,43.6619633,6.9366549,,,0,STA-STP-0546,,
STP-0547,0547,JEAN XXIII,,43.661904,6.9367128,,,0,STA-STP-0547,,
STP-0548,0548,JEANNE JUGAN,,43.6607229,6.9080969,,,0,STA-STP-0548,,
STP-0549,0549,LES JONQUILLES,,43.6639028,6.9536604,,,0,STA-STP-0549,,
STP-0550,0550,LES JONQUILLES,,43.6638537,6.9535984,,,0,STA-STP-0550,,
STP-0555,0555,SAINTE LORETTE,,43.65384039,6.91887072,,,0,STA-STP-0555,,
STP-0556,0556,LES JARDINS D'ARCADIE,,43.65889139,6.91402898,,,0,STA-STP-0556,,
STP-0557,0557,PARC DU PRADO,,43.6596239,6.91255609,,,0,STA-STP-0557,,
STP-0558,0558,L'AVEN,,43.6533142,6.9095743,,,0,STA-STP-0558,,
STP-0559,0559,L'AVEN,,43.653434,6.9096235,,,0,STA-STP-0559,,
STP-0560,0560,L'HERMITAGE,,43.6631874,6.9393546,,,0,STA-STP-0560,,
STP-0561,0561,L'HERMITAGE,,43.6629186,6.9393114,,,0,STA-STP-0561,,
STP-0566,0566,L'AMANDIER,,43.6325703,6.9258087,,,0,STA-STP-0566,,
STP-0567,0567,L'AMANDIER,,43.6324321,6.9257186,,,0,STA-STP-0567,,
STP-0568,0568,LAGARDOU,,43.6930699,6.845034,,,0,STA-STP-0568,,
STP-0569,0569,LAGARDOU,,43.692885,6.8449507,,,0,STA-STP-0569,,
STP-0570,0570,LA LAUVE,,43.6799181,6.9581366,,,0,STA-STP-0570,,
STP-0571,0571,LA LAUVE,,43.6798946,6.9577823,,,0,STA-STP-0571,,
STP-0572,0572,LES LAVANDIERES,,43.6415621,6.979752,,,0,STA-STP-0572,,
STP-0573,0573,LA CASCADE 2,,43.6664926,6.9018155,,,0,STA-STP-0573,,
STP-0574,0574,LES LAZES,,43.6424489,6.8611391,,,0,STA-STP-0574,,
STP-0576,0576,LE BRUSQUET,,43.6426161,6.8283199,,,0,STA-STP-0576,,
STP-0577,0577,LE BRUSQUET,,43.6428091,6.8282997,,,0,STA-STP-0577,,
STP-0578,0578,LEOPOLD FUNEL,,43.6931205,6.8415158,,,0,STA-STP-0578,,
STP-0579,0579,LEOPOLD FUNEL,,43.6933138,6.8414243,,,0,STA-STP-0579,,
STP-0580,0580,LA LIANE,,43.6569989,6.917355,,,0,STA-STP-0580,,
STP-0581,0581,LA LIANE,,43.6569669,6.9174603,,,0,STA-STP-0581,,
STP-0582,0582,LA CHARMERAIE,,43.5922809,6.9308103,,,0,STA-STP-0582,,
STP-0583,0583,LA CHARMERAIE,,43.5924653,6.9307541,,,0,STA-STP-0583,,1
STP-0590,0590,LYCEE TOCQUEVILLE,,43.6541525,6.941976,,,0,STA-STP-0590,,
STP-0593,0593,MAGAGNOSC,,43.6813037,6.9673311,,,0,STA-STP-0593,,
STP-0594,0594,MAGAGNOSC,,43.6814883,6.9668384,,,0,STA-STP-0594,,
STP-0595,0595,MAIRIE ANNEXE MAGAGNOSC,,43.6817411,6.9623244,,,0,STA-STP-0595,,
STP-0596,0596,MAIRIE ANNEXE MAGAGNOSC,,43.6817415,6.9616859,,,0,STA-STP-0596,,
STP-0598,0598,MAIRIE DE LA ROQUETTE,,43.5805956,6.9561391,,,0,STA-STP-0598,,1
STP-0601,0601,MALBOSC,,43.6733029,6.9461732,,,0,STA-STP-0601,,
STP-0602,0602,MALBOSC,,43.6733229,6.9460473,,,0,STA-STP-0602,,
STP-0603,0603,MALBOSC,,43.6714409,6.9420657,,,0,STA-STP-0603,,
STP-0604,0604,MALBOSC,,43.6718933,6.9423162,,,0,STA-STP-0604,,
STP-0605,0605,DOMAINE DE MALBOSC,,43.669681,6.9487941,,,0,STA-STP-0605,,
STP-0606,0606,DOMAINE DE MALBOSC,,43.6696406,6.9489688,,,0,STA-STP-0606,,
STP-0607,0607,MARECHAL LECLERC,,43.65021093,6.9198938,,,0,STA-STP-0607,,
STP-0608,0608,MARECHAL LECLERC,,43.6499045,6.9190363,,,0,STA-STP-0608,,
STP-0609,0609,LA MARIGARDE,,43.6551103,6.9402461,,,0,STA-STP-0609,,
STP-0610,0610,LA MARIGARDE,,43.6552475,6.9402832,,,0,STA-STP-0610,,
STP-0611,0611,MARIQUITA,,43.681314,6.958709,,,0,STA-STP-0611,,
STP-0612,0612,MARIQUITA,,43.6813879,6.9586608,,,0,STA-STP-0612,,
STP-0613,0613,LES MARJOLAINES,,43.6654429,6.9252286,,,0,STA-STP-0613,,
STP-0614,0614,LES MARRONNIERS,,43.6480982,6.91183754,,,0,STA-STP-0614,,
STP-0615,0615,LES MARRONNIERS BAS,,43.6477073,6.914259,,,0,STA-STP-0615,,1
STP-0616,0616,LES MARRONNIERS BAS,,43.6477596,6.9133766,,,0,STA-STP-0616,,1
STP-0617,0617,MARTELLY,,43.6606645,6.9239683,,,0,STA-STP-0617,,
STP-0618,0618,MAS DES 2 VALLONS,,43.6252208,6.9148428,,,0,STA-STP-0618,,
STP-0619,0619,MAS DES 2 VALLONS,,43.6262937,6.9142726,,,0,STA-STP-0619,,
STP-0620,0620,LE MAUPAS,,43.6312509,6.8391126,,,0,STA-STP-0620,,
STP-0621,0621,LE MAUPAS,,43.6307093,6.8385529,,,0,STA-STP-0621,,
STP-0622,0622,MICHEL CHEVALIER,,43.62405592,6.93737335,,,0,STA-STP-0622,,
STP-0623,0623,MICHEL CHEVALIER,,43.62370883,6.93726613,,,0,STA-STP-0623,,
STP-0624,0624,LES MICOCOULIERS,,43.6486637,6.9368016,,,0,STA-STP-0624,,
STP-0625,0625,CHEMIN DES MIMOSAS,,43.6218035,6.8822517,,,0,STA-STP-0625,,
STP-0626,0626,MIMOSAS,,43.6200703,6.9498659,,,0,STA-STP-0626,,
STP-0627,0627,MIMOSAS,,43.6199793,6.9498121,,,0,STA-STP-0627,,
STP-0628,0628,LES MIMOSAS,,43.600214,6.9486138,,,0,STA-STP-0628,,
STP-0629,0629,VALLON DE SAINT PIERRE,,43.85728008,6.72087742,,,0,STA-STP-0629,,
STP-0630,0630,VALLON DE SAINT PIERRE,,43.85735949,6.72086041,,,0,STA-STP-0630,,
STP-0631,0631,MOLINARD,,43.65214716,6.92006073,,,0,STA-STP-0631,,
STP-0632,0632,LA MORE,,43.6504494,6.9488942,,,0,STA-STP-0632,,1
STP-0633,0633,LA MORE,,43.6498397,6.9498716,,,0,STA-STP-0633,,
STP-0634,0634,MOSSELLO,,43.6319491,6.8447046,,,0,STA-STP-0634,,1
STP-0635,0635,MOSSELLO,,43.6316019,6.8431282,,,0,STA-STP-0635,,
STP-0636,0636,MOUANS-SARTOUX CENTRE,,43.6189325,6.9716905,,,0,STA-STP-0636,,1
STP-0637,0637,MOUANS-SARTOUX CENTRE,,43.6190017,6.9718758,,,0,STA-STP-0637,,1
STP-0642,0642,LES MOULIERES,,43.6454201,6.8819082,,,0,STA-STP-0642,,
STP-0643,0643,CHEMIN DES BASTIDES,,43.6425079,6.9283929,,,0,STA-STP-0643,,
STP-0644,0644,CHEMIN DES BASTIDES,,43.6424468,6.9284737,,,0,STA-STP-0644,,
STP-0645,0645,MOULIN DE BRUN,,43.6532926,6.9453601,,,0,STA-STP-0645,,1
STP-0646,0646,MOULIN DE BRUN,,43.6540494,6.9438811,,,0,STA-STP-0646,,
STP-0649,0649,MOULIN VIEUX,,43.6077801,6.9156332,,,0,STA-STP-0649,,
STP-0650,0650,MOULIN VIEUX,,43.6076838,6.9155771,,,0,STA-STP-0650,,
STP-0651,0651,LES MOULINS,,43.6250487,6.8306744,,,0,STA-STP-0651,,
STP-0652,0652,LES MOULINS,,43.6251569,6.8306933,,,0,STA-STP-0652,,
STP-0655,0655,LES MURETS,,43.6326011,6.8702338,,,0,STA-STP-0655,,
STP-0656,0656,LES MURETS,,43.6326273,6.8700367,,,0,STA-STP-0656,,
STP-0660,0660,LE NAOUC,,43.6640498,6.885441,,,0,STA-STP-0660,,
STP-0661,0661,LE NAOUC,,43.6642802,6.8855205,,,0,STA-STP-0661,,
STP-0662,0662,LE NAOUC 2,,43.6635149,6.9005426,,,0,STA-STP-0662,,
STP-0663,0663,LE NAOUC 2,,43.6635656,6.9004249,,,0,STA-STP-0663,,
STP-0664,0664,ROUTE DE PEGOMAS,,43.638575,6.9336161,,,0,STA-STP-0664,,
STP-0665,0665,LA NARTASSIERE,,43.6117809,6.9593535,,,0,STA-STP-0665,,
STP-0667,0667,LE NEROLI,,43.6443687,6.9435271,,,0,STA-STP-0667,,1
STP-0668,0668,NOAILLES,,43.649127,6.907219,,,0,STA-STP-0668,,
STP-0669,0669,NOAILLES,,43.6491312,6.9074189,,,0,STA-STP-0669,,
STP-0670,0670,NOTRE DAME DE VALCLUSE,,43.614524,6.9212367,,,0,STA-STP-0670,,
STP-0671,0671,NOTRE DAME DE VALCLUSE,,43.615634,6.9210194,,,0,STA-STP-0671,,
STP-0676,0676,LES OLIVETTES,,43.6666551,6.9365864,,,0,STA-STP-0676,,
STP-0677,0677,LES OLIVIERS,,43.6552785,6.9072486,,,0,STA-STP-0677,,
STP-0678,0678,LES OLIVIERS,,43.6553815,6.9071703,,,0,STA-STP-0678,,
STP-0679,0679,LES OLIVIERS,,43.6659182,6.8893959,,,0,STA-STP-0679,,
STP-0680,0680,LES OLIVIERS,,43.6659077,6.889892,,,0,STA-STP-0680,,
STP-0681,0681,LES OLIVIERS,,43.639063,6.9496956,,,0,STA-STP-0681,,
STP-0682,0682,LES OLIVIERS,,43.6393801,6.9496814,,,0,STA-STP-0682,,
STP-0683,0683,LES OLIVIERS,,43.6646225,6.9486956,,,0,STA-STP-0683,,
STP-0684,0684,LES OLIVIERS,,43.664876,6.948449,,,0,STA-STP-0684,,
STP-0685,0685,LES OLIVIERS,,43.6285755,6.928642,,,0,STA-STP-0685,,1
STP-0686,0686,LES OLIVIERS,,43.628694,6.9286288,,,0,STA-STP-0686,,
STP-0687,0687,OSSOLA,,43.6576706,6.9254545,,,0,STA-STP-0687,,1
STP-0690,0690,PALAIS DE JUSTICE,,43.6566904,6.9289625,,,0,STA-STP-0690,,
STP-0691,0691,PALAIS DE JUSTICE,,43.6565627,6.9277431,,,0,STA-STP-0691,,
STP-0692,0692,PALAIS PROVENCAL,,43.6641037,6.9328831,,,0,STA-STP-0692,,
STP-0693,0693,PALAIS PROVENCAL,,43.6641582,6.9332563,,,0,STA-STP-0693,,
STP-0694,0694,LA PAOUTE,,43.6320154,6.9576482,,,0,STA-STP-0694,,
STP-0695,0695,LA PAOUTE,,43.6320178,6.9577682,,,0,STA-STP-0695,,1
STP-0700,0700,PARC INDUSTRIEL,,43.62720434,6.94061166,,,0,STA-STP-0700,,
STP-0701,0701,PARC INDUSTRIEL,,43.62739142,6.94081104,,,0,STA-STP-0701,,
STP-0703,0703,PETIT LION,,43.6661151,6.9399023,,,0,STA-STP-0703,,
STP-0704,0704,PETIT LION,,43.6661072,6.9397569,,,0,STA-STP-0704,,
STP-0705,0705,PETIT PARIS,,43.6506481,6.9189401,,,0,STA-STP-0705,,
STP-0706,0706,PETIT PARIS BAS,,43.6490145,6.9174525,,,0,STA-STP-0706,,1
STP-0707,0707,PETIT PARIS BAS,,43.6487074,6.9172082,,,0,STA-STP-0707,,1
STP-0708,0708,PETIT VALLON,,43.6800224,6.9555517,,,0,STA-STP-0708,,
STP-0709,0709,PETIT VALLON,,43.6801284,6.9549412,,,0,STA-STP-0709,,
STP-0710,0710,PETITE VIGNETTE,,43.6032139,6.9089753,,,0,STA-STP-0710,,
STP-0711,0711,PETITE VIGNETTE,,43.6034166,6.9089811,,,0,STA-STP-0711,,
STP-0712,0712,PETITES SOEURS DES PAUVRES,,43.6576738,6.910911,,,0,STA-STP-0712,,
STP-0713,0713,PETITES SOEURS DES PAUVRES,,43.6577578,6.9109601,,,0,STA-STP-0713,,
STP-0714,0714,PEYGROS,,43.6245749,6.881926,,,0,STA-STP-0714,,
STP-0715,0715,PLACE SAINTE ANNE,,43.6439783,6.8981106,,,0,STA-STP-0715,,
STP-0716,0716,LE PEYLOUBET,,43.6657007,6.9623282,,,0,STA-STP-0716,,
STP-0717,0717,LE PEYLOUBET,,43.6655963,6.9621832,,,0,STA-STP-0717,,
STP-0718,0718,PEYMEINADE CENTRE BOUTINY,,43.6414829,6.8787847,,,0,STA-STP-0718,,
STP-0719,0719,PEYMEINADE CENTRE CENTENAIRE,,43.6412083,6.8774169,,,0,STA-STP-0719,,
STP-0724,0724,PIERRANCHON,,43.6040343,6.9187153,,,0,STA-STP-0724,,1
STP-0725,0725,PIERRANCHON,,43.6041738,6.9181946,,,0,STA-STP-0725,,1
STP-0726,0726,LE PILON,,43.6863685,6.8781041,,,0,STA-STP-0726,,
STP-0727,0727,LE PILON,,43.6864111,6.878251,,,0,STA-STP-0727,,
STP-0728,0728,LES PINS-ESCARABINS,,43.6376117,6.8622091,,,0,STA-STP-0728,,
STP-0729,0729,PLACE DU CENTENAIRE,,43.6409379,6.8771631,,,0,STA-STP-0729,,
STP-0730,0730,LA PISCINE,,43.6394368,6.9560766,,,0,STA-STP-0730,,
STP-0731,0731,LA PISCINE,,43.6386848,6.9563142,,,0,STA-STP-0731,,
STP-0732,0732,PISCINE HARJES,,43.6650241,6.9382355,,,0,STA-STP-0732,,
STP-0733,0733,PISCINE HARJES,,43.6647979,6.9377438,,,0,STA-STP-0733,,
STP-0734,0734,PITCHOUNETTE,,43.6690932,6.9404606,,,0,STA-STP-0734,,
STP-0735,0735,PITCHOUNETTE,,43.6691169,6.9403607,,,0,STA-STP-0735,,
STP-0737,0737,PLACE FREDERIC MISTRAL,,43.6395102,6.9125195,,,0,STA-STP-0737,,1
STP-0738,0738,PLACE FREDERIC MISTRAL,,43.63965465,6.91232622,,,0,STA-STP-0738,,
STP-0739,0739,PLACE MOTTET,,43.632745,6.9126552,,,0,STA-STP-0739,,
STP-0740,0740,PEGOMAS CENTRE,,43.5945035,6.9271005,,,0,STA-STP-0740,,
STP-0741,0741,PEGOMAS CENTRE,,43.59410871,6.92629133,,,0,STA-STP-0741,,1
STP-0742,0742,PLACE SAINT-JEAN,,43.6646596,6.9417235,,,0,STA-STP-0742,,
STP-0743,0743,PLACE SAINT JEAN,,43.6648608,6.94154,,,0,STA-STP-0743,,
STP-0744,0744,PLACE SAINT SAUVEUR,,43.6614992,6.9076842,,,0,STA-STP-0744,,
STP-0745,0745,PLACE SAINT SAUVEUR,,43.6615462,6.9077366,,,0,STA-STP-0745,,
STP-0746,0746,CHEMIN DES PLAINES,,43.6243558,6.9597783,,,0,STA-STP-0746,,
STP-0747,0747,CHEMIN DES PLAINES,,43.6243518,6.9596098,,,0,STA-STP-0747,,
STP-0748,0748,LES PLAINES DE MALBOSC,,43.6753427,6.9483982,,,0,STA-STP-0748,,
STP-0749,0749,LES PLAINES DE MALBOSC,,43.6757483,6.9484795,,,0,STA-STP-0749,,
STP-0750,0750,LES PLAINES,,43.625095,6.9640852,,,0,STA-STP-0750,,
STP-0751,0751,LES PLAINES,,43.6251825,6.964156,,,0,STA-STP-0751,,
STP-0754,0754,PLAN SARRAIN,,43.6014455,6.9504302,,,0,STA-STP-0754,,
STP-0755,0755,PLAN SARRAIN,,43.60169884,6.9509988,,,0,STA-STP-0755,,
STP-0756,0756,LES PLANTIERS,,43.6224389,6.9685083,,,0,STA-STP-0756,,
STP-0757,0757,LES PLANTIERS,,43.622513,6.9685572,,,0,STA-STP-0757,,
STP-0758,0758,PLASCASSIER,,43.64305,6.9761123,,,0,STA-STP-0758,,
STP-0759,0759,PLATEAU NAPOLEON,,43.6684174,6.9249595,,,0,STA-STP-0759,,
STP-0760,0760,PLATEAU NAPOLEON,,43.6683403,6.9250788,,,0,STA-STP-0760,,
STP-0761,0761,LES POISSONNIERS,,43.6542328,6.9378187,,,0,STA-STP-0761,,
STP-0762,0762,LES POISSONNIERS,,43.6544821,6.9379713,,,0,STA-STP-0762,,
STP-0765,0765,LE PONT,,43.6430439,6.9564375,,,0,STA-STP-0765,,
STP-0766,0766,LE PONT,,43.6430834,6.9567308,,,0,STA-STP-0766,,
STP-0775,0775,PONT DE SIAGNE,,43.6275944,6.819111,,,0,STA-STP-0775,,
STP-0776,0776,PONT DE SIAGNE,,43.6275331,6.8190494,,,0,STA-STP-0776,,
STP-0777,0777,PONT DE SAINTE ANNE,,43.6455179,6.9017569,,,0,STA-STP-0777,,
STP-0778,0778,PONT DE SAINTE ANNE,,43.645458,6.9018338,,,0,STA-STP-0778,,
STP-0779,0779,PONT EIFFEL,,43.66080062,6.93086055,,,0,STA-STP-0779,,
STP-0780,0780,PONT EIFFEL,,43.66082124,6.93101627,,,0,STA-STP-0780,,
STP-0781,0781,PONT SNCF,,43.6520138,6.9576044,,,0,STA-STP-0781,,
STP-0782,0782,PONT SNCF,,43.6521034,6.9576084,,,0,STA-STP-0782,,
STP-0783,0783,PEGOMAS CENTRE,,43.59397607,6.92628893,,,0,STA-STP-0783,,
STP-0784,0784,LA POSTE,,43.6434232,6.8820735,,,0,STA-STP-0784,,
STP-0785,0785,SAINT VALLIER CENTRE,,43.6979385,6.8500541,,,0,STA-STP-0785,,
STP-0786,0786,SAINT VALLIER CENTRE,,43.6975713,6.8506132,,,0,STA-STP-0786,,
STP-0789,0789,L'ALAMBIC,,43.6418944,6.9376898,,,0,STA-STP-0789,,
STP-0790,0790,LE PRADON,,43.645278,6.871246,,,0,STA-STP-0790,,
STP-0792,0792,PRE DE BERT,,43.650186,6.815745,,,0,STA-STP-0792,,1
STP-0793,0793,PRE DE LA COMBE,,43.6584623,6.7931339,,,0,STA-STP-0793,,
STP-0794,0794,PRE DE LA COMBE,,43.6575182,6.7941424,,,0,STA-STP-0794,,
STP-0795,0795,PRE LONG,,43.6569752,6.7956278,,,0,STA-STP-0795,,
STP-0796,0796,PRIMAVERA,,43.6440395,6.9137037,,,0,STA-STP-0796,,
STP-0797,0797,PRIMAVERA,,43.6440045,6.9137979,,,0,STA-STP-0797,,
